time(millisecond),datetime(utc),latitude,longitude,height_above_takeoff(feet),height_above_ground_at_drone_location(feet),ground_elevation_at_drone_location(feet),altitude_above_seaLevel(feet),height_sonar(feet),speed(mph),distance(feet),mileage(feet),satellites,gpslevel,voltage(v),max_altitude(feet),max_ascent(feet),max_speed(mph),max_distance(feet), xSpeed(mph), ySpeed(mph), zSpeed(mph), compass_heading(degrees), pitch(degrees), roll(degrees),isPhoto,isVideo,rc_elevator,rc_aileron,rc_throttle,rc_rudder,rc_elevator(percent),rc_aileron(percent),rc_throttle(percent),rc_rudder(percent),gimbal_heading(degrees),gimbal_pitch(degrees),gimbal_roll(degrees),battery_percent,voltageCell1,voltageCell2,voltageCell3,voltageCell4,voltageCell5,voltageCell6,current(A),battery_temperature(f),altitude(feet),ascent(feet),flycStateRaw,flycState,message
0,2023-10-01 20:54:33,40.0688907569229,-88.2096499833426,0,Available with any HD 360 subscription,Available with any HD 360 subscription,706.43970403652,0.656168,0,0,0,24,10,0,706.43970403652,0,0,0,0,0,0,264.7, -0.6, -1,0,0,364,364,364,1684,-100,-100,-100,100,0,0,0,79,,,,,,,0,104.54,706.43970403652,0,41,Motors_Started,"Your aircraft is flying in an Altitude Zone (500m). Please fly with caution."
100,2023-10-01 20:54:33,40.0688907262007,-88.2096499721452,0,,,706.43970403652,0.656168,0,0.011636811396,0.011636811396,24,10,0,706.43970403652,0,0,0.011636811396,0,0,0,264.7, -0.6, -1,0,0,364,364,364,1684,-100,-100,-100,100,0,0,0,79,,,,,,,0,104.54,706.43970403652,0,41,Motors_Started,
200,2023-10-01 20:54:33,40.0688907473289,-88.209649978277,0,,,706.43970403652,0.656168,0,0.0037752953964,0.0195332683416,24,10,0,706.43970403652,0,0,0.011636811396,0,0,0,264.7, -0.6, -1,0,0,364,364,364,1684,-100,-100,-100,100,0,0,0,79,,,,,,,0,104.54,706.43970403652,0,41,Motors_Started,
300,2023-10-01 20:54:33,40.0688907650864,-88.2096499834346,0,,,706.43970403652,0.656168,0,0.00297858277248,0.0261702108112,24,10,0,706.43970403652,0,0,0.011636811396,0,0,0,264.7, -0.6, -1,0,0,364,364,364,1684,-100,-100,-100,100,0,0,0,79,,,,,,,0,104.54,706.43970403652,0,41,Motors_Started,
400,2023-10-01 20:54:34,40.068890773317,-88.2096499879203,0,,,706.43970403652,0.656168,0,0.0061164372036,0.0294238526476,24,10,0,706.43970403652,0,0,0.011636811396,0,0,0,264.7, -0.6, -1,0,0,1024,1024,1095,1024,0,0,11,0,0,0,0,79,,,,,,,0,104.54,706.43970403652,0,41,Motors_Started,
500,2023-10-01 20:54:34,40.0688907369036,-88.2096499907222,0,,,706.43970403652,0.656168,0,0.007589075046,0.042732284832,24,10,0,706.43970403652,0,0,0.011636811396,0,0,0,264.7, -0.6, -1,0,0,1024,1024,1024,1024,0,0,0,0,0,0,0,79,,,,,,,0,104.54,706.43970403652,0,41,Motors_Started,
600,2023-10-01 20:54:34,40.0688907498087,-88.2096499960262,0,,,706.43970403652,0.656168,0,0.0043907153636,0.047667980528,24,10,0,706.43970403652,0,0,0.011636811396,0,0,0,264.7, -0.6, -1,0,0,1024,1024,1024,1024,0,0,0,0,0,0,0,79,,,,,,,0,104.54,706.43970403652,0,41,Motors_Started,"Setting new Return-To-Home altitude to 100m (328 ft). Data Recorder File Index is 26. Setting new Maximum Flight Altitude to 120m (394 ft)"
700,2023-10-01 20:54:34,40.0688907650907,-88.2096499985262,0,,,706.43970403652,0.656168,0,0.0051819883548,0.053287075196,24,10,0,706.43970403652,0,0,0.011636811396,0,0,0,264.7, -0.6, -1,0,0,1024,1024,1024,1024,0,0,0,0,0,0,0,79,,,,,,,0,104.54,706.43970403652,0,41,Motors_Started,
800,2023-10-01 20:54:34,40.0688907336655,-88.2096499998995,0,,,706.43970403652,0.656168,0,0.0096629596268,0.064759188424,24,10,0,706.43970403652,0,0,0.011636811396,0,0,0,264.7, -0.6, -1,0,0,1024,1024,1024,1024,0,0,0,0,0,0,0,79,,,,,,,0,104.54,706.43970403652,0,41,Motors_Started,
900,2023-10-01 20:54:34,40.0688907521486,-88.2096499884731,0,,,706.43970403652,0.656168,0,0.00225522645012,0.072219162416,24,10,0,706.43970403652,0,0,0.011636811396,0,0,0,264.7, -0.6, -1,0,0,1024,1024,1024,1024,0,0,0,0,0,0,0,79,,,,,,,0,104.54,706.43970403652,0,41,Motors_Started,
1000,2023-10-01 20:54:34,40.0688907751902,-88.209649970892,0,,,706.43970403652,0.656168,0,0.0075169621828,0.081954070864,24,10,0,706.43970403652,0,0,0.011636811396,0,0,0,264.7, -0.6, -1,0,0,1024,1024,1024,1024,0,0,0,0,0,0,0,79,,,,,,,0,104.54,706.43970403652,0,41,Motors_Started,
1100,2023-10-01 20:54:34,40.0688907948294,-88.2096499650459,0,,,706.43970403652,0.656168,0,0.0147435372172,0.089303152464,24,10,0,706.43970403652,0,0,0.0147435372172,0,0,0,264.8, -0.6, -1,0,0,1024,1024,1024,1024,0,0,0,0,0,0,0,79,,,,,,,0,104.54,706.43970403652,0,41,Motors_Started,
1200,2023-10-01 20:54:34,40.0688907652161,-88.2096499500365,0,,,706.43970403652,0.656168,0,0.0097792325964,0.100891735512,24,10,0,706.43970403652,0,0,0.0147435372172,0,0,0,264.8, -0.6, -1,0,0,1024,1024,1024,1024,0,0,0,0,0,0,0,79,,,,,,,0,104.54,706.43970403652,0,41,Motors_Started,
1300,2023-10-01 20:54:34,40.0688907855596,-88.209649955338,0,,,706.43970403652,0.656168,0,0.0130499676092,0.108460305308,24,10,0,706.43970403652,0,0,0.0147435372172,0,0,0,264.8, -0.6, -1,0,0,1024,1024,1024,1024,0,0,0,0,0,0,0,79,,,,,,,0,104.54,706.43970403652,0,41,Motors_Started,
1400,2023-10-01 20:54:35,40.0688908021044,-88.2096499656591,0,,,706.43970403652,0.656168,0,0.0172080058,0.1151492819,24,10,23.536,706.43970403652,0,0,0.0172080058,0,0,0,264.7, -0.5, -1,0,0,1024,1024,1024,1024,0,0,0,0,0,0,0,79,,,,,,,0.255,104.54,706.43970403652,0,41,Motors_Started,
1500,2023-10-01 20:54:35,40.068890747898,-88.2096499742606,0,,,706.43970403652,0.656168,0,0.0041559712616,0.135071526632,24,10,23.536,706.43970403652,0,0,0.0172080058,0,0,-0.223694,264.7, -0.5, -1,0,0,1024,1024,1024,1024,0,0,0,0,0,0,0,79,,,,,,,0.255,104.54,706.43970403652,0,41,Motors_Started,
1600,2023-10-01 20:54:35,40.0688907617103,-88.2096499684849,0,,,706.43970403652,0.656168,0,0.004501148438,0.140362865384,24,10,23.536,706.43970403652,0,0,0.0172080058,0,0,-0.223694,264.7, -0.5, -1,0,0,1024,1024,1024,1024,0,0,0,0,0,0,0,79,,,,,,,0.255,104.54,706.43970403652,0,41,Motors_Started,
1700,2023-10-01 20:54:35,40.0688907777657,-88.2096499661712,0,,,706.43970403652,0.656168,0,0.0089896984504,0.146256238276,24,10,23.536,706.43970403652,0,0,0.0172080058,0,0,-0.223694,264.7, -0.6, -1,0,0,1024,1024,1024,1024,0,0,0,0,0,0,0,79,,,,,,,0.255,104.54,706.43970403652,0,41,Motors_Started,
1800,2023-10-01 20:54:35,40.0688907977713,-88.2096499664239,0,,,706.43970403652,0.656168,0,0.0156342852772,0.153555451108,24,10,23.536,706.43970403652,0,0,0.0172080058,0,0,-0.223694,264.7, -0.6, -1,0,0,1024,1024,1024,1024,0,0,0,0,0,0,0,79,,,,,,,0.255,104.54,706.43970403652,0,41,Motors_Started,
1900,2023-10-01 20:54:35,40.0688907857095,-88.2096499657164,0,,,706.43970403652,0.656168,0,0.0115986552268,0.157960634976,24,10,23.536,706.43970403652,0,0,0.0172080058,0,0,-0.223694,264.7, -0.6, -1,0,0,1024,1024,1024,1024,0,0,0,0,0,0,0,79,,,,,,,0.255,104.54,706.43970403652,0,41,Motors_Started,
2000,2023-10-01 20:54:35,40.0688908057253,-88.2096499578733,0,,,706.43970403652,0.656168,0,0.0191730977264,0.165584650968,24,10,23.536,706.43970403652,0,0,0.0191730977264,0,0,-0.223694,264.7, -0.6, -1,0,0,1024,1024,1024,1024,0,0,0,0,0,0,0,79,,,,,,,0.255,104.54,706.43970403652,0,10,Assisted_Takeoff,
2100,2023-10-01 20:54:35,40.0688908238908,-88.2096499546289,0,,,706.43970403652,0.656168,0,0.025714895836,0.172273955644,24,10,23.536,706.43970403652,0,0,0.025714895836,0,0,-0.223694,264.6, -0.6, -1,0,0,1024,1024,1024,1024,0,0,0,0,0,0,0,79,,,,,,,0.255,104.54,706.43970403652,0,10,Assisted_Takeoff,
2200,2023-10-01 20:54:35,40.068890787224,-88.2096499492024,0.328084,,,706.76778803652,0.656168,0,0.0145974086036,0.185737210668,24,10,23.536,706.76778803652,0.328084,0,0.025714895836,0,0,-0.223694,264.6, -0.6, -1,0,0,1024,1024,1024,1024,0,0,0,0,0,0,0,79,,,,,,,0.255,104.54,706.76778803652,0.328084,10,Assisted_Takeoff,
2300,2023-10-01 20:54:35,40.0688908047749,-88.2096499507041,0.328084,,,706.76778803652,0.656168,0,0.0196940295016,0.192154533708,24,10,23.536,706.76778803652,0.328084,0,0.025714895836,0,0,-0.223694,264.7, -0.6, -1,0,0,1024,1024,1024,1024,0,0,0,0,0,0,0,79,,,,,,,0.255,104.54,706.76778803652,0.328084,10,Assisted_Takeoff,
2400,2023-10-01 20:54:36,40.0688908216758,-88.2096499553976,0.328084,,,706.76778803652,0.656168,0,0.0248801845232,0.198458667768,24,10,23.592,706.76778803652,0.328084,0,0.025714895836,0,0,-0.223694,264.7, -0.6, -1,0,0,1024,1024,1024,1024,0,0,0,0,0,0,0,79,,,,,,,1.651,104.54,706.76778803652,0.328084,10,Assisted_Takeoff,
2500,2023-10-01 20:54:36,40.0688908301129,-88.2096499543909,0.328084,,,706.76778803652,0.656168,0,0.0279000665096,0.201549547132,24,10,23.592,706.76778803652,0.328084,0,0.0279000665096,0,0,-0.223694,264.7, -0.6, -1,0,0,1024,1024,1024,1024,0,0,0,0,0,0,0,79,,,,,,,1.651,104.54,706.76778803652,0.328084,10,Assisted_Takeoff,
2600,2023-10-01 20:54:36,40.0688907690025,-88.2096499491168,0.328084,,,706.76778803652,0.656168,0,0.0105234911504,0.22389436412,24,10,23.592,706.76778803652,0.328084,0,0.0279000665096,0,0,-0.223694,264.6, -0.6, -1,0,0,1024,1024,1024,1024,0,0,0,0,0,0,0,79,,,,,,,1.651,104.54,706.76778803652,0.328084,10,Assisted_Takeoff,
2700,2023-10-01 20:54:36,40.0688907764259,-88.2096499453497,0.328084,,,706.76778803652,0.656168,0,0.012773458414,0.226799876024,24,10,23.592,706.76778803652,0.328084,0,0.0279000665096,0,0,-0.223694,264.6, -0.6, -1,0,0,1024,1024,1024,1024,0,0,0,0,0,0,0,79,,,,,,,1.651,104.54,706.76778803652,0.328084,10,Assisted_Takeoff,
2800,2023-10-01 20:54:36,40.0688907950301,-88.2096499415366,0.328084,,,706.76778803652,0.656168,0,0.0181536423132,0.233670611152,24,10,23.592,706.76778803652,0.328084,0,0.0279000665096,0,0,-0.223694,264.6, -0.6, -1,0,0,1024,1024,1024,1024,0,0,0,0,0,0,0,79,,,,,,,1.651,104.54,706.76778803652,0.328084,10,Assisted_Takeoff,
2900,2023-10-01 20:54:36,40.0688907491971,-88.2096499313711,0.328084,,,706.76778803652,0.656168,0,0.0147821198956,0.250631897784,24,10,23.592,706.76778803652,0.328084,0,0.0279000665096,0,0,-0.223694,264.7, -0.6, -1,0,0,1024,1024,1024,1024,0,0,0,0,0,0,0,79,,,,,,,1.651,104.54,706.76778803652,0.328084,10,Assisted_Takeoff,
3000,2023-10-01 20:54:36,40.0688907642323,-88.2096499237837,0.328084,,,706.76778803652,0.656168,0,0.016841864056,0.256512147316,24,10,23.592,706.76778803652,0.328084,0,0.0279000665096,0,0,-0.223694,264.7, -0.6, -1,0,0,1024,1024,1024,1024,0,0,0,0,0,0,0,79,,,,,,,1.651,104.54,706.76778803652,0.328084,10,Assisted_Takeoff,
3100,2023-10-01 20:54:36,40.0688907904404,-88.2096499206773,0.328084,,,706.76778803652,0.656168,0,0.0213466542264,0.266113525576,24,10,23.592,706.76778803652,0.328084,0,0.0279000665096,0,0,-0.223694,264.7, -0.6, -1,0,0,1024,1024,1024,1024,0,0,0,0,0,0,0,79,,,,,,,1.651,104.54,706.76778803652,0.328084,10,Assisted_Takeoff,
3200,2023-10-01 20:54:36,40.0688908100181,-88.2096499240509,0.328084,,,706.76778803652,0.656168,0,0.0254818905792,0.273318250216,24,10,23.592,706.76778803652,0.328084,0,0.0279000665096,0,0,-0.223694,264.7, -0.6, -1,0,0,1024,1024,1024,1024,0,0,0,0,0,0,0,79,,,,,,,1.651,104.54,706.76778803652,0.328084,10,Assisted_Takeoff,
3300,2023-10-01 20:54:36,40.0688907863934,-88.209649937672,0.328084,,,706.76778803652,0.656168,0,0.0166798233684,0.28273951036,24,10,23.592,706.76778803652,0.328084,0,0.0279000665096,0,0,-0.223694,264.6, -0.6, -1,0,0,1024,1024,1024,1024,0,0,0,0,0,0,0,79,,,,,,,1.651,104.54,706.76778803652,0.328084,10,Assisted_Takeoff,
3400,2023-10-01 20:54:37,40.0688907997241,-88.2096499500416,0.328084,,,706.76778803652,0.656168,0,0.0181744756472,0.288704733648,24,10,23.5945,706.76778803652,0.328084,0,0.0279000665096,0,0,-0.223694,264.6, -0.6, -1,0,0,1024,1024,1024,1024,0,0,0,0,0,0,0,79,,,,,,,0.931,104.54,706.76778803652,0.328084,10,Assisted_Takeoff,
3500,2023-10-01 20:54:37,40.0688908141644,-88.20964996176,0.328084,,,706.76778803652,0.656168,0,0.021736549252,0.2949065055,24,10,23.5945,706.76778803652,0.328084,0,0.0279000665096,0,0,-0.223694,264.6, -0.6, -1,0,0,1024,1024,1024,1024,0,0,0,0,0,0,0,79,,,,,,,0.931,104.54,706.76778803652,0.328084,10,Assisted_Takeoff,
3600,2023-10-01 20:54:37,40.0688907827024,-88.209649988099,0.328084,,,706.76778803652,0.656168,0,0.0094989504352,0.308539051868,24,10,23.5945,706.76778803652,0.328084,0,0.0279000665096,0,0,-0.223694,264.6, -0.6, -1,0,0,1024,1024,1024,1024,0,0,0,0,0,0,0,79,,,,,,,0.931,104.54,706.76778803652,0.328084,10,Assisted_Takeoff,
3700,2023-10-01 20:54:37,40.0688908056704,-88.2096499917438,0.328084,,,706.76778803652,0.656168,0,0.0179395346948,0.316980653188,24,10,23.5945,706.76778803652,0.328084,0,0.0279000665096,0,0,-0.223694,264.6, -0.6, -1,0,0,1024,1024,1024,1024,0,0,0,0,0,0,0,79,,,,,,,0.931,104.54,706.76778803652,0.328084,10,Assisted_Takeoff,
3800,2023-10-01 20:54:37,40.0688908291685,-88.209649991739,0.328084,,,706.76778803652,0.656168,0,0.0264628289308,0.325553816192,24,10,23.5945,706.76778803652,0.328084,0,0.0279000665096,0,0,-0.223694,264.6, -0.6, -1,0,0,1024,1024,1024,1024,0,0,0,0,0,0,0,79,,,,,,,0.931,104.54,706.76778803652,0.328084,10,Assisted_Takeoff,
3900,2023-10-01 20:54:37,40.0688908500036,-88.2096499923001,0.328084,,,706.76778803652,0.656168,0,0.034052494528,0.33315617864,24,10,23.5945,706.76778803652,0.328084,0,0.034052494528,0,0,-0.223694,264.6, -0.6, -1,0,0,1024,1024,1024,1024,0,0,0,0,0,0,0,79,,,,,,,0.931,104.54,706.76778803652,0.328084,10,Assisted_Takeoff,
4000,2023-10-01 20:54:37,40.0688908094305,-88.2096499831214,0.328084,,,706.76778803652,0.656168,0,0.0191575137364,0.348179145,24,10,23.5945,706.76778803652,0.328084,0,0.034052494528,0,0,-0.223694,264.6, -0.6, -1,0,0,1024,1024,1024,1024,0,0,0,0,0,0,0,79,,,,,,,0.931,104.54,706.76778803652,0.328084,10,Assisted_Takeoff,
4100,2023-10-01 20:54:37,40.0688908199495,-88.2096499852306,0.328084,,,706.76778803652,0.656168,0,0.0230012802636,0.35206365956,24,10,23.5945,706.76778803652,0.328084,0,0.034052494528,0,0,-0.223694,264.6, -0.6, -1,0,0,1024,1024,1024,1024,0,0,0,0,0,0,0,79,,,,,,,0.931,104.54,706.76778803652,0.328084,10,Assisted_Takeoff,
4200,2023-10-01 20:54:37,40.0688908273902,-88.2096499894968,0.328084,,,706.76778803652,0.656168,0,0.0257673564676,0.35502625808,24,10,23.5945,706.76778803652,0.328084,0,0.034052494528,0,0,-0.223694,264.6, -0.6, -1,0,0,1024,1024,1024,1024,0,0,0,0,0,0,0,79,,,,,,,0.931,104.54,706.76778803652,0.328084,10,Assisted_Takeoff,
4300,2023-10-01 20:54:38,40.0688907649176,-88.2096499826401,0.328084,,,706.76778803652,0.656168,0,0.002923474503,0.37790027456,24,10,23.5945,706.76778803652,0.328084,0,0.034052494528,0,0,-0.223694,264.6, -0.6, -1,0,0,1024,1024,1024,1024,0,0,0,0,0,0,0,79,,,,,,,0.931,104.54,706.76778803652,0.328084,10,Assisted_Takeoff,
4400,2023-10-01 20:54:38,40.0688907725401,-88.2096499788855,0.328084,,,706.76778803652,0.656168,0,0.0058322508428,0.3808727156,24,10,23.5955,706.76778803652,0.328084,0,0.034052494528,0,0,-0.223694,264.6, -0.6, -1,0,0,1024,1024,1024,1024,0,0,0,0,0,0,0,79,,,,,,,0.87,104.54,706.76778803652,0.328084,10,Assisted_Takeoff,
4500,2023-10-01 20:54:38,40.0688907778923,-88.2096499748693,0.328084,,,706.76778803652,0.656168,0,0.0080081367392,0.38312337184,24,10,23.5955,706.76778803652,0.328084,0,0.034052494528,0,0,-0.223694,264.6, -0.6, -1,0,0,1024,1024,1024,1024,0,0,0,0,0,0,0,79,,,,,,,0.87,104.54,706.76778803652,0.328084,10,Assisted_Takeoff,
4600,2023-10-01 20:54:38,40.0688907949506,-88.2096499738356,0.328084,,,706.76778803652,0.656168,0,0.0141260503208,0.389353687,24,10,23.5955,706.76778803652,0.328084,0,0.034052494528,0,0,-0.223694,264.6, -0.6, -1,0,0,1024,1024,1024,1024,0,0,0,0,0,0,0,79,,,,,,,0.87,104.54,706.76778803652,0.328084,10,Assisted_Takeoff,
4700,2023-10-01 20:54:38,40.0688907760578,-88.2096499609197,0.328084,,,706.76778803652,0.656168,0,0.0093774281216,0.39713583948,24,10,23.5955,706.76778803652,0.328084,0,0.034052494528,0,0,-0.223694,264.6, -0.6, -1,0,0,1024,1024,1040,1024,0,0,2,0,0,0,0,79,,,,,,,0.87,104.54,706.76778803652,0.328084,10,Assisted_Takeoff,
4800,2023-10-01 20:54:38,40.0688907919655,-88.2096499485835,0.328084,,,706.76778803652,0.656168,0,0.0160515097,0.40388452736,24,10,23.5955,706.76778803652,0.328084,0,0.034052494528,0,0,-0.223694,264.6, -0.6, -1,0,0,1024,1024,1024,1024,0,0,0,0,0,0,0,79,,,,,,,0.87,104.54,706.76778803652,0.328084,10,Assisted_Takeoff,
4900,2023-10-01 20:54:38,40.0688908064756,-88.2096499451483,0.328084,,,706.76778803652,0.656168,0,0.0209901253436,0.40926510496,24,10,23.5955,706.76778803652,0.328084,0,0.034052494528,0,0,-0.223694,264.6, -0.6, -1,0,0,1024,1024,1024,1024,0,0,0,0,0,0,0,79,,,,,,,0.87,104.54,706.76778803652,0.328084,10,Assisted_Takeoff,
5000,2023-10-01 20:54:38,40.0688907643728,-88.209649936323,0.328084,,,706.76778803652,0.656168,0,0.0134067261508,0.42482284824,24,10,23.5955,706.76778803652,0.328084,0,0.034052494528,0,0,-0.223694,264.6, -0.6, -1,0,0,1024,1024,1024,1024,0,0,0,0,0,0,0,79,,,,,,,0.87,104.54,706.76778803652,0.328084,10,Assisted_Takeoff,
5100,2023-10-01 20:54:38,40.0688907773242,-88.2096499402859,0.328084,,,706.76778803652,0.656168,0,0.0141396329984,0.4296752106,24,10,23.5955,706.76778803652,0.328084,0,0.034052494528,0,0,-0.223694,264.6, -0.6, -1,0,0,1024,1024,1024,1024,0,0,0,0,0,0,0,79,,,,,,,0.87,104.54,706.76778803652,0.328084,10,Assisted_Takeoff,
5200,2023-10-01 20:54:38,40.0688907952323,-88.2096499448669,0.328084,,,706.76778803652,0.656168,0,0.0176286422964,0.43633203496,24,10,23.5955,706.76778803652,0.328084,0,0.034052494528,0,0,-0.223694,264.6, -0.6, -1,0,0,1024,1024,1024,1024,0,0,0,0,0,0,0,79,,,,,,,0.87,104.54,706.76778803652,0.328084,10,Assisted_Takeoff,
5300,2023-10-01 20:54:38,40.068890814029,-88.2096499512709,0.328084,,,706.76778803652,0.656168,0,0.0226779534816,0.44341864936,24,10,23.5955,706.76778803652,0.328084,0,0.034052494528,0,0,-0.223694,264.6, -0.6, -1,0,0,1024,1024,1024,1024,0,0,0,0,0,0,0,79,,,,,,,0.87,104.54,706.76778803652,0.328084,10,Assisted_Takeoff,
5400,2023-10-01 20:54:39,40.0688907673265,-88.2096499670791,0.328084,,,706.76778803652,0.656168,0,0.0059184385096,0.46102035596,24,10,23.5955,706.76778803652,0.328084,0,0.034052494528,0,0,-0.223694,264.6, -0.6, -1,0,0,1024,1024,1024,1024,0,0,0,0,0,0,0,79,,,,,,,0.826,104.54,706.76778803652,0.328084,10,Assisted_Takeoff,
5500,2023-10-01 20:54:39,40.068890771043,-88.2096499704962,0.328084,,,706.76778803652,0.656168,0,0.0062773624056,0.462680461,24,10,23.5955,706.76778803652,0.328084,0,0.034052494528,0,0,-0.223694,264.6, -0.6, -1,0,0,1024,1024,1024,1024,0,0,0,0,0,0,0,79,,,,,,,0.826,104.54,706.76778803652,0.328084,10,Assisted_Takeoff,
5600,2023-10-01 20:54:39,40.0688907818573,-88.209649970888,0.328084,,,706.76778803652,0.656168,0,0.0097393047736,0.46662731152,24,10,23.5955,706.76778803652,0.328084,0,0.034052494528,0,0,-0.223694,264.6, -0.6, -1,0,0,1024,1024,1024,1024,0,0,0,0,0,0,0,79,,,,,,,0.826,104.54,706.76778803652,0.328084,10,Assisted_Takeoff,
5700,2023-10-01 20:54:39,40.0688907331773,-88.209649967599,0.328084,,,706.76778803652,0.656168,0,0.0097149281324,0.48440946432,24,10,23.5955,706.76778803652,0.328084,0,0.034052494528,0,0,-0.223694,264.6, -0.6, -1,0,0,1024,1024,1024,1024,0,0,0,0,0,0,0,79,,,,,,,0.826,104.54,706.76778803652,0.328084,10,Assisted_Takeoff,
5800,2023-10-01 20:54:39,40.0688907517747,-88.2096499697594,0.328084,,,706.76778803652,0.656168,0,0.0042322179832,0.491223769,24,10,23.5955,706.76778803652,0.328084,0,0.034052494528,0,0,-0.223694,264.6, -0.6, -1,0,0,1024,1024,1024,1024,0,0,0,0,0,0,0,79,,,,,,,0.826,104.54,706.76778803652,0.328084,10,Assisted_Takeoff,
5900,2023-10-01 20:54:39,40.0688907700811,-88.2096499744407,0.328084,,,706.76778803652,0.656168,0,0.00540600411,0.49802823116,24,10,23.5955,706.76778803652,0.328084,0,0.034052494528,0,0,-0.223694,264.6, -0.6, -1,0,0,1024,1024,1058,1024,0,0,5,0,0,0,0,79,,,,,,,0.826,104.54,706.76778803652,0.328084,10,Assisted_Takeoff,
6000,2023-10-01 20:54:39,40.0688907927338,-88.209649980925,0.328084,,,706.76778803652,0.656168,0,0.013083005668,0.50648951752,24,10,23.5955,706.76778803652,0.328084,0,0.034052494528,0,0,-0.223694,264.6, -0.6, -1,0,0,1024,1024,1154,1024,0,0,20,0,0,0,0,79,,,,,,,0.826,104.54,706.76778803652,0.328084,10,Assisted_Takeoff,
6100,2023-10-01 20:54:39,40.0688907770076,-88.2096499887628,0.328084,,,706.76778803652,0.656168,0,0.0074825133628,0.51263125,24,10,23.5955,706.76778803652,0.328084,0,0.034052494528,0,0,-0.223694,264.6, -0.6, -0.9,0,0,1024,1024,1295,1024,0,0,41,0,0,0,0,79,,,,,,,0.826,104.54,706.76778803652,0.328084,10,Assisted_Takeoff,
6200,2023-10-01 20:54:39,40.0688907957269,-88.2096499871055,0.328084,,,706.76778803652,0.656168,0,0.0141965555724,0.51947508224,24,10,23.5955,706.76778803652,0.328084,0,0.034052494528,0,0,-0.223694,264.6, -0.6, -0.9,0,0,1024,1024,1566,1024,0,0,82,0,0,0,0,79,,,,,,,0.826,104.54,706.76778803652,0.328084,10,Assisted_Takeoff,
6300,2023-10-01 20:54:39,40.0688908187658,-88.2096499865818,0.328084,,,706.76778803652,0.656168,0,0.0225814639772,0.52788387516,24,10,23.5955,706.76778803652,0.328084,0,0.034052494528,0,0,-0.223694,264.6, -0.5, -0.9,0,0,1024,1024,1566,1024,0,0,82,0,0,0,0,79,,,,,,,0.826,104.54,706.76778803652,0.328084,10,Assisted_Takeoff,
6400,2023-10-01 20:54:40,40.0688907778439,-88.2096499776553,0.328084,,,706.76778803652,0.656168,0,0.0077964569424,0.54301839008,24,10,23.594,706.76778803652,0.328084,0,0.034052494528,0,0,-0.223694,264.6, -0.5, -0.9,0,0,1024,1024,1604,1024,0,0,88,0,0,0,0,79,,,,,,,0.87,104.54,706.76778803652,0.328084,10,Assisted_Takeoff,
6500,2023-10-01 20:54:40,40.0688907919419,-88.2096499694192,0.328084,,,706.76778803652,0.656168,0,0.0133550201124,0.5486548732,24,10,23.594,706.76778803652,0.328084,0,0.034052494528,0,0,-0.223694,264.5, -0.4, -0.8,0,0,1024,1024,1604,1024,0,0,88,0,0,0,0,79,,,,,,,0.87,104.54,706.76778803652,0.328084,10,Assisted_Takeoff,
6600,2023-10-01 20:54:40,40.0688908128936,-88.209649963279,0.328084,,,706.76778803652,0.656168,0,0.0211753287616,0.55648951912,24,10,23.594,706.76778803652,0.328084,0,0.034052494528,0,0,-0.223694,264.5, -0.4, -0.8,0,0,1024,1024,1684,1024,0,0,100,0,0,0,0,79,,,,,,,0.87,104.54,706.76778803652,0.328084,10,Assisted_Takeoff,
6700,2023-10-01 20:54:40,40.0688908316584,-88.2096499535896,0.328084,,,706.76778803652,0.656168,0,0.028504594088,0.56384844324,24,10,23.594,706.76778803652,0.328084,0,0.034052494528,0,0,-0.223694,264.5, -0.1, -0.7,0,0,1024,1024,1684,1024,0,0,100,0,0,0,0,79,,,,,,,0.87,104.54,706.76778803652,0.328084,10,Assisted_Takeoff,
6800,2023-10-01 20:54:40,40.068890800076,-88.2096499268264,0.328084,,,706.76778803652,0.656168,0,0.0222910440204,0.57758203948,24,10,23.594,706.76778803652,0.328084,0,0.034052494528,0,0,-0.447388,264.3, 1, -0.8,0,0,1024,1024,1684,1024,0,0,100,0,0,0,0,79,,,,,,,0.87,104.54,706.76778803652,0.328084,10,Assisted_Takeoff,
6900,2023-10-01 20:54:40,40.0688908410381,-88.209649886277,0.328084,,,706.76778803652,0.656168,0,0.040942914696,0.59633204008,24,10,23.594,706.76778803652,0.328084,0,0.040942914696,0,0,-0.894776,264, 2.1, -0.9,0,0,1024,1024,1684,1024,0,0,100,0,0,0,0,79,,,,,,,0.87,104.54,706.76778803652,0.328084,6,P-GPS,
7000,2023-10-01 20:54:40,40.0688908929734,-88.2096497933338,0.328084,,,706.76778803652,0.984252,0,0.072652889464,0.62846458704,24,10,23.594,706.76778803652,0.328084,0,0.072652889464,0,0,-1.565858,263.9, 2, -1.1,0,0,1024,1024,1684,1024,0,0,100,0,0,0,0,79,,,,,,,0.87,104.54,706.76778803652,0.328084,6,P-GPS,
7100,2023-10-01 20:54:40,40.0688908885898,-88.2096496710624,0.656168,,,707.09587203652,1.312336,0.223694,0.099549215784,0.66264109732,24,10,23.594,707.09587203652,0.656168,0.223694,0.099549215784,0,0.223694,-2.23694,263.9, 1.1, -1.1,0,0,1024,1024,1684,1024,0,0,100,0,0,0,0,79,,,,,,,0.87,104.54,707.09587203652,0.656168,6,P-GPS,
7200,2023-10-01 20:54:40,40.0688909647978,-88.2096495111442,0.984252,,,707.42395603652,1.64042,0.3131716,0.152100070484,0.71524280504,24,10,23.594,707.42395603652,0.984252,0.3131716,0.152100070484,0.223694,0.223694,-3.131716,263.8, 0.6, -1,0,0,1024,1024,1684,1024,0,0,100,0,0,0,0,79,,,,,,,0.87,104.54,707.42395603652,0.984252,6,P-GPS,
7300,2023-10-01 20:54:40,40.0688910517927,-88.2096493369522,1.64042,,,708.08012403652,1.968504,0.3131716,0.210110242944,0.77331695388,24,10,23.594,708.08012403652,1.64042,0.3131716,0.210110242944,0.223694,0.223694,-3.802798,263.8, -0.7, -1.7,0,0,1024,1024,1684,1024,0,0,100,0,0,0,0,79,,,,,,,0.87,104.54,708.08012403652,1.64042,6,P-GPS,
7400,2023-10-01 20:54:41,40.0688911328246,-88.2096491643412,1.968504,,,708.40820803652,2.624672,0.3131716,0.266646662076,0.82985895044,24,10,23.594,708.40820803652,1.968504,0.3131716,0.266646662076,0.223694,0.223694,-4.47388,263.8, -1.7, -2.3,0,0,1024,1024,1684,1024,0,0,100,0,0,0,0,79,,,,,,,0.87,104.54,708.40820803652,1.968504,6,P-GPS,
7500,2023-10-01 20:54:41,40.0688911433707,-88.2096490610259,2.952756,,,709.39246003652,3.28084,0,0.29359088866,0.85896000124,24,10,23.3335,709.39246003652,2.952756,0.3131716,0.29359088866,0,0,-5.368656,263.8, -1.7, -2.4,0,0,1024,1024,1684,1024,0,0,100,0,0,0,0,79,,,,,,,12.506,104.54,709.39246003652,2.952756,6,P-GPS,
7600,2023-10-01 20:54:41,40.068891178713,-88.2096490047513,3.608924,,,710.04862803652,3.937008,0,0.313587936544,0.87928480504,24,10,23.3335,710.04862803652,3.608924,0.3131716,0.313587936544,0,0,-6.263432,263.6, -1.1, -2.1,0,0,1024,1024,1024,1024,0,0,0,0,0,0,0,79,,,,,,,12.506,104.54,710.04862803652,3.608924,6,P-GPS,
7700,2023-10-01 20:54:41,40.0688911974531,-88.2096489857915,4.593176,,,711.03288003652,4.92126,0,0.32157317302,0.88793309928,24,10,23.3335,711.03288003652,4.593176,0.3131716,0.32157317302,0,0,-6.934514,263.5, -0.7, -1.6,0,0,1024,1024,1024,1024,0,0,0,0,0,0,0,79,,,,,,,12.506,104.54,711.03288003652,4.593176,6,P-GPS,
7800,2023-10-01 20:54:41,40.0688911597853,-88.2096489530886,5.577428,,,712.01713203652,5.905512,0,0.323032818736,0.90443244364,24,10,23.3335,712.01713203652,5.577428,0.3131716,0.323032818736,0,0,-7.158208,263.5, -0.7, -1.6,0,0,1024,1024,1024,1024,0,0,0,0,0,0,0,79,,,,,,,12.506,104.54,712.01713203652,5.577428,6,P-GPS,
7900,2023-10-01 20:54:41,40.0688911985674,-88.2096489738942,6.56168,,,713.00138403652,6.56168,0,0.324656178368,0.91972771972,24,10,23.3335,713.00138403652,6.56168,0.3131716,0.324656178368,0,0,-7.158208,263.7, -1, -1.9,0,0,1024,1024,1024,1024,0,0,0,0,0,0,0,79,,,,,,,12.506,104.54,713.00138403652,6.56168,6,P-GPS,
8000,2023-10-01 20:54:41,40.0688912465789,-88.2096490267145,7.545932,,,713.98563603652,7.217848,0,0.321337608708,0.94262798292,24,10,23.3335,713.98563603652,7.545932,0.3131716,0.324656178368,0,0,-6.934514,264, -0.8, -2,0,0,1024,1024,1024,1024,0,0,0,0,0,0,0,79,,,,,,,12.506,104.54,713.98563603652,7.545932,6,P-GPS,
8100,2023-10-01 20:54:41,40.068891295917,-88.2096490865645,8.530184,,,714.96988803652,7.874016,0,0.318380587616,0.96718835116,24,10,23.3335,714.96988803652,8.530184,0.3131716,0.324656178368,0,0,-6.71082,264.2, -0.4, -2.1,0,0,1024,1024,1024,1024,0,0,0,0,0,0,0,79,,,,,,,12.506,104.54,714.96988803652,8.530184,6,P-GPS,
8200,2023-10-01 20:54:41,40.068891269186,-88.2096491457661,9.514436,,,715.95414003652,8.2021,0,0.299367791732,0.98638126516,24,10,23.3335,715.95414003652,9.514436,0.3131716,0.324656178368,0,0,-6.039738,264.3, 0, -2.2,0,0,1024,1024,1024,1024,0,0,0,0,0,0,0,79,,,,,,,12.506,104.54,715.95414003652,9.514436,6,P-GPS,
8300,2023-10-01 20:54:41,40.0688912955369,-88.2096492045946,10.170604,,,716.61030803652,8.530184,0,0.293077765284,1.005413418,24,10,23.3335,716.61030803652,10.170604,0.3131716,0.324656178368,0,0,-5.59235,264.5, 0, -2.7,0,0,1024,1024,1024,1024,0,0,0,0,0,0,0,79,,,,,,,12.506,104.54,716.61030803652,10.170604,6,P-GPS,
8400,2023-10-01 20:54:42,40.0688913185988,-88.2096492846272,11.154856,,,717.59456003652,8.858268,0,0.282938657348,1.02929137152,24,10,23.3335,717.59456003652,11.154856,0.3131716,0.324656178368,0,0,-4.697574,264.6, -0.1, -2.9,0,0,1024,1024,1024,1024,0,0,0,0,0,0,0,79,,,,,,,12.506,104.54,717.59456003652,11.154856,6,P-GPS,
8500,2023-10-01 20:54:42,40.0688912617561,-88.2096493280795,11.48294,,,717.92264403652,8.858268,0,0.259610900696,1.05331696284,24,10,23.458,717.92264403652,11.48294,0.3131716,0.324656178368,0,0,-4.026492,264.6, -0.2, -2.7,0,0,1024,1024,1024,1024,0,0,0,0,0,0,0,78,,,,,,,7.747,104.54,717.92264403652,11.48294,6,P-GPS,
8600,2023-10-01 20:54:42,40.0688912550388,-88.2096494003126,12.139108,,,718.57881203652,8.530184,0,0.243983603608,1.07363520496,24,10,23.458,718.57881203652,12.139108,0.3131716,0.324656178368,0,0,-3.131716,264.5, 0, -2.3,0,0,1024,1024,1054,1024,0,0,5,0,0,0,0,79,,,,,,,7.747,104.54,718.57881203652,12.139108,6,P-GPS,
8700,2023-10-01 20:54:42,40.0688912379306,-88.2096494861728,12.467192,,,718.90689603652,8.530184,0,0.223758865428,1.09840554696,24,10,23.458,718.90689603652,12.467192,0.3131716,0.324656178368,0,0,-2.23694,264.4, 0.6, -2,0,0,1024,1024,1684,1024,0,0,100,0,0,0,0,79,,,,,,,7.747,104.54,718.90689603652,12.467192,6,P-GPS,
8800,2023-10-01 20:54:42,40.0688912317448,-88.2096495933512,12.795276,,,719.23498003652,8.2021,0.223694,0.2046177887,1.12841539044,24,10,23.458,719.23498003652,12.795276,0.3131716,0.324656178368,0,-0.223694,-1.565858,264.2, 1.2, -1.7,0,0,1024,1024,1684,1024,0,0,100,0,0,0,0,79,,,,,,,7.747,104.54,719.23498003652,12.795276,6,P-GPS,
8900,2023-10-01 20:54:42,40.0688912018489,-88.209649673783,12.795276,,,719.23498003652,7.874016,0,0.183907158116,1.15338258284,24,10,23.458,719.23498003652,12.795276,0.3131716,0.324656178368,0,0,-1.342164,264.1, 1.7, -1.7,0,0,1024,1024,1684,1024,0,0,100,0,0,0,0,79,,,,,,,7.747,104.54,719.23498003652,12.795276,6,P-GPS,
9000,2023-10-01 20:54:42,40.0688912191105,-88.209649728869,13.12336,,,719.56306403652,8.2021,0,0.182986226328,1.17000331828,24,10,23.458,719.56306403652,13.12336,0.3131716,0.324656178368,0,0,-1.565858,264, 1.8, -1.8,0,0,1024,1024,1249,1024,0,0,34,0,0,0,0,79,,,,,,,7.747,104.54,719.56306403652,13.12336,6,P-GPS,
9100,2023-10-01 20:54:42,40.0688912532964,-88.2096497740116,13.451444,,,719.89114803652,8.2021,0,0.190299218688,1.18773625848,24,10,23.458,719.89114803652,13.451444,0.3131716,0.324656178368,0,0,-2.013246,263.9, 1.8, -2.2,0,0,1024,1024,1024,1024,0,0,0,0,0,0,0,79,,,,,,,7.747,104.54,719.89114803652,13.451444,6,P-GPS,
9200,2023-10-01 20:54:42,40.0688912508872,-88.2096498009578,13.451444,,,719.89114803652,8.2021,0,0.187278877384,1.1953084372,24,10,23.458,719.89114803652,13.451444,0.3131716,0.324656178368,0,0,-1.789552,264, 1.2, -2.9,0,0,1024,1024,1024,1024,0,0,0,0,0,0,0,79,,,,,,,7.747,104.54,719.89114803652,13.451444,6,P-GPS,
9300,2023-10-01 20:54:42,40.0688912999894,-88.209649873625,13.779528,,,720.21923203652,8.2021,0,0.200491804316,1.2223753672,24,10,23.458,720.21923203652,13.779528,0.3131716,0.324656178368,0,0,-1.342164,264.1, 1, -3.5,0,0,1024,1024,1024,1024,0,0,0,0,0,0,0,79,,,,,,,7.747,104.54,720.21923203652,13.779528,6,P-GPS,
9400,2023-10-01 20:54:43,40.0688913276973,-88.2096499929245,14.107612,,,720.54731603652,8.2021,0,0.208263786192,1.2571850796,24,10,23.458,720.54731603652,14.107612,0.3131716,0.324656178368,0,0,-1.11847,264.1, 1, -3.5,0,0,1024,1024,1024,1024,0,0,0,0,0,0,0,79,,,,,,,7.747,104.54,720.54731603652,14.107612,6,P-GPS,
9500,2023-10-01 20:54:43,40.0688913467133,-88.2096501100567,14.107612,,,720.54731603652,8.2021,0,0.218073825876,1.2906168392,24,10,23.458,720.54731603652,14.107612,0.3131716,0.324656178368,0,0,-0.671082,264.2, 1.3, -3.3,0,0,1024,1024,1024,1024,0,0,0,0,0,0,0,79,,,,,,,7.747,104.54,720.54731603652,14.107612,6,P-GPS,
9600,2023-10-01 20:54:43,40.068891305508,-88.2096502931106,14.107612,,,720.54731603652,7.874016,0,0.218038720888,1.34389439996,24,10,23.458,720.54731603652,14.107612,0.3131716,0.324656178368,0,0,-0.447388,264.3, 1.6, -2.9,0,0,1024,1024,1024,1024,0,0,0,0,0,0,0,79,,,,,,,7.747,104.54,720.54731603652,14.107612,6,P-GPS,
9700,2023-10-01 20:54:43,40.0688913177426,-88.2096504218779,14.107612,,,720.54731603652,7.874016,0.223694,0.238452107368,1.38012143524,24,10,23.458,720.54731603652,14.107612,0.3131716,0.324656178368,0,-0.223694,-0.223694,264.3, 1.9, -2.6,0,0,1024,1024,1684,1024,0,0,100,0,0,0,0,79,,,,,,,7.747,104.54,720.54731603652,14.107612,6,P-GPS,
9800,2023-10-01 20:54:43,40.068891323191,-88.2096505646686,14.107612,,,720.54731603652,7.874016,0,0.262734916544,1.42003941552,24,10,23.458,720.54731603652,14.107612,0.3131716,0.324656178368,0,0,0,264.2, 2.4, -2.4,0,0,1024,1024,1684,1135,0,0,100,17,0,0,0,79,,,,,,,7.747,104.54,720.54731603652,14.107612,6,P-GPS,
9900,2023-10-01 20:54:43,40.0688912903772,-88.2096507310622,14.107612,,,720.54731603652,7.874016,0,0.285422253228,1.46801841968,24,10,23.458,720.54731603652,14.107612,0.3131716,0.324656178368,0,0,-0.223694,264.1, 2.9, -2.1,0,0,1024,1024,1684,1024,0,0,100,0,0,0,0,79,,,,,,,7.747,104.54,720.54731603652,14.107612,6,P-GPS,
10000,2023-10-01 20:54:43,40.0688913226561,-88.2096507849783,14.107612,,,720.54731603652,8.2021,0,0.30446851368,1.48712931268,24,10,23.458,720.54731603652,14.107612,0.3131716,0.324656178368,0,0,-0.671082,264.2, 2.7, -2.2,0,0,1024,1024,1342,1024,0,0,48,0,0,0,0,79,,,,,,,7.747,104.54,720.54731603652,14.107612,6,P-GPS,
10100,2023-10-01 20:54:43,40.0688913611756,-88.2096507873759,14.435696,,,720.87540003652,8.2021,0,0.314643054688,1.50120083544,24,10,23.458,720.87540003652,14.435696,0.3131716,0.324656178368,0,0,-1.565858,264.2, 1.9, -2.5,0,0,1024,1024,1024,1024,0,0,0,0,0,0,0,79,,,,,,,7.747,104.54,720.87540003652,14.435696,6,P-GPS,
10200,2023-10-01 20:54:43,40.068891404782,-88.2096507664715,14.435696,,,720.87540003652,8.530184,0,0.321996729464,1.51814637404,24,10,23.458,720.87540003652,14.435696,0.3131716,0.324656178368,0,0,-2.013246,264.2, 1.1, -2.5,0,0,1024,1024,1024,1024,0,0,0,0,0,0,0,79,,,,,,,7.747,104.54,720.87540003652,14.435696,6,P-GPS,
10300,2023-10-01 20:54:43,40.0688914128127,-88.2096507704643,14.76378,,,721.20348403652,8.858268,0,0.324906834544,1.52128285708,24,10,23.458,721.20348403652,14.76378,0.3131716,0.324906834544,0,0,-1.789552,264.2, 0.7, -2.9,0,0,1024,1024,1024,1024,0,0,0,0,0,0,0,79,,,,,,,7.747,104.54,721.20348403652,14.76378,6,P-GPS,
10400,2023-10-01 20:54:44,40.0688914423446,-88.2096508037901,15.091864,,,721.53156803652,8.858268,0,0.33913714996,1.53551842184,24,10,23.4085,721.53156803652,15.091864,0.3131716,0.33913714996,0,0,-1.342164,264.1, 1.3, -3.3,0,0,1024,1024,1024,1024,0,0,0,0,0,0,0,78,,,,,,,11.741,104.54,721.53156803652,15.091864,6,P-GPS,
10500,2023-10-01 20:54:44,40.068891455029,-88.2096508426723,15.091864,,,721.53156803652,8.858268,0,0.34991470936,1.54731960332,24,10,23.4085,721.53156803652,15.091864,0.3131716,0.34991470936,0,0,-0.894776,264.2, 1.7, -3.5,0,0,1024,1024,1024,1024,0,0,0,0,0,0,0,78,,,,,,,11.741,104.54,721.53156803652,15.091864,6,P-GPS,
10600,2023-10-01 20:54:44,40.0688913858443,-88.209650886409,15.091864,,,721.53156803652,8.858268,0,0.34092520776,1.5753609428,24,10,23.4085,721.53156803652,15.091864,0.3131716,0.34991470936,0,0,-0.671082,264.3, 1.9, -3.6,0,0,1024,1024,1024,1024,0,0,0,0,0,0,0,79,,,,,,,11.741,104.54,721.53156803652,15.091864,6,P-GPS,
10700,2023-10-01 20:54:44,40.0688913718883,-88.2096509370173,15.091864,,,721.53156803652,8.530184,0,0.34820211088,1.59038062832,24,10,23.4085,721.53156803652,15.091864,0.3131716,0.34991470936,0,0,-0.447388,264.3, 1.9, -3,0,0,1024,1024,1024,1024,0,0,0,0,0,0,0,79,,,,,,,11.741,104.54,721.53156803652,15.091864,6,P-GPS,
10800,2023-10-01 20:54:44,40.0688913539955,-88.2096509997521,15.419948,,,721.85965203652,8.2021,0,0.3577591978,1.6090715738,24,10,23.4085,721.85965203652,15.419948,0.3131716,0.3577591978,0,0,-0.223694,264.2, 2, -2.6,0,0,1024,1024,1024,1024,0,0,0,0,0,0,0,79,,,,,,,11.741,104.54,721.85965203652,15.419948,6,P-GPS,
10900,2023-10-01 20:54:44,40.0688913485807,-88.2096510385378,15.091864,,,721.53156803652,8.2021,0,0.365239513,1.62008207284,24,10,23.4085,721.85965203652,15.419948,0.3131716,0.365239513,0,0,0,264.2, 2, -2.6,0,0,1024,1024,1024,1024,0,0,0,0,0,0,0,79,,,,,,,11.741,104.54,721.53156803652,15.091864,6,P-GPS,
11000,2023-10-01 20:54:44,40.068891283391,-88.2096510993474,15.091864,,,721.53156803652,8.2021,0,0.3660433188,1.64930451472,24,10,23.4085,721.85965203652,15.419948,0.3131716,0.3660433188,0,0,0,264.2, 2.1, -2.7,0,0,1024,1024,1024,1024,0,0,0,0,0,0,0,79,,,,,,,11.741,104.54,721.53156803652,15.091864,6,P-GPS,
11100,2023-10-01 20:54:44,40.0688912763174,-88.2096511045345,15.091864,,,721.53156803652,8.2021,0,0.36593505108,1.6522638324,24,10,23.4085,721.85965203652,15.419948,0.3131716,0.3660433188,0,0,0,264.2, 2, -2.8,0,0,1024,1024,1024,1024,0,0,0,0,0,0,0,79,,,,,,,11.741,104.54,721.53156803652,15.091864,6,P-GPS,
11200,2023-10-01 20:54:44,40.0688912618625,-88.2096510971962,15.091864,,,721.53156803652,8.2021,0,0.361466547,1.65792000056,24,10,23.4085,721.85965203652,15.419948,0.3131716,0.3660433188,0,0,0,264.1, 1.9, -2.8,0,0,1024,1024,1024,1024,0,0,0,0,0,0,0,79,,,,,,,11.741,104.54,721.53156803652,15.091864,6,P-GPS,
11300,2023-10-01 20:54:44,40.0688911658815,-88.2096510802163,15.091864,,,721.53156803652,8.2021,0,0.34066930224,1.6932579282,24,10,23.4085,721.85965203652,15.419948,0.3131716,0.3660433188,0,0,0,264.1, 1.8, -2.8,0,0,1024,1024,1024,1024,0,0,0,0,0,0,0,79,,,,,,,11.741,104.54,721.53156803652,15.091864,6,P-GPS,
11400,2023-10-01 20:54:45,40.0688911572339,-88.2096510847939,15.091864,,,721.53156803652,8.2021,0,0.3404527668,1.69666344012,24,10,23.3725,721.85965203652,15.419948,0.3131716,0.3660433188,0,0,0,264, 2, -2.5,0,0,1024,1024,1024,1024,0,0,0,0,0,0,0,78,,,,,,,8.003,104.54,721.53156803652,15.091864,6,P-GPS,
11500,2023-10-01 20:54:45,40.0688911471805,-88.2096510988396,14.76378,,,721.20348403652,8.2021,0,0.34246064088,1.7020341752,24,10,23.3725,721.85965203652,15.419948,0.3131716,0.3660433188,0,0,0,264, 2, -2.1,0,0,1024,1024,1024,1024,0,0,0,0,0,0,0,78,,,,,,,8.003,104.54,721.20348403652,14.76378,6,P-GPS,
11600,2023-10-01 20:54:45,40.068891153648,-88.2096511140865,14.76378,,,721.20348403652,8.2021,0,0.34731300324,1.70689966092,24,10,23.3725,721.85965203652,15.419948,0.3131716,0.3660433188,0,0,0,263.9, 1.8, -2.1,0,0,1024,1024,1024,1024,0,0,0,0,0,0,0,79,,,,,,,8.003,104.54,721.20348403652,14.76378,6,P-GPS,
11700,2023-10-01 20:54:45,40.068891120417,-88.2096511609974,14.76378,,,721.20348403652,8.530184,0,0.35455053628,1.72474743052,24,10,23.3725,721.85965203652,15.419948,0.3131716,0.3660433188,0,0,0,264, 1.7, -2.3,0,0,1024,1024,1024,1024,0,0,0,0,0,0,0,79,,,,,,,8.003,104.54,721.20348403652,14.76378,6,P-GPS,
11800,2023-10-01 20:54:45,40.0688911211779,-88.209651185582,14.76378,,,721.20348403652,8.530184,0,0.36102691444,1.73161750948,24,10,23.3725,721.85965203652,15.419948,0.3131716,0.3660433188,0,0,0,264.1, 1.8, -2.8,0,0,1024,1024,1024,1024,0,0,0,0,0,0,0,79,,,,,,,8.003,104.54,721.20348403652,14.76378,6,P-GPS,
11900,2023-10-01 20:54:45,40.0688911179496,-88.2096511944663,14.76378,,,721.20348403652,8.530184,0,0.36290355492,1.73436357256,24,10,23.3725,721.85965203652,15.419948,0.3131716,0.3660433188,0,0,0,264.3, 2, -2.9,0,0,1024,1024,1024,1024,0,0,0,0,0,0,0,79,,,,,,,8.003,104.54,721.20348403652,14.76378,6,P-GPS,
12000,2023-10-01 20:54:45,40.0688910187116,-88.209651223499,14.435696,,,720.87540003652,8.530184,0,0.35919292488,1.77146659212,24,10,23.3725,721.85965203652,15.419948,0.3131716,0.3660433188,0,0,0,264.2, 2.2, -2.4,0,0,1024,1024,1024,1024,0,0,0,0,0,0,0,79,,,,,,,8.003,104.54,720.87540003652,14.435696,6,P-GPS,
12100,2023-10-01 20:54:45,40.0688910142275,-88.2096512036599,14.435696,,,720.87540003652,8.530184,0,0.35341864648,1.77724415136,24,10,23.3725,721.85965203652,15.419948,0.3131716,0.3660433188,0,0,0,264.2, 1.8, -2.1,0,0,1024,1024,1024,1024,0,0,0,0,0,0,0,79,,,,,,,8.003,104.54,720.87540003652,14.435696,6,P-GPS,
12200,2023-10-01 20:54:45,40.0688910279248,-88.2096511784503,14.435696,,,720.87540003652,8.530184,0,0.34802494552,1.7858760414,24,10,23.3725,721.85965203652,15.419948,0.3131716,0.3660433188,0,0,0,264.3, 1.6, -2.4,0,0,1024,1024,1024,1024,0,0,0,0,0,0,0,79,,,,,,,8.003,104.54,720.87540003652,14.435696,6,P-GPS,
12300,2023-10-01 20:54:45,40.0688910462941,-88.209651150794,14.435696,,,720.87540003652,8.530184,0,0.3426345254,1.79609913884,24,10,23.3725,721.85965203652,15.419948,0.3131716,0.3660433188,0,0,0,264.5, 1.7, -3.2,0,0,1024,1024,1024,1024,0,0,0,0,0,0,0,79,,,,,,,8.003,104.54,720.87540003652,14.435696,6,P-GPS,
12400,2023-10-01 20:54:46,40.0688909253468,-88.2096511190762,14.435696,,,720.87540003652,8.530184,0,0.323005587764,1.8411089828,24,10,23.357,721.85965203652,15.419948,0.3131716,0.3660433188,0,0,0,264.6, 2, -3.3,0,0,1024,1024,1024,1024,0,0,0,0,0,0,0,78,,,,,,,7.987,104.54,720.87540003652,14.435696,6,P-GPS,
12500,2023-10-01 20:54:46,40.0688909004703,-88.2096510969099,14.435696,,,720.87540003652,8.530184,0,0.315297910352,1.85209323512,24,10,23.357,721.85965203652,15.419948,0.3131716,0.3660433188,0,0,0,264.7, 1.7, -3,0,0,1024,1024,1024,1024,0,0,0,0,0,0,0,78,,,,,,,7.987,104.54,720.87540003652,14.435696,6,P-GPS,
12600,2023-10-01 20:54:46,40.0688908916059,-88.2096510867959,14.435696,,,720.87540003652,8.530184,0,0.311987870876,1.85638785468,24,10,23.357,721.85965203652,15.419948,0.3131716,0.3660433188,0,0,0,264.7, 1.5, -2.9,0,0,1024,1024,1024,1024,0,0,0,0,0,0,0,79,,,,,,,7.987,104.54,720.87540003652,14.435696,6,P-GPS,
12700,2023-10-01 20:54:46,40.0688907900449,-88.2096511390971,14.107612,,,720.54731603652,8.530184,0,0.322922910596,1.89621397144,24,10,23.357,721.85965203652,15.419948,0.3131716,0.3660433188,0,0,0,264.7, 1.7, -2.8,0,0,1024,1024,1024,1024,0,0,0,0,0,0,0,79,,,,,,,7.987,104.54,720.54731603652,14.107612,6,P-GPS,
12800,2023-10-01 20:54:46,40.0688907737407,-88.2096511594198,14.107612,,,720.54731603652,8.530184,0,0.3284284882,1.90443575648,24,10,23.357,721.85965203652,15.419948,0.3131716,0.3660433188,0,0,0,264.7, 1.8, -2.5,0,0,1024,1024,1024,1024,0,0,0,0,0,0,0,79,,,,,,,7.987,104.54,720.54731603652,14.107612,6,P-GPS,
12900,2023-10-01 20:54:46,40.0688907557947,-88.2096511648451,14.107612,,,720.54731603652,8.530184,0,0.32988518116,1.9111549168,24,10,23.357,721.85965203652,15.419948,0.3131716,0.3660433188,0,0,0,264.7, 1.7, -2.4,0,0,1024,1024,1024,1024,0,0,0,0,0,0,0,79,,,,,,,7.987,104.54,720.54731603652,14.107612,6,P-GPS,
13000,2023-10-01 20:54:46,40.0688907361426,-88.2096511604691,14.107612,,,720.54731603652,8.530184,0,0.32875001052,1.91842853908,24,10,23.357,721.85965203652,15.419948,0.3131716,0.3660433188,0,0,0,264.7, 1.7, -2.3,0,0,1024,1024,1024,1024,0,0,0,0,0,0,0,79,,,,,,,7.987,104.54,720.54731603652,14.107612,6,P-GPS,
13100,2023-10-01 20:54:46,40.0688906836388,-88.2096511667654,14.107612,,,720.54731603652,8.530184,0,0.33150263528,1.93766738484,24,10,23.357,721.85965203652,15.419948,0.3131716,0.3660433188,0,0,0,264.6, 1.7, -1.9,0,0,1024,1024,1024,1024,0,0,0,0,0,0,0,79,,,,,,,7.987,104.54,720.54731603652,14.107612,6,P-GPS,
13200,2023-10-01 20:54:46,40.0688906687128,-88.2096511767398,14.107612,,,720.54731603652,8.858268,0,0.33475722856,1.9437828706,24,10,23.357,721.85965203652,15.419948,0.3131716,0.3660433188,0,0,0,264.5, 2.1, -1.9,0,0,1024,1024,1024,1024,0,0,0,0,0,0,0,79,,,,,,,7.987,104.54,720.54731603652,14.107612,6,P-GPS,
13300,2023-10-01 20:54:46,40.0688906623244,-88.2096511848573,14.107612,,,720.54731603652,8.858268,0,0.33724410528,1.94703418304,24,10,23.357,721.85965203652,15.419948,0.3131716,0.3660433188,0,0,0,264.5, 2.2, -2.1,0,0,1024,1024,1024,1024,0,0,0,0,0,0,0,79,,,,,,,7.987,104.54,720.54731603652,14.107612,6,P-GPS,
13400,2023-10-01 20:54:47,40.0688906294027,-88.2096512008789,14.107612,,,720.54731603652,8.858268,0,0.34311680888,1.95985242492,24,10,23.357,721.85965203652,15.419948,0.3131716,0.3660433188,0,0,0,264.3, 2, -2,0,0,1024,1024,1024,1024,0,0,0,0,0,0,0,79,,,,,,,7.987,104.54,720.54731603652,14.107612,6,P-GPS,
13500,2023-10-01 20:54:47,40.0688906235922,-88.2096511976313,14.107612,,,720.54731603652,8.858268,0,0.34251313432,1.9621555746,24,10,23.357,721.85965203652,15.419948,0.3131716,0.3660433188,0,0,0,264.2, 2, -1.6,0,0,1024,1024,1024,1024,0,0,0,0,0,0,0,79,,,,,,,7.987,104.54,720.54731603652,14.107612,6,P-GPS,
13600,2023-10-01 20:54:47,40.0688906198508,-88.2096511899703,14.107612,,,720.54731603652,8.858268,0,0.34059384292,1.96469494476,24,10,23.357,721.85965203652,15.419948,0.3131716,0.3660433188,0,0,0,264.1, 2.1, -1.3,0,0,1024,1024,1024,1024,0,0,0,0,0,0,0,79,,,,,,,7.987,104.54,720.54731603652,14.107612,6,P-GPS,
13700,2023-10-01 20:54:47,40.0688906159414,-88.2096511813681,13.779528,,,720.21923203652,8.530184,0,0.33843176936,1.9674869396,24,10,23.357,721.85965203652,15.419948,0.3131716,0.3660433188,0,0,0,264, 1.9, -1.4,0,0,1024,1024,1024,1024,0,0,0,0,0,0,0,79,,,,,,,7.987,104.54,720.21923203652,13.779528,6,P-GPS,
13800,2023-10-01 20:54:47,40.0688905495523,-88.2096511998016,13.779528,,,720.21923203652,8.530184,0,0.34796917124,1.99225071992,24,10,23.357,721.85965203652,15.419948,0.3131716,0.3660433188,0,0,0,264, 1.7, -1.7,0,0,1024,1024,1024,1024,0,0,0,0,0,0,0,79,,,,,,,7.987,104.54,720.21923203652,13.779528,6,P-GPS,
13900,2023-10-01 20:54:47,40.068890555493,-88.2096512048822,13.779528,,,720.21923203652,8.858268,0,0.34889108728,1.99484258352,24,10,23.357,721.85965203652,15.419948,0.3131716,0.3660433188,0,0,0,264, 2, -2,0,0,1024,1024,1024,1024,0,0,0,0,0,0,0,79,,,,,,,7.987,104.54,720.21923203652,13.779528,6,P-GPS,
14000,2023-10-01 20:54:47,40.0688905674224,-88.2096512115728,13.779528,,,720.21923203652,8.858268,0,0.34983268836,1.99957683564,24,10,23.357,721.85965203652,15.419948,0.3131716,0.3660433188,0,0,0,263.9, 2.2, -2.2,0,0,1024,1024,1024,1024,0,0,0,0,0,0,0,79,,,,,,,7.987,104.54,720.21923203652,13.779528,6,P-GPS,
14100,2023-10-01 20:54:47,40.0688904945122,-88.2096512761031,13.779528,,,720.21923203652,8.530184,0,0.37343177048,2.03170610176,24,10,23.357,721.85965203652,15.419948,0.3131716,0.37343177048,0,0,0,263.9, 2.2, -2.1,0,0,1024,1024,1024,1024,0,0,0,0,0,0,0,79,,,,,,,7.987,104.54,720.21923203652,13.779528,6,P-GPS,
14200,2023-10-01 20:54:47,40.0688905077366,-88.2096512590147,13.779528,,,720.21923203652,8.530184,0,0.36759843696,2.03849087888,24,10,23.357,721.85965203652,15.419948,0.3131716,0.37343177048,0,0,0,264, 1.8, -2.2,0,0,1032,1024,1024,1024,1,0,0,0,0,0,0,79,,,,,,,7.987,104.54,720.21923203652,13.779528,6,P-GPS,
14300,2023-10-01 20:54:47,40.06889051755,-88.2096512285715,13.779528,,,720.21923203652,8.530184,0,0.3584809826,2.04771660096,24,10,23.357,721.85965203652,15.419948,0.3131716,0.37343177048,0,0,0,264, 1.5, -2.1,0,0,1030,1024,1024,1024,1,0,0,0,0,0,0,79,,,,,,,7.987,104.54,720.21923203652,13.779528,6,P-GPS,
14400,2023-10-01 20:54:48,40.0688905078486,-88.2096511971744,13.779528,,,720.21923203652,8.530184,0,0.350885838,2.057168701,24,10,23.3575,721.85965203652,15.419948,0.3131716,0.37343177048,0,0,0,264, 1.6, -2,0,0,1143,1024,1024,1024,18,0,0,0,0,0,0,78,,,,,,,7.836,104.54,720.21923203652,13.779528,6,P-GPS,
14500,2023-10-01 20:54:48,40.068890434282,-88.2096511891047,13.779528,,,720.21923203652,8.530184,0,0.35664699304,2.0841043974,24,10,23.3575,721.85965203652,15.419948,0.3131716,0.37343177048,0,0,0,264, 1.8, -1.9,0,0,1024,1024,1024,1024,0,0,0,0,0,0,0,78,,,,,,,7.836,104.54,720.21923203652,13.779528,6,P-GPS,
14600,2023-10-01 20:54:48,40.0688904292467,-88.2096511456679,13.779528,,,720.21923203652,8.530184,0,0.34585302944,2.09637145816,24,10,23.3575,721.85965203652,15.419948,0.3131716,0.37343177048,0,0,0,264, 1.4, -1.8,0,0,1024,1024,1024,1024,0,0,0,0,0,0,0,79,,,,,,,7.836,104.54,720.21923203652,13.779528,6,P-GPS,
14700,2023-10-01 20:54:48,40.0688904279371,-88.2096510915547,13.779528,,,720.21923203652,8.530184,0,0.33188649356,2.11148628804,24,10,23.3575,721.85965203652,15.419948,0.3131716,0.37343177048,0,0,0,263.9, 1.2, -1.7,0,0,1035,1024,1024,1024,2,0,0,0,0,0,0,79,,,,,,,7.836,104.54,720.21923203652,13.779528,6,P-GPS,
14800,2023-10-01 20:54:48,40.0688903500989,-88.2096510344475,13.779528,,,720.21923203652,8.530184,0,0.32887796328,2.14405518672,24,10,23.3575,721.85965203652,15.419948,0.3131716,0.37343177048,0,0,0,263.9, 0.9, -1.7,0,0,1069,1024,1024,1024,7,0,0,0,0,0,0,79,,,,,,,7.836,104.54,720.21923203652,13.779528,6,P-GPS,
14900,2023-10-01 20:54:48,40.0688903625958,-88.2096509923327,13.451444,,,719.89114803652,8.530184,0,0.316329078364,2.15666673568,24,10,23.3575,721.85965203652,15.419948,0.3131716,0.37343177048,0,0,0,264, 1.1, -1.9,0,0,1069,1024,1024,1024,7,0,0,0,0,0,0,79,,,,,,,7.836,104.54,719.89114803652,13.451444,6,P-GPS,
15000,2023-10-01 20:54:48,40.0688903813566,-88.2096509545178,13.451444,,,719.89114803652,8.530184,0,0.30381562652,2.16925203792,24,10,23.3575,721.85965203652,15.419948,0.3131716,0.37343177048,0,0,0,264.1, 0.8, -2.1,0,0,1213,1024,1024,1024,29,0,0,0,0,0,0,79,,,,,,,7.836,104.54,719.89114803652,13.451444,6,P-GPS,
15100,2023-10-01 20:54:48,40.0688903990886,-88.20965093693,13.451444,,,719.89114803652,8.530184,0,0.296536426812,2.17737211692,24,10,23.3575,721.85965203652,15.419948,0.3131716,0.37343177048,0,0,-0.223694,264.2, 0.3, -2.2,0,0,1269,1024,1024,1024,37,0,0,0,0,0,0,79,,,,,,,7.836,104.54,719.89114803652,13.451444,6,P-GPS,
15200,2023-10-01 20:54:48,40.0688903531222,-88.2096509688193,13.451444,,,719.89114803652,8.530184,0,0.312113198964,2.19636161884,24,10,23.3575,721.85965203652,15.419948,0.3131716,0.37343177048,0,0,-0.223694,264.3, -1.3, -2.3,0,0,1269,1024,1024,1024,37,0,0,0,0,0,0,79,,,,,,,7.836,104.54,719.89114803652,13.451444,6,P-GPS,
15300,2023-10-01 20:54:48,40.0688903654558,-88.2096510477127,13.451444,,,719.89114803652,8.530184,0,0.32972113916,2.21884193452,24,10,23.3575,721.85965203652,15.419948,0.3131716,0.37343177048,0,0,-0.223694,264.3, -3.8, -2.4,0,0,1309,1024,1024,1024,43,0,0,0,0,0,0,79,,,,,,,7.836,104.54,719.89114803652,13.451444,6,P-GPS,
15400,2023-10-01 20:54:49,40.0688903581584,-88.2096512763379,13.451444,,,719.89114803652,8.530184,0.223694,0.38922901508,2.28273301268,24,10,23.3575,721.85965203652,15.419948,0.3131716,0.38922901508,0,-0.223694,-0.223694,264.3, -6.6, -2.4,0,0,1024,1024,1024,1024,0,0,0,0,0,0,0,79,,,,,,,7.836,104.54,719.89114803652,13.451444,6,P-GPS,
15500,2023-10-01 20:54:49,40.0688902634637,-88.2096517731841,13.451444,,,719.89114803652,8.530184,0.223694,0.53118111936,2.42569561568,24,10,23.3315,721.85965203652,15.419948,0.3131716,0.53118111936,0,-0.671082,-0.223694,264.2, -8.1, -2.2,0,0,1024,1024,1024,1024,0,0,0,0,0,0,0,78,,,,,,,8.437,104.54,719.89114803652,13.451444,6,P-GPS,
15600,2023-10-01 20:54:49,40.068890231358,-88.2096523338146,13.451444,,,719.89114803652,8.530184,0.894776,0.6837106518,2.58266412464,24,10,23.3315,721.85965203652,15.419948,0.894776,0.6837106518,0,-0.894776,-0.223694,264.1, -5.3, -1.9,0,0,1024,1024,1024,1024,0,0,0,0,0,0,0,79,,,,,,,8.437,104.54,719.89114803652,13.451444,6,P-GPS,
15700,2023-10-01 20:54:49,40.0688901946972,-88.2096529969238,13.451444,,,719.89114803652,8.530184,1.11847,0.866059739,2.76829405184,24,10,23.3315,721.85965203652,15.419948,1.11847,0.866059739,0,-1.11847,-0.223694,264.1, 0.7, -1.8,0,0,1024,1024,1024,1024,0,0,0,0,0,0,0,79,,,,,,,8.437,104.54,719.89114803652,13.451444,6,P-GPS,
15800,2023-10-01 20:54:49,40.0688901759565,-88.2096536906396,13.451444,,,719.89114803652,8.530184,1.11847,1.05658796032,2.962106394,24,10,23.3315,721.85965203652,15.419948,1.11847,1.05658796032,0,-1.11847,0,264.1, 5.7, -2.1,0,0,1024,1024,1024,1024,0,0,0,0,0,0,0,79,,,,,,,8.437,104.54,719.89114803652,13.451444,6,P-GPS,
15900,2023-10-01 20:54:49,40.0688901351123,-88.2096542647568,13.451444,,,719.89114803652,8.530184,1.11847,1.21674544576,3.12309393196,24,10,23.3315,721.85965203652,15.419948,1.11847,1.21674544576,0,-0.894776,0,264.2, 7.1, -2.6,0,0,1024,1024,1024,1024,0,0,0,0,0,0,0,79,,,,,,,8.437,104.54,719.89114803652,13.451444,6,P-GPS,
16000,2023-10-01 20:54:49,40.068890156583,-88.2096547232169,13.451444,,,719.89114803652,8.858268,0.671082,1.34141736576,3.25134196756,24,10,23.3315,721.85965203652,15.419948,1.11847,1.34141736576,0,-0.671082,0,264.3, 6.4, -2.9,0,0,1024,1024,1024,1024,0,0,0,0,0,0,0,79,,,,,,,8.437,104.54,719.89114803652,13.451444,6,P-GPS,
16100,2023-10-01 20:54:49,40.0688901815934,-88.2096550018231,13.451444,,,719.89114803652,8.530184,0.671082,1.41683731568,3.3296588992,24,10,23.3315,721.85965203652,15.419948,1.11847,1.41683731568,0,-0.447388,0,264.4, 4.6, -3,0,0,970,1024,1024,1024,-8,0,0,0,0,0,0,79,,,,,,,8.437,104.54,719.89114803652,13.451444,6,P-GPS,
16200,2023-10-01 20:54:49,40.0688901382209,-88.2096552967237,13.451444,,,719.89114803652,8.858268,0.223694,1.50061684592,3.4135171696,24,10,23.3315,721.85965203652,15.419948,1.11847,1.50061684592,0,-0.223694,-0.223694,264.5, 3.6, -2.9,0,0,970,1024,1024,1024,-8,0,0,0,0,0,0,79,,,,,,,8.437,104.54,719.89114803652,13.451444,6,P-GPS,
16300,2023-10-01 20:54:49,40.0688901601987,-88.2096554467946,13.451444,,,719.89114803652,8.858268,0.223694,1.54090228028,3.4561680896,24,10,23.3315,721.85965203652,15.419948,1.11847,1.54090228028,0,-0.223694,-0.223694,264.7, 3, -2.6,0,0,970,1024,1024,1024,-8,0,0,0,0,0,0,79,,,,,,,8.437,104.54,719.89114803652,13.451444,6,P-GPS,
16400,2023-10-01 20:54:50,40.0688901811219,-88.2096555574338,13.451444,,,719.89114803652,8.858268,0.223694,1.57044952532,3.4879922376,24,10,23.3315,721.85965203652,15.419948,1.11847,1.57044952532,0,-0.223694,-0.223694,264.8, 2, -2.5,0,0,1024,1056,1024,1024,0,5,0,0,0,0,0,79,,,,,,,8.437,104.54,719.89114803652,13.451444,6,P-GPS,
16500,2023-10-01 20:54:50,40.0688901764532,-88.2096556753634,13.451444,,,719.89114803652,8.858268,0.223694,1.60331041876,3.5209646796,24,10,23.3335,721.85965203652,15.419948,1.11847,1.60331041876,0,0,-0.223694,264.8, 1.3, -2.5,0,0,1024,1341,1024,1024,0,48,0,0,0,0,0,78,,,,,,,8.078,104.54,719.89114803652,13.451444,6,P-GPS,
16600,2023-10-01 20:54:50,40.0688901158502,-88.2096558567654,13.451444,,,719.89114803652,8.858268,0,1.65650595852,3.5762140252,24,10,23.3335,721.85965203652,15.419948,1.11847,1.65650595852,0,0,-0.223694,264.7, 1.1, -1.9,0,0,1024,1458,1024,1024,0,66,0,0,0,0,0,79,,,,,,,8.078,104.54,719.89114803652,13.451444,6,P-GPS,
16700,2023-10-01 20:54:50,40.068890070851,-88.2096559955348,13.451444,,,719.89114803652,8.858268,0,1.69721790208,3.6183072024,24,10,23.3335,721.85965203652,15.419948,1.11847,1.69721790208,0,0,-0.223694,264.5, 0.9, 2,0,0,1024,1458,1024,1024,0,66,0,0,0,0,0,79,,,,,,,8.078,104.54,719.89114803652,13.451444,6,P-GPS,
16800,2023-10-01 20:54:50,40.0688900686155,-88.2096561475185,13.451444,,,719.89114803652,9.186352,0,1.73931764096,3.660761272,24,10,23.3335,721.85965203652,15.419948,1.11847,1.73931764096,0,0,-0.223694,264.4, 1, 8.2,0,0,1024,1419,1024,1024,0,60,0,0,0,0,0,79,,,,,,,8.078,104.54,719.89114803652,13.451444,6,P-GPS,
16900,2023-10-01 20:54:50,40.0688900992086,-88.2096563856733,13.451444,,,719.89114803652,9.186352,0.447388,1.80362210496,3.728182534,24,10,23.3335,721.85965203652,15.419948,1.11847,1.80362210496,0.447388,0,-0.223694,264.4, 1.2, 13.1,0,0,1024,1410,1024,1024,0,58,0,0,0,0,0,79,,,,,,,8.078,104.54,719.89114803652,13.451444,6,P-GPS,
17000,2023-10-01 20:54:50,40.0688904515777,-88.2096565455819,13.451444,,,719.89114803652,8.858268,0.447388,1.83561685664,3.8642717772,24,10,23.3335,721.85965203652,15.419948,1.11847,1.83561685664,0.894776,-0.223694,-0.223694,264.4, 1.3, 14.7,0,0,1024,1391,1024,1024,0,56,0,0,0,0,0,79,,,,,,,8.078,104.54,719.89114803652,13.451444,6,P-GPS,
17100,2023-10-01 20:54:50,40.0688910351166,-88.2096567169103,13.451444,,,719.89114803652,8.530184,1.5882274,1.8828084592,4.0824804456,24,10,23.3335,721.85965203652,15.419948,1.5882274,1.8828084592,1.565858,-0.223694,-0.223694,264.4, 1.3, 14.1,0,0,1024,1391,1024,1024,0,56,0,0,0,0,0,79,,,,,,,8.078,104.54,719.89114803652,13.451444,6,P-GPS,
17200,2023-10-01 20:54:50,40.0688918955684,-88.2096569131511,13.451444,,,719.89114803652,8.2021,2.0356154,1.97896003708,4.4011484348,24,10,23.3335,721.85965203652,15.419948,2.0356154,1.97896003708,2.013246,-0.223694,-0.223694,264.4, 1.1, 12.9,0,0,1024,1349,1024,1024,0,49,0,0,0,0,0,79,,,,,,,8.078,104.54,719.89114803652,13.451444,6,P-GPS,
17300,2023-10-01 20:54:51,40.0688928275679,-88.2096571169908,13.451444,,,719.89114803652,8.2021,2.684328,2.13023956948,4.7459319104,24,10,23.3335,721.85965203652,15.419948,2.684328,2.13023956948,2.684328,-0.223694,-0.223694,264.3, 1.1, 11.9,0,0,1024,1158,1024,1024,0,20,0,0,0,0,0,79,,,,,,,8.078,104.54,719.89114803652,13.451444,6,P-GPS,
17400,2023-10-01 20:54:51,40.0688940850197,-88.209657293102,13.451444,,,719.89114803652,8.2021,2.684328,2.37484259568,5.207349248,24,10,23.3335,721.85965203652,15.419948,2.684328,2.37484259568,3.131716,-0.223694,-0.223694,264.2, 1.2, 11,0,0,1024,1024,1024,1024,0,0,0,0,0,0,0,79,,,,,,,8.078,104.54,719.89114803652,13.451444,6,P-GPS,
17500,2023-10-01 20:54:51,40.068895456361,-88.2096574998614,13.451444,,,719.89114803652,8.2021,3.579104,2.71002961428,5.7109909964,24,10,23.3335,721.85965203652,15.419948,3.579104,2.71002961428,3.579104,-0.223694,-0.223694,264.2, 1.3, 7.6,0,0,1024,1024,1024,1024,0,0,0,0,0,0,0,79,,,,,,,8.078,104.54,719.89114803652,13.451444,6,P-GPS,
17600,2023-10-01 20:54:51,40.06889695769,-88.2096577523436,13.451444,,,719.89114803652,8.530184,3.802798,3.13424878796,6.2632547936,24,10,23.3335,721.85965203652,15.419948,3.802798,3.13424878796,3.802798,-0.223694,-0.223694,264.1, 1.4, -2,0,0,1024,1024,1024,1024,0,0,0,0,0,0,0,79,,,,,,,8.078,104.54,719.89114803652,13.451444,6,P-GPS,
17700,2023-10-01 20:54:51,40.0688984394628,-88.2096579668523,13.451444,,,719.89114803652,8.530184,3.802798,3.5812665188,6.8071852572,24,10,23.3335,721.85965203652,15.419948,3.802798,3.5812665188,3.802798,-0.223694,-0.223694,264.3, 0.8, -12.8,0,0,1024,1024,1024,1024,0,0,0,0,0,0,0,79,,,,,,,8.078,104.54,719.89114803652,13.451444,6,P-GPS,
17800,2023-10-01 20:54:51,40.0688998045997,-88.2096581584027,13.451444,,,719.89114803652,8.530184,3.131716,4.0133531468,7.3081367168,24,10,23.3335,721.85965203652,15.419948,3.802798,4.0133531468,3.131716,-0.223694,-0.223694,264.4, 0.3, -17.4,0,0,1024,1024,1024,1024,0,0,0,0,0,0,0,79,,,,,,,8.078,104.54,719.89114803652,13.451444,6,P-GPS,
17900,2023-10-01 20:54:51,40.0689008258969,-88.2096583034179,13.451444,,,719.89114803652,8.2021,2.460634,4.3465224488,7.6829398784,24,10,23.3335,721.85965203652,15.419948,3.802798,4.3465224488,2.460634,-0.223694,-0.223694,264.4, 0, -16.3,0,0,1024,1024,1024,1024,0,0,0,0,0,0,0,79,,,,,,,8.078,104.54,719.89114803652,13.451444,6,P-GPS,
18000,2023-10-01 20:54:51,40.0689015903515,-88.2096584460731,13.451444,,,719.89114803652,8.2021,2.0356154,4.604987024,7.9646984176,24,10,23.3335,721.85965203652,15.419948,3.802798,4.604987024,2.013246,-0.223694,-0.223694,264.3, 0.5, -13,0,0,1024,1024,1024,1024,0,0,0,0,0,0,0,79,,,,,,,8.078,104.54,719.89114803652,13.451444,6,P-GPS,
18100,2023-10-01 20:54:51,40.0689021848459,-88.2096585696762,13.451444,,,719.89114803652,8.2021,1.5882274,4.8095802064,8.1843178472,24,10,23.3335,721.85965203652,15.419948,3.802798,4.8095802064,1.565858,-0.223694,-0.223694,264.2, 1.2, -9.6,0,0,1024,1024,1024,1024,0,0,0,0,0,0,0,79,,,,,,,8.078,104.54,719.89114803652,13.451444,6,P-GPS,
18200,2023-10-01 20:54:51,40.0689024994574,-88.209658662275,13.451444,,,719.89114803652,8.2021,1.3645334,4.92208021,8.3019687696,24,10,23.3335,721.85965203652,15.419948,3.802798,4.92208021,1.342164,-0.223694,-0.223694,264.2, 1.5, -7.6,0,0,1024,1144,1024,1024,0,18,0,0,0,0,0,79,,,,,,,8.078,104.54,719.89114803652,13.451444,6,P-GPS,
18300,2023-10-01 20:54:51,40.068902637538,-88.2096587034921,13.451444,,,719.89114803652,8.2021,1.1408394,4.971620894,8.3536419996,24,10,23.3335,721.85965203652,15.419948,3.802798,4.971620894,1.11847,-0.223694,-0.223694,264.2, 1.5, -6.3,0,0,1024,1144,1024,1024,0,18,0,0,0,0,0,79,,,,,,,8.078,104.54,719.89114803652,13.451444,6,P-GPS,
18400,2023-10-01 20:54:52,40.0689030446239,-88.2096587772402,13.451444,,,719.89114803652,8.2021,0.9171454,5.1114831032,8.503609196,24,10,23.307,721.85965203652,15.419948,3.802798,5.1114831032,0.894776,-0.223694,0,264.3, 1.4, -4.2,0,0,1024,1367,1024,1024,0,52,0,0,0,0,0,78,,,,,,,8.197,104.54,719.89114803652,13.451444,6,P-GPS,
18500,2023-10-01 20:54:52,40.0689034712816,-88.2096588910817,13.451444,,,719.89114803652,8.2021,0.9171454,5.2635172288,8.6624674688,24,10,23.307,721.85965203652,15.419948,3.802798,5.2635172288,0.894776,-0.223694,0,264.4, 1.6, -0.8,0,0,1024,1367,1024,1024,0,52,0,0,0,0,0,78,,,,,,,8.197,104.54,719.89114803652,13.451444,6,P-GPS,
18600,2023-10-01 20:54:52,40.0689039757791,-88.2096590386381,13.451444,,,719.89114803652,8.2021,0.9171454,5.4454398068,8.8510829604,24,10,23.307,721.85965203652,15.419948,3.802798,5.4454398068,0.894776,-0.223694,0,264.4, 1.7, 3.5,0,0,1024,1353,1024,1024,0,50,0,0,0,0,0,79,,,,,,,8.197,104.54,719.89114803652,13.451444,6,P-GPS,
