time(millisecond),datetime(utc),latitude,longitude,height_above_takeoff(feet),height_above_ground_at_drone_location(feet),ground_elevation_at_drone_location(feet),altitude_above_seaLevel(feet),height_sonar(feet),speed(mph),distance(feet),mileage(feet),satellites,gpslevel,voltage(v),max_altitude(feet),max_ascent(feet),max_speed(mph),max_distance(feet), xSpeed(mph), ySpeed(mph), zSpeed(mph), compass_heading(degrees), pitch(degrees), roll(degrees),isPhoto,isVideo,rc_elevator,rc_aileron,rc_throttle,rc_rudder,rc_elevator(percent),rc_aileron(percent),rc_throttle(percent),rc_rudder(percent),gimbal_heading(degrees),gimbal_pitch(degrees),gimbal_roll(degrees),battery_percent,voltageCell1,voltageCell2,voltageCell3,voltageCell4,voltageCell5,voltageCell6,current(A),battery_temperature(f),altitude(feet),ascent(feet),flycStateRaw,flycState,message
0,2023-10-01 20:35:52,40.0688894232554,-88.2095714810794,0,Available with any HD 360 subscription,Available with any HD 360 subscription,706.5195025955,0.656168,0,0,0,25,10,0,706.5195025955,0,0,0,0,0,0,359.2, -0.7, -0.3,0,0,412,389,364,1684,-93,-96,-100,100,0,0,0,86,,,,,,,0,102.02,706.5195025955,0,41,Motors_Started,"Your aircraft is flying in an Altitude Zone (500m). Please fly with caution."
100,2023-10-01 20:35:52,40.0688894223993,-88.209571465982,0,,,706.5195025955,0.656168,0,0.0042269030224,0.0042269030224,25,10,0,706.5195025955,0,0,0.0042269030224,0,0,0,359.2, -0.7, -0.3,0,0,412,389,364,1684,-93,-96,-100,100,0,0,0,86,,,,,,,0,102.02,706.5195025955,0,41,Motors_Started,
200,2023-10-01 20:35:52,40.0688894480077,-88.2095714857488,0,,,706.5195025955,0.656168,0,0.0091244753576,0.0150784453644,25,10,0,706.5195025955,0,0,0.0091244753576,0,0,0,359.2, -0.7, -0.3,0,0,1024,1024,1024,1024,0,0,0,0,0,0,0,86,,,,,,,0,102.02,706.5195025955,0,41,Motors_Started,
300,2023-10-01 20:35:52,40.0688894481995,-88.2095714718388,0,,,706.5195025955,0.656168,0,0.00945948193,0.0189628614992,25,10,0,706.5195025955,0,0,0.00945948193,0,0,0,359.2, -0.7, -0.3,0,0,1024,1024,1024,1024,0,0,0,0,0,0,0,86,,,,,,,0,102.02,706.5195025955,0,41,Motors_Started,
400,2023-10-01 20:35:52,40.0688894535741,-88.2095714641206,0,,,706.5195025955,0.656168,0,0.0120325791252,0.021876477078,25,10,0,706.5195025955,0,0,0.0120325791252,0,0,0,359.2, -0.7, -0.3,0,0,1024,1024,1024,1024,0,0,0,0,0,0,0,86,,,,,,,0,102.02,706.5195025955,0,41,Motors_Started,
500,2023-10-01 20:35:53,40.0688894652272,-88.2095715006276,0,,,706.5195025955,0.656168,0,0.0162569887092,0.032920604728,25,10,0,706.5195025955,0,0,0.0162569887092,0,0,0,359.2, -0.7, -0.3,0,0,1024,1024,1024,1024,0,0,0,0,0,0,0,86,,,,,,,0,102.02,706.5195025955,0,41,Motors_Started,
600,2023-10-01 20:35:53,40.0688894519759,-88.2095714873647,0,,,706.5195025955,0.656168,0,0.0106246066392,0.03901082802,25,10,0,706.5195025955,0,0,0.0162569887092,0,0,0,359.2, -0.7, -0.3,0,0,1024,1024,1024,1024,0,0,0,0,0,0,0,86,,,,,,,0,102.02,706.5195025955,0,41,Motors_Started,"Setting new Return-To-Home altitude to 100m (328 ft). Data Recorder File Index is 25. Setting new Maximum Flight Altitude to 120m (394 ft)"
700,2023-10-01 20:35:53,40.0688894442358,-88.2095714663883,0,,,706.5195025955,0.656168,0,0.0086844162884,0.045512796732,25,10,0,706.5195025955,0,0,0.0162569887092,0,0,0,359.2, -0.7, -0.3,0,0,1024,1024,1024,1024,0,0,0,0,0,0,0,86,,,,,,,0,102.02,706.5195025955,0,41,Motors_Started,
800,2023-10-01 20:35:53,40.0688894343818,-88.2095714426852,0,,,706.5195025955,0.656168,0,0.0114628612592,0.053044293036,25,10,0,706.5195025955,0,0,0.0162569887092,0,0,0,359.2, -0.7, -0.3,0,0,1024,1024,1024,1024,0,0,0,0,0,0,0,86,,,,,,,0,102.02,706.5195025955,0,41,Motors_Started,
900,2023-10-01 20:35:53,40.0688894630809,-88.2095714412983,0,,,706.5195025955,0.656168,0,0.0182893378556,0.063522311744,25,10,0,706.5195025955,0,0,0.0182893378556,0,0,0,359.1, -0.7, -0.3,0,0,1024,1024,1024,1024,0,0,0,0,0,0,0,86,,,,,,,0,102.02,706.5195025955,0,41,Motors_Started,
1000,2023-10-01 20:35:53,40.0688894575616,-88.2095714125529,0,,,706.5195025955,0.656168,0,0.0228635834088,0.071797246392,25,10,0,706.5195025955,0,0,0.0228635834088,0,0,0,359, -0.7, -0.3,0,0,1024,1024,1024,1024,0,0,0,0,0,0,0,86,,,,,,,0,102.02,706.5195025955,0,41,Motors_Started,
1100,2023-10-01 20:35:53,40.0688894547502,-88.2095714054327,0,,,706.5195025955,0.656168,0,0.0240446530004,0.074034123104,25,10,0,706.5195025955,0,0,0.0240446530004,0,0,0,359.1, -0.6, -0.2,0,0,1024,1024,1024,1024,0,0,0,0,0,0,0,86,,,,,,,0,102.02,706.5195025955,0,41,Motors_Started,
1200,2023-10-01 20:35:53,40.0688894766872,-88.2095714377031,0,,,706.5195025955,0.656168,0,0.0229502632016,0.08608596076,25,10,0,706.5195025955,0,0,0.0240446530004,0,0,0,359.1, -0.7, -0.2,0,0,1024,1024,1024,1024,0,0,0,0,0,0,0,86,,,,,,,0,102.02,706.5195025955,0,41,Motors_Started,
1300,2023-10-01 20:35:53,40.0688894671784,-88.2095714307294,0,,,706.5195025955,0.656168,0,0.0213176187924,0.09006397926,25,10,0,706.5195025955,0,0,0.0240446530004,0,0,0,359.1, -0.6, -0.2,0,0,1024,1024,1024,1024,0,0,0,0,0,0,0,86,,,,,,,0,102.02,706.5195025955,0,41,Motors_Started,
1400,2023-10-01 20:35:53,40.068889467241,-88.2095714135286,0,,,706.5195025955,0.656168,0,0.0247643052544,0.094866800936,25,10,0,706.5195025955,0,0,0.0247643052544,0,0,0,359.1, -0.6, -0.2,0,0,1024,1024,1024,1024,0,0,0,0,0,0,0,86,,,,,,,0,102.02,706.5195025955,0,41,Motors_Started,
1500,2023-10-01 20:35:54,40.0688894909393,-88.2095713606545,0,,,706.5195025955,0.656168,0,0.041717849104,0.111975397284,25,10,0,706.5195025955,0,0,0.041717849104,0,0,0,359.2, -0.6, -0.2,0,0,1024,1024,1024,1024,0,0,0,0,0,0,0,86,,,,,,,0,102.02,706.5195025955,0,41,Motors_Started,
1600,2023-10-01 20:35:54,40.0688895628504,-88.2095713598127,0,,,706.5195025955,0.656168,0,0.061158794608,0.138213259016,25,10,0,706.5195025955,0,0,0.061158794608,0,0,0,359.2, -0.6, -0.2,0,0,1024,1024,1024,1024,0,0,0,0,0,0,0,86,,,,,,,0,102.02,706.5195025955,0,41,Motors_Started,
1700,2023-10-01 20:35:54,40.068889565292,-88.2095713323037,0,,,706.5195025955,0.656168,0,0.06641568454,0.145945542728,25,10,0,706.5195025955,0,0,0.06641568454,0,0,0,359.2, -0.6, -0.2,0,0,1024,1024,1024,1024,0,0,0,0,0,0,0,86,,,,,,,0,102.02,706.5195025955,0,41,Motors_Started,
1800,2023-10-01 20:35:54,40.0688895672111,-88.2095713037061,0,,,706.5195025955,0.656168,0,0.072188650604,0.153960634848,25,10,0,706.5195025955,0,0,0.072188650604,0,0,0,359.2, -0.6, -0.2,0,0,1024,1024,1024,1024,0,0,0,0,0,0,0,86,,,,,,,0,102.02,706.5195025955,0,41,Motors_Started,
1900,2023-10-01 20:35:54,40.0688896026819,-88.2095713394257,0,,,706.5195025955,0.656168,0,0.076483598248,0.170299218048,25,10,0,706.5195025955,0,0,0.076483598248,0,0,0,359.2, -0.6, -0.2,0,0,1024,1024,1024,1024,0,0,0,0,0,0,0,86,,,,,,,0,102.02,706.5195025955,0,41,Motors_Started,
2000,2023-10-01 20:35:54,40.0688895976014,-88.2095713123217,0,,,706.5195025955,0.656168,0,0.079160435604,0.17809055688,25,10,0,706.5195025955,0,0,0.079160435604,0,0,0,359.2, -0.5, -0.2,0,0,1024,1024,1024,1024,0,0,0,0,0,0,0,86,,,,,,,0,102.02,706.5195025955,0,10,Assisted_Takeoff,
2100,2023-10-01 20:35:54,40.0688895880134,-88.2095712889947,0,,,706.5195025955,0.656168,0,0.08055938578,0.185483601736,25,10,0,706.5195025955,0,0,0.08055938578,0,0,0,359.2, -0.6, -0.2,0,0,1024,1024,1024,1024,0,0,0,0,0,0,0,86,,,,,,,0,102.02,706.5195025955,0,10,Assisted_Takeoff,
2200,2023-10-01 20:35:54,40.0688895746736,-88.2095712676805,0,,,706.5195025955,0.656168,0,0.08125328344,0.193171594108,25,10,0,706.5195025955,0,0,0.08125328344,0,0,0,359.2, -0.6, -0.2,0,0,1024,1024,1024,1024,0,0,0,0,0,0,0,86,,,,,,,0,102.02,706.5195025955,0,10,Assisted_Takeoff,
2300,2023-10-01 20:35:54,40.0688895670975,-88.2095713339826,0,,,706.5195025955,0.656168,0,0.066641078248,0.211888786308,26,10,0,706.5195025955,0,0,0.08125328344,0,0,0,359.2, -0.6, -0.2,0,0,1024,1024,1024,1024,0,0,0,0,0,0,0,86,,,,,,,0,102.02,706.5195025955,0,10,Assisted_Takeoff,
2400,2023-10-01 20:35:54,40.0688895451457,-88.2095713031414,0,,,706.5195025955,0.656168,0,0.066678479824,0.223648957288,26,10,0,706.5195025955,0,0,0.08125328344,0,0,0,359.2, -0.6, -0.2,0,0,1024,1024,1024,1024,0,0,0,0,0,0,0,86,,,,,,,0,102.02,706.5195025955,0,10,Assisted_Takeoff,
2500,2023-10-01 20:35:55,40.0688895081303,-88.2095712957227,0,,,706.5195025955,0.656168,0,0.0603100413,0.237312015468,26,10,0,706.5195025955,0,0,0.08125328344,0,0,0,359.2, -0.6, -0.2,0,0,1024,1024,1024,1024,0,0,0,0,0,0,0,86,,,,,,,0,102.02,706.5195025955,0,10,Assisted_Takeoff,
2600,2023-10-01 20:35:55,40.0688894653688,-88.209571350756,0,,,706.5195025955,0.656168,0,0.039498360844,0.259209653964,26,10,24.0365,706.5195025955,0,0,0.08125328344,0,0,0,359.2, -0.6, -0.2,0,0,1024,1024,1024,1024,0,0,0,0,0,0,0,85,,,,,,,0.721,102.02,706.5195025955,0,10,Assisted_Takeoff,
2700,2023-10-01 20:35:55,40.0688894458817,-88.2095713349803,0,,,706.5195025955,0.656168,0,0.04161909582,0.267573499376,26,10,24.0365,706.5195025955,0,0,0.08125328344,0,0,0,359.2, -0.6, -0.2,0,0,1024,1024,1024,1024,0,0,0,0,0,0,0,85,,,,,,,0.721,102.02,706.5195025955,0,10,Assisted_Takeoff,
2800,2023-10-01 20:35:55,40.0688894278199,-88.2095713203241,0,,,706.5195025955,0.656168,0,0.044915027684,0.275330389388,26,10,24.0365,706.5195025955,0,0,0.08125328344,0,0,0,359.3, -0.6, -0.2,0,0,1024,1024,1024,1024,0,0,0,0,0,0,0,85,,,,,,,0.721,102.02,706.5195025955,0,10,Assisted_Takeoff,
2900,2023-10-01 20:35:55,40.0688894136584,-88.2095713050454,0,,,706.5195025955,0.656168,0,0.04927493596,0.28203084892,26,10,24.0365,706.5195025955,0,0,0.08125328344,0,0,0,359.3, -0.6, -0.2,0,0,1024,1024,1024,1024,0,0,0,0,0,0,0,85,,,,,,,0.721,102.02,706.5195025955,0,10,Assisted_Takeoff,
3000,2023-10-01 20:35:55,40.0688894311035,-88.2095713717502,0,,,706.5195025955,0.656168,0,0.0306596466504,0.301712936164,26,10,24.0365,706.5195025955,0,0,0.08125328344,0,0,0,359.3, -0.6, -0.2,0,0,1024,1024,1024,1024,0,0,0,0,0,0,0,85,,,,,,,0.721,102.02,706.5195025955,0,10,Assisted_Takeoff,
3100,2023-10-01 20:35:55,40.0688894188149,-88.2095713736338,0,,,706.5195025955,0.656168,0,0.03004347209,0.30622704392,26,10,24.0365,706.5195025955,0,0,0.08125328344,0,0,0,359.3, -0.6, -0.2,0,0,1024,1024,1024,1024,0,0,0,0,0,0,0,85,,,,,,,0.721,102.02,706.5195025955,0,10,Assisted_Takeoff,
3200,2023-10-01 20:35:55,40.0688894085416,-88.2095713715673,0,,,706.5195025955,0.656168,0,0.0310444235656,0.310019366876,26,10,24.0365,706.5195025955,0,0,0.08125328344,0,0,0,359.3, -0.6, -0.2,0,0,1024,1024,1024,1024,0,0,0,0,0,0,0,85,,,,,,,0.721,102.02,706.5195025955,0,10,Assisted_Takeoff,
3300,2023-10-01 20:35:55,40.0688894530697,-88.2095714425647,0,,,706.5195025955,0.656168,0,0.015295932248,0.33564961704,26,10,24.0365,706.5195025955,0,0,0.08125328344,0,0,0,359.3, -0.6, -0.2,0,0,1024,1024,1024,1024,0,0,0,0,0,0,0,85,,,,,,,0.721,102.02,706.5195025955,0,10,Assisted_Takeoff,
3400,2023-10-01 20:35:55,40.0688894507645,-88.2095714347492,0,,,706.5195025955,0.656168,0,0.0163728351696,0.33798885596,26,10,24.0365,706.5195025955,0,0,0.08125328344,0,0,0,359.3, -0.6, -0.2,0,0,1024,1024,1079,1024,0,0,8,0,0,0,0,85,,,,,,,0.721,102.02,706.5195025955,0,10,Assisted_Takeoff,
3500,2023-10-01 20:35:56,40.0688894447152,-88.2095714203351,0,,,706.5195025955,0.656168,0,0.0186803483668,0.34257875112,26,10,24.0365,706.5195025955,0,0,0.08125328344,0,0,0,359.3, -0.6, -0.2,0,0,1024,1024,1324,1024,0,0,45,0,0,0,0,85,,,,,,,0.721,102.02,706.5195025955,0,10,Assisted_Takeoff,
3600,2023-10-01 20:35:56,40.0688894369622,-88.2095714105927,0,,,706.5195025955,0.656168,0,0.02030593897,0.34650263576,26,10,24.0365,706.5195025955,0,0,0.08125328344,0,0,0,359.3, -0.6, -0.2,0,0,1024,1024,1406,1024,0,0,58,0,0,0,0,85,,,,,,,0.915,102.02,706.5195025955,0,10,Assisted_Takeoff,
3700,2023-10-01 20:35:56,40.0688894573432,-88.2095714659666,0,,,706.5195025955,0.656168,0,0.01313320252,0.36365814812,26,10,24.0365,706.5195025955,0,0,0.08125328344,0,0,0,359.3, -0.6, -0.2,0,0,1024,1024,1406,1024,0,0,58,0,0,0,0,85,,,,,,,0.915,102.02,706.5195025955,0,10,Assisted_Takeoff,
3800,2023-10-01 20:35:56,40.0688894434818,-88.2095714649445,0,,,706.5195025955,0.656168,0,0.008645997652,0.36872376508,26,10,24.0365,706.5195025955,0,0,0.08125328344,0,0,0,359.3, -0.6, -0.2,0,0,1024,1024,1501,1024,0,0,72,0,0,0,0,85,,,,,,,0.915,102.02,706.5195025955,0,10,Assisted_Takeoff,
3900,2023-10-01 20:35:56,40.0688894333467,-88.2095714536971,0,,,706.5195025955,0.656168,0,0.008485728618,0.37357612744,26,10,24.0365,706.5195025955,0,0,0.08125328344,0,0,0,359.3, -0.5, -0.2,0,0,1024,1024,1551,1024,0,0,80,0,0,0,0,85,,,,,,,0.915,102.02,706.5195025955,0,10,Assisted_Takeoff,
4000,2023-10-01 20:35:56,40.0688894409634,-88.20957146219,0,,,706.5195025955,0.656168,0,0.0083400921304,0.37722770236,26,10,24.0365,706.5195025955,0,0,0.08125328344,0,0,0,359.2, -0.5, -0.2,0,0,1024,1024,1655,1024,0,0,96,0,0,0,0,85,,,,,,,0.915,102.02,706.5195025955,0,10,Assisted_Takeoff,
4100,2023-10-01 20:35:56,40.0688894211931,-88.2095714395566,0,,,706.5195025955,0.656168,0,0.0116179137576,0.38681759768,26,10,24.0365,706.5195025955,0,0,0.08125328344,0,0,0,359.1, -0.1, -0.1,0,0,1024,1024,1623,1024,0,0,91,0,0,0,0,85,,,,,,,0.915,102.02,706.5195025955,0,10,Assisted_Takeoff,
4200,2023-10-01 20:35:56,40.0688893779827,-88.2095714198156,0,,,706.5195025955,0.656168,0,0.0237787409184,0.40352035412,26,10,24.0365,706.5195025955,0,0,0.08125328344,0,0,-0.223694,358.7, 1.1, 0.6,0,0,1024,1024,1647,1024,0,0,94,0,0,0,0,85,,,,,,,0.915,102.02,706.5195025955,0,10,Assisted_Takeoff,
4300,2023-10-01 20:35:56,40.0688893013924,-88.2095713890748,0,,,706.5195025955,0.656168,0.223694,0.051349083008,0.43275263852,26,10,24.0365,706.5195025955,0,0.223694,0.08125328344,-0.223694,0,-0.671082,358.4, 1.9, 1.4,0,0,1024,1024,1647,1024,0,0,94,0,0,0,0,85,,,,,,,0.915,102.02,706.5195025955,0,6,P-GPS,
4400,2023-10-01 20:35:56,40.0688892301177,-88.2095713609262,0,,,706.5195025955,0.984252,0.223694,0.07804462192,0.45991799372,26,10,24.0365,706.5195025955,0,0.223694,0.08125328344,-0.223694,0,-1.342164,358.3, 1.6, 0.7,0,0,1024,1024,1657,1024,0,0,96,0,0,0,0,85,,,,,,,0.915,102.02,706.5195025955,0,6,P-GPS,
4500,2023-10-01 20:35:56,40.0688891021486,-88.2095712607899,0.328084,,,706.8475865955,1.312336,0.3131716,0.132319886124,0.5143372868,26,10,24.0365,706.8475865955,0.328084,0.3131716,0.132319886124,-0.223694,0.223694,-2.013246,358.3, 1, -0.2,0,0,1024,1024,1684,1024,0,0,100,0,0,0,0,85,,,,,,,0.915,102.02,706.8475865955,0.328084,6,P-GPS,
4600,2023-10-01 20:35:57,40.0688889566278,-88.2095711608498,0.656168,,,707.1756705955,1.64042,0.223694,0.192299218752,0.57431760368,26,10,23.802,707.1756705955,0.656168,0.3131716,0.192299218752,-0.223694,0,-2.684328,358.4, -0.1, -1.4,0,0,1024,1024,1684,1024,0,0,100,0,0,0,0,85,,,,,,,8.033,102.2,707.1756705955,0.656168,6,P-GPS,
4700,2023-10-01 20:35:57,40.0688888468667,-88.2095711490381,1.312336,,,707.8318385955,1.968504,0.223694,0.229823826252,0.614501332,26,10,23.802,707.8318385955,1.312336,0.3131716,0.229823826252,-0.223694,0,-3.579104,358.5, -1.7, -2.4,0,0,1024,1024,1684,1024,0,0,100,0,0,0,0,85,,,,,,,8.033,102.2,707.8318385955,1.312336,6,P-GPS,
4800,2023-10-01 20:35:57,40.0688887406322,-88.2095711317092,1.64042,,,708.1599225955,2.624672,0.223694,0.267476386512,0.6535597322,26,10,23.802,708.1599225955,1.64042,0.3131716,0.267476386512,-0.223694,0,-4.250186,358.5, -2.2, -2.2,0,0,1024,1024,1684,1024,0,0,100,0,0,0,0,85,,,,,,,8.033,102.2,708.1599225955,1.64042,6,P-GPS,
4900,2023-10-01 20:35:57,40.068888700073,-88.2095711563221,2.624672,,,709.1441745955,3.28084,0,0.278998696592,0.66987534952,26,10,23.802,709.1441745955,2.624672,0.3131716,0.278998696592,0,0,-5.144962,358.6, -1.7, -0.9,0,0,1024,1024,1684,1024,0,0,100,0,0,0,0,85,,,,,,,8.033,102.2,709.1441745955,2.624672,6,P-GPS,
5000,2023-10-01 20:35:57,40.0688887166355,-88.2095712234403,3.28084,,,709.8003425955,4.265092,0,0.26765748888,0.6895669512,26,10,23.802,709.8003425955,3.28084,0.3131716,0.278998696592,0,0,-6.039738,358.6, -0.8, 0.2,0,0,1024,1024,992,1024,0,0,-5,0,0,0,0,85,,,,,,,8.033,102.2,709.8003425955,3.28084,6,P-GPS,
5100,2023-10-01 20:35:57,40.0688888464431,-88.2095713734814,4.265092,,,710.7845945955,4.92126,0,0.212583012052,0.75279529968,26,10,23.802,710.7845945955,4.265092,0.3131716,0.278998696592,0,0,-6.934514,358.5, 0.7, 0.7,0,0,1024,1024,992,1024,0,0,-5,0,0,0,0,85,,,,,,,8.033,102.2,710.7845945955,4.265092,6,P-GPS,
5200,2023-10-01 20:35:57,40.068888934596,-88.2095714584856,5.249344,,,711.7688465955,5.905512,0,0.178398627756,0.79276905424,26,10,23.802,711.7688465955,5.249344,0.3131716,0.278998696592,0,0,-7.605596,358.4, 1.9, 0.7,0,0,1024,1024,1024,1024,0,0,0,0,0,0,0,85,,,,,,,8.033,102.2,711.7688465955,5.249344,6,P-GPS,
5300,2023-10-01 20:35:57,40.0688890140742,-88.2095715383827,6.56168,,,713.0811825955,6.889764,0,0.15014436176,0.82935370108,26,10,23.802,713.0811825955,6.56168,0.3131716,0.278998696592,0,0,-7.605596,358.3, 2.5, 0.5,0,0,1024,1024,1024,1024,0,0,0,0,0,0,0,85,,,,,,,8.033,102.2,713.0811825955,6.56168,6,P-GPS,
5400,2023-10-01 20:35:57,40.0688891047422,-88.2095716947094,7.545932,,,714.0654345955,7.874016,0,0.13062336376,0.8841207632,26,10,23.802,714.0654345955,7.545932,0.3131716,0.278998696592,0,0,-7.381902,358.4, 1.9, 0.4,0,0,1024,1024,1024,1024,0,0,0,0,0,0,0,85,,,,,,,8.033,102.2,714.0654345955,7.545932,6,P-GPS,
5500,2023-10-01 20:35:57,40.0688891259652,-88.2095717765813,8.530184,,,715.0496865955,8.530184,0,0.136280188088,0.90825462224,26,10,23.802,715.0496865955,8.530184,0.3131716,0.278998696592,0,0,-7.158208,358.5, 0.6, 0.6,0,0,1024,1024,1024,1024,0,0,0,0,0,0,0,85,,,,,,,8.033,102.2,715.0496865955,8.530184,6,P-GPS,
5600,2023-10-01 20:35:58,40.0688891541418,-88.2095718534762,9.84252,,,716.3620225955,9.186352,0,0.143008862844,0.93206039728,26,10,23.8685,716.3620225955,9.84252,0.3131716,0.278998696592,0,0,-6.487126,358.5, -0.4, 0.7,0,0,1024,1024,1024,1024,0,0,0,0,0,0,0,85,,,,,,,8.362,102.2,716.3620225955,9.84252,6,P-GPS,
5700,2023-10-01 20:35:58,40.0688892172187,-88.2095719310782,10.498688,,,717.0181905955,9.514436,0,0.146414374764,0.96366800984,26,10,23.8685,717.0181905955,10.498688,0.3131716,0.278998696592,0,0,-6.039738,358.6, -0.1, 0.8,0,0,1024,1024,1024,1024,0,0,0,0,0,0,0,85,,,,,,,8.362,102.2,717.0181905955,10.498688,6,P-GPS,
5800,2023-10-01 20:35:58,40.0688892972304,-88.2095720646765,11.48294,,,718.0024425955,9.84252,0.223694,0.169308404368,1.01103349692,26,10,23.8685,718.0024425955,11.48294,0.3131716,0.278998696592,0.223694,0,-5.368656,358.9, 0.9, 0.2,0,0,1024,1024,872,1024,0,0,-23,0,0,0,0,85,,,,,,,8.362,102.2,718.0024425955,11.48294,6,P-GPS,
5900,2023-10-01 20:35:58,40.0688894077374,-88.2095721455632,12.139108,,,718.6586105955,9.84252,0.223694,0.185616147672,1.05724740916,26,10,23.8685,718.6586105955,12.139108,0.3131716,0.278998696592,0.223694,0,-4.697574,359.2, 2.1, 0.3,0,0,1024,1024,803,1024,0,0,-33,0,0,0,0,85,,,,,,,8.362,102.2,718.6586105955,12.139108,6,P-GPS,
6000,2023-10-01 20:35:58,40.0688894933323,-88.2095722467684,12.795276,,,719.3147785955,9.84252,0,0.215310374344,1.09936355224,26,10,23.8685,719.3147785955,12.795276,0.3131716,0.278998696592,0,0,-3.802798,359.2, 2.5, 0.6,0,0,1024,1024,803,1024,0,0,-33,0,0,0,0,85,,,,,,,8.362,102.2,719.3147785955,12.795276,6,P-GPS,
6100,2023-10-01 20:35:58,40.0688895821372,-88.2095724961602,13.451444,,,719.9709465955,9.84252,0,0.289286754664,1.1761647358,26,10,23.8685,719.9709465955,13.451444,0.3131716,0.289286754664,0,0,-2.908022,359.1, 2.4, 1.2,0,0,1024,1024,629,1024,0,0,-60,0,0,0,0,85,,,,,,,8.362,102.2,719.9709465955,13.451444,6,P-GPS,
6200,2023-10-01 20:35:58,40.0688896128008,-88.2095726458323,13.779528,,,720.2990305955,9.514436,0.223694,0.3324803256,1.21942589204,26,10,23.8685,720.2990305955,13.779528,0.3131716,0.3324803256,0,-0.223694,-2.013246,359, 1.5, 1.9,0,0,1024,1024,1128,1024,0,0,16,0,0,0,0,85,,,,,,,8.362,102.2,720.2990305955,13.779528,6,P-GPS,
6300,2023-10-01 20:35:58,40.0688896291759,-88.209572790084,14.107612,,,720.6271145955,9.186352,0.223694,0.37312665236,1.26014439728,26,10,23.8685,720.6271145955,14.107612,0.3131716,0.37312665236,0,-0.223694,-1.11847,358.7, 0.6, 2.9,0,0,1024,1024,1024,1024,0,0,0,0,0,0,0,85,,,,,,,8.362,102.2,720.6271145955,14.107612,6,P-GPS,
6400,2023-10-01 20:35:58,40.0688896296645,-88.2095729377728,14.107612,,,720.6271145955,8.858268,0.223694,0.41363518384,1.3013779944,26,10,23.8685,720.6271145955,14.107612,0.3131716,0.41363518384,0,-0.223694,-0.447388,358.6, 0.3, 3.7,0,0,1024,1024,1024,1024,0,0,0,0,0,0,0,85,,,,,,,8.362,102.2,720.6271145955,14.107612,6,P-GPS,
6500,2023-10-01 20:35:59,40.0688896660749,-88.2095732080657,14.107612,,,720.6271145955,8.530184,0,0.49025920204,1.37800857428,26,10,23.8685,720.6271145955,14.107612,0.3131716,0.49025920204,0,0,-0.223694,358.4, 0.2, 3.5,0,0,1024,1024,1024,1024,0,0,0,0,0,0,0,85,,,,,,,8.362,102.2,720.6271145955,14.107612,6,P-GPS,
6600,2023-10-01 20:35:59,40.0688896532762,-88.2095733367667,14.435696,,,720.9551985955,8.2021,0,0.52487534488,1.41424545208,26,10,23.7325,720.9551985955,14.435696,0.3131716,0.52487534488,0,0,0,358.3, 0.1, 2.9,0,0,1024,1024,1024,1024,0,0,0,0,0,0,0,85,,,,,,,5.72,102.2,720.9551985955,14.435696,6,P-GPS,
6700,2023-10-01 20:35:59,40.0688896638846,-88.2095734164292,14.435696,,,720.9551985955,8.2021,0,0.54745080492,1.43682091212,26,10,23.7325,720.9551985955,14.435696,0.3131716,0.54745080492,0,0,0,358.3, -0.1, 2.8,0,0,1024,1024,1024,1024,0,0,0,0,0,0,0,85,,,,,,,5.72,102.2,720.9551985955,14.435696,6,P-GPS,
6800,2023-10-01 20:35:59,40.0688897181312,-88.2095735313213,14.107612,,,720.6271145955,7.874016,0,0.58246721024,1.47451448288,26,10,23.7325,720.9551985955,14.435696,0.3131716,0.58246721024,0,0,0,358.2, 0.1, 2.6,0,0,1024,1024,1024,1024,0,0,0,0,0,0,0,85,,,,,,,5.72,102.2,720.6271145955,14.107612,6,P-GPS,
6900,2023-10-01 20:35:59,40.0688897514892,-88.209573597836,14.107612,,,720.6271145955,8.2021,0,0.60302823452,1.496719208,26,10,23.7325,720.9551985955,14.435696,0.3131716,0.60302823452,0,0,0.223694,358.2, 0.3, 2.7,0,0,1024,1024,1024,1024,0,0,0,0,0,0,0,85,,,,,,,5.72,102.2,720.6271145955,14.107612,6,P-GPS,
7000,2023-10-01 20:35:59,40.0688897811833,-88.2095736368155,14.107612,,,720.6271145955,8.2021,0,0.61590225068,1.5120735392,26,10,23.7325,720.9551985955,14.435696,0.3131716,0.61590225068,0,0,0,358.3, 0.4, 2.8,0,0,1024,1024,1024,1024,0,0,0,0,0,0,0,85,,,,,,,5.72,102.2,720.6271145955,14.107612,6,P-GPS,
7100,2023-10-01 20:35:59,40.0688898064126,-88.2095736394266,14.107612,,,720.6271145955,8.2021,0,0.61863190956,1.5213091038,26,10,23.7325,720.9551985955,14.435696,0.3131716,0.61863190956,0,0,0,358.4, 0.1, 2.4,0,0,1024,1024,1024,1024,0,0,0,0,0,0,0,85,,,,,,,5.72,102.2,720.6271145955,14.107612,6,P-GPS,
7200,2023-10-01 20:35:59,40.0688899233305,-88.2095736860754,14.107612,,,720.6271145955,8.530184,0,0.64211944312,1.56590884276,26,10,23.7325,720.9551985955,14.435696,0.3131716,0.64211944312,0,0,0,358.5, 0.2, 1.8,0,0,1024,1024,1024,1024,0,0,0,0,0,0,0,85,,,,,,,5.72,102.2,720.6271145955,14.107612,6,P-GPS,
7300,2023-10-01 20:35:59,40.0688899515218,-88.2095737064471,14.107612,,,720.6271145955,8.530184,0,0.65054792108,1.57766409248,26,10,23.7325,720.9551985955,14.435696,0.3131716,0.65054792108,0,0,0,358.5, 0.8, 1.9,0,0,1024,1015,1024,1024,0,-1,0,0,0,0,0,85,,,,,,,5.72,102.2,720.6271145955,14.107612,6,P-GPS,
7400,2023-10-01 20:35:59,40.0688899726409,-88.2095737271171,14.107612,,,720.6271145955,8.530184,0,0.65836944364,1.58729007704,26,10,23.7325,720.9551985955,14.435696,0.3131716,0.65836944364,0,0,0,358.4, 1.1, 2.4,0,0,1024,1015,1024,1024,0,-1,0,0,0,0,0,85,,,,,,,5.72,102.2,720.6271145955,14.107612,6,P-GPS,
7500,2023-10-01 20:36:00,40.0688900270741,-88.2095737810131,14.107612,,,720.6271145955,8.530184,0,0.67890094036,1.61220805684,26,10,23.7325,720.9551985955,14.435696,0.3131716,0.67890094036,0,0,0,358.4, 1.4, 2.5,0,0,1024,364,1024,1024,0,-100,0,0,0,0,0,85,,,,,,,5.72,102.2,720.6271145955,14.107612,6,P-GPS,
7600,2023-10-01 20:36:00,40.0688900206585,-88.2095737572101,14.107612,,,720.6271145955,8.530184,0,0.67185369604,1.61925530116,26,10,23.7325,720.9551985955,14.435696,0.3131716,0.67890094036,0,0,0,358.4, 1.2, 0.7,0,0,1024,610,1024,1024,0,-63,0,0,0,0,0,86,,,,,,,5.72,102.2,720.6271145955,14.107612,6,P-GPS,
7700,2023-10-01 20:36:00,40.0688899928637,-88.2095737358816,14.107612,,,720.6271145955,8.858268,0,0.662975743,1.63101383172,26,10,23.7325,720.9551985955,14.435696,0.3131716,0.67890094036,0,0,0,358.3, 0.9, -6,0,0,1024,1024,1024,1024,0,0,0,0,0,0,0,86,,,,,,,5.72,102.2,720.6271145955,14.107612,6,P-GPS,
7800,2023-10-01 20:36:00,40.06888994493,-88.2095738502871,14.107612,,,720.6271145955,8.858268,0.223694,0.68833991704,1.66743115572,26,10,23.7325,720.9551985955,14.435696,0.3131716,0.68833991704,0,-0.223694,0,358.4, 0.2, -14.9,0,0,1024,1024,1024,1024,0,0,0,0,0,0,0,86,,,,,,,5.72,102.2,720.6271145955,14.107612,6,P-GPS,
7900,2023-10-01 20:36:00,40.0688899157272,-88.2095743723686,14.107612,,,720.6271145955,8.858268,0.894776,0.82702758552,1.81358929688,26,10,23.7325,720.9551985955,14.435696,0.894776,0.82702758552,0,-0.894776,0,358.5, -0.5, -11.2,0,0,1024,1024,1024,1024,0,0,0,0,0,0,0,86,,,,,,,5.72,102.2,720.6271145955,14.107612,6,P-GPS,
8000,2023-10-01 20:36:00,40.0688898628649,-88.2095750845893,14.107612,,,720.6271145955,8.858268,1.342164,1.01883533444,2.01338261036,26,10,23.7325,720.9551985955,14.435696,1.342164,1.01883533444,0,-1.342164,0,358.4, -1, -0.9,0,0,1024,1024,1024,1024,0,0,0,0,0,0,0,86,,,,,,,5.72,102.2,720.6271145955,14.107612,6,P-GPS,
8100,2023-10-01 20:36:00,40.0688898450317,-88.2095758954434,14.107612,,,720.6271145955,8.858268,1.342164,1.24209649644,2.23987211892,26,10,23.7325,720.9551985955,14.435696,1.342164,1.24209649644,0,-1.342164,0,358.3, -1, 6.7,0,0,1024,1024,1024,1024,0,0,0,0,0,0,0,86,,,,,,,5.72,102.2,720.6271145955,14.107612,6,P-GPS,
8200,2023-10-01 20:36:00,40.0688898819204,-88.2095765109847,14.107612,,,720.6271145955,8.858268,0.894776,1.41432747308,2.41226385672,26,10,23.7325,720.9551985955,14.435696,1.342164,1.41432747308,0,-0.894776,0,358.4, -0.2, 7.9,0,0,1024,1024,1024,1024,0,0,0,0,0,0,0,86,,,,,,,5.72,102.2,720.6271145955,14.107612,6,P-GPS,
8300,2023-10-01 20:36:00,40.0688898929685,-88.2095770356786,14.107612,,,720.6271145955,8.858268,0.671082,1.56033141476,2.55881569868,26,10,23.7325,720.9551985955,14.435696,1.342164,1.56033141476,0,-0.671082,0,358.3, 0.1, 6.5,0,0,1024,1024,1024,1024,0,0,0,0,0,0,0,86,,,,,,,5.72,102.2,720.6271145955,14.107612,6,P-GPS,
8400,2023-10-01 20:36:00,40.0688899296789,-88.2095774210021,14.107612,,,720.6271145955,8.530184,0.671082,1.66874021088,2.66723433732,26,10,23.7325,720.9551985955,14.435696,1.342164,1.66874021088,0,-0.671082,0,358.1, 0.1, 4.5,0,0,1024,1024,1024,1024,0,0,0,0,0,0,0,86,,,,,,,5.72,102.2,720.6271145955,14.107612,6,P-GPS,
8500,2023-10-01 20:36:01,40.0688900357943,-88.2095776977118,14.107612,,,720.6271145955,8.858268,0.447388,1.7500656728,2.75365166292,26,10,23.7325,720.9551985955,14.435696,1.342164,1.7500656728,0,-0.447388,0,358, 0.3, 3.5,0,0,1024,1024,1024,1024,0,0,0,0,0,0,0,86,,,,,,,5.72,102.2,720.6271145955,14.107612,6,P-GPS,
8600,2023-10-01 20:36:01,40.068890213821,-88.2095780777067,14.107612,,,720.6271145955,8.858268,0.447388,1.86428483656,2.8780512732,26,10,23.825,720.9551985955,14.435696,1.342164,1.86428483656,0,-0.447388,0,358, 0.7, 4,0,0,1024,1024,1024,1024,0,0,0,0,0,0,0,85,,,,,,,8.288,102.2,720.6271145955,14.107612,6,P-GPS,
8700,2023-10-01 20:36:01,40.0688903342011,-88.2095782447888,14.107612,,,720.6271145955,8.858268,0.223694,1.91750990388,2.9421260784,26,10,23.825,720.9551985955,14.435696,1.342164,1.91750990388,0,-0.223694,0,358.2, 1.2, 3.9,0,0,1024,1024,1024,1024,0,0,0,0,0,0,0,85,,,,,,,8.288,102.2,720.6271145955,14.107612,6,P-GPS,
8800,2023-10-01 20:36:01,40.0688904498461,-88.2095783370916,14.107612,,,720.6271145955,8.530184,0,1.9505578052,2.99156505636,26,10,23.825,720.9551985955,14.435696,1.342164,1.9505578052,0,0,0,358.2, 1.5, 2.6,0,0,1024,1024,1024,1024,0,0,0,0,0,0,0,85,,,,,,,8.288,102.2,720.6271145955,14.107612,6,P-GPS,
8900,2023-10-01 20:36:01,40.0688906533422,-88.2095784426535,14.107612,,,720.6271145955,8.530184,0,1.99487211108,3.07144694868,26,10,23.825,720.9551985955,14.435696,1.342164,1.99487211108,0,0,0,358.2, 1.7, 1.5,0,0,1024,1024,1024,1024,0,0,0,0,0,0,0,85,,,,,,,8.288,102.2,720.6271145955,14.107612,6,P-GPS,
9000,2023-10-01 20:36:01,40.0688907553553,-88.2095785042878,14.107612,,,720.6271145955,8.858268,0,2.02027237436,3.11245416784,26,10,23.825,720.9551985955,14.435696,1.342164,2.02027237436,0,0,0,358.3, 2.1, 0.9,0,0,1024,1024,1024,1024,0,0,0,0,0,0,0,85,,,,,,,8.288,102.2,720.6271145955,14.107612,6,P-GPS,
9100,2023-10-01 20:36:01,40.0688908377972,-88.2095785620782,14.107612,,,720.6271145955,8.530184,0,2.04332683704,3.1465880272,26,10,23.825,720.9551985955,14.435696,1.342164,2.04332683704,0,0,0,358.4, 2.2, 0.7,0,0,1024,1024,1024,1024,0,0,0,0,0,0,0,85,,,,,,,8.288,102.2,720.6271145955,14.107612,6,P-GPS,
9200,2023-10-01 20:36:01,40.0688908876173,-88.209578605896,14.107612,,,720.6271145955,8.530184,0,2.05980649636,3.16849747672,26,10,23.825,720.9551985955,14.435696,1.342164,2.05980649636,0,0,0,358.5, 1.6, 1.1,0,0,1024,1024,1024,1024,0,0,0,0,0,0,0,85,,,,,,,8.288,102.2,720.6271145955,14.107612,6,P-GPS,
9300,2023-10-01 20:36:01,40.0688909842283,-88.2095787420983,14.107612,,,720.6271145955,8.530184,0,2.10581371568,3.22034787208,26,10,23.825,720.9551985955,14.435696,1.342164,2.10581371568,0,0,0,358.6, 0.8, 1.4,0,0,1024,1024,1024,1024,0,0,0,0,0,0,0,85,,,,,,,8.288,102.2,720.6271145955,14.107612,6,P-GPS,
9400,2023-10-01 20:36:01,40.0688910047018,-88.2095787472813,14.107612,,,720.6271145955,8.530184,0,2.10923891264,3.22795942088,26,10,23.825,720.9551985955,14.435696,1.342164,2.10923891264,0,0,0,358.6, 0.7, 1.6,0,0,1024,1024,1024,1024,0,0,0,0,0,0,0,85,,,,,,,8.288,102.2,720.6271145955,14.107612,6,P-GPS,
9500,2023-10-01 20:36:02,40.0688910162906,-88.209578709708,14.107612,,,720.6271145955,8.858268,0,2.10031830868,3.23926847636,26,10,23.825,720.9551985955,14.435696,1.342164,2.10923891264,0,0,0,358.7, 0.6, 1,0,0,1024,1024,1024,1024,0,0,0,0,0,0,0,85,,,,,,,8.288,102.2,720.6271145955,14.107612,6,P-GPS,
9600,2023-10-01 20:36:02,40.0688910489338,-88.2095786802254,14.107612,,,720.6271145955,8.858268,0,2.09574809856,3.25374682328,26,10,23.809,720.9551985955,14.435696,1.342164,2.10923891264,0,0,0,358.7, 0.2, 0.3,0,0,1024,1024,1024,1024,0,0,0,0,0,0,0,85,,,,,,,8.318,102.2,720.6271145955,14.107612,6,P-GPS,
9700,2023-10-01 20:36:02,40.0688910719823,-88.2095786121907,14.107612,,,720.6271145955,8.858268,0,2.07995085396,3.27452110216,26,10,23.809,720.9551985955,14.435696,1.342164,2.10923891264,0,0,0,358.8, 0.3, 0,0,0,1024,1024,1024,1024,0,0,0,0,0,0,0,85,,,,,,,8.318,102.2,720.6271145955,14.107612,6,P-GPS,
9800,2023-10-01 20:36:02,40.0688910948552,-88.2095785470462,14.107612,,,720.6271145955,8.858268,0,2.06499678524,3.2945211028,26,10,23.809,720.9551985955,14.435696,1.342164,2.10923891264,0,0,0,358.9, 0.6, 0.2,0,0,1024,1024,1024,1024,0,0,0,0,0,0,0,85,,,,,,,8.318,102.2,720.6271145955,14.107612,6,P-GPS,
9900,2023-10-01 20:36:02,40.0688911201632,-88.2095784687749,14.107612,,,720.6271145955,8.858268,0,2.0468996718,3.318241576,26,10,23.809,720.9551985955,14.435696,1.342164,2.10923891264,0,0,0,359.1, 0.7, 0.4,0,0,1024,1024,1024,1024,0,0,0,0,0,0,0,85,,,,,,,8.318,102.2,720.6271145955,14.107612,6,P-GPS,
10000,2023-10-01 20:36:02,40.0688912053265,-88.2095784210874,14.107612,,,720.6271145955,8.858268,0,2.04388457984,3.3520670364,26,10,23.809,720.9551985955,14.435696,1.342164,2.10923891264,0,0,0,359.2, 0.9, 0.6,0,0,1024,1024,1024,1024,0,0,0,0,0,0,0,85,,,,,,,8.318,102.2,720.6271145955,14.107612,6,P-GPS,
10100,2023-10-01 20:36:02,40.068891208886,-88.2095783431485,14.107612,,,720.6271145955,8.858268,0,2.02368444796,3.373851814,26,10,23.809,720.9551985955,14.435696,1.342164,2.10923891264,0,0,0,359.3, 0.9, 0.7,0,0,1024,1024,1024,963,0,0,0,-9,0,0,0,85,,,,,,,8.318,102.2,720.6271145955,14.107612,6,P-GPS,
10200,2023-10-01 20:36:02,40.0688911864151,-88.2095782593177,14.107612,,,720.6271145955,8.858268,0,1.9988845784,3.3986549644,26,10,23.809,720.9551985955,14.435696,1.342164,2.10923891264,0,0,0,359.5, 0.6, 0.4,0,0,1024,1024,1024,821,0,0,0,-31,0,0,0,85,,,,,,,8.318,102.2,720.6271145955,14.107612,6,P-GPS,
10300,2023-10-01 20:36:02,40.0688912160952,-88.2095782505581,14.107612,,,720.6271145955,8.858268,0,2.00008536584,3.409777012,26,10,23.809,720.9551985955,14.435696,1.342164,2.10923891264,0,0,0,359.6, 0.1, -0.3,0,0,1024,1024,1024,821,0,0,0,-31,0,0,0,85,,,,,,,8.318,102.2,720.6271145955,14.107612,6,P-GPS,
10400,2023-10-01 20:36:02,40.0688911866332,-88.2095782386787,14.107612,,,720.6271145955,8.858268,0,1.9934547882,3.4209974848,26,10,23.809,720.9551985955,14.435696,1.342164,2.10923891264,0,0,0,359, 0, -0.5,0,0,1024,1024,1024,828,0,0,0,-30,0,0,0,85,,,,,,,8.318,102.2,720.6271145955,14.107612,6,P-GPS,
10500,2023-10-01 20:36:02,40.068891130288,-88.2095782629958,14.107612,,,720.6271145955,8.858268,0,1.99336292468,3.4426510288,26,10,23.809,720.9551985955,14.435696,1.342164,2.10923891264,0,0,0,357.8, -0.3, 0,0,0,1024,1024,1024,812,0,0,0,-32,0,0,0,85,,,,,,,8.318,102.2,720.6271145955,14.107612,6,P-GPS,
10600,2023-10-01 20:36:03,40.068891068538,-88.2095783216125,14.107612,,,720.6271145955,8.858268,0.223694,2.00204730816,3.4705053604,26,10,23.8165,720.9551985955,14.435696,1.342164,2.10923891264,-0.223694,0,0,356.2, -0.4, 1,0,0,1024,1024,1024,785,0,0,0,-36,0,0,0,85,,,,,,,7.866,102.2,720.6271145955,14.107612,6,P-GPS,
10700,2023-10-01 20:36:03,40.0688910574365,-88.2095784658945,14.107612,,,720.6271145955,8.858268,0,2.03932749308,3.510990926,26,10,23.8165,720.9551985955,14.435696,1.342164,2.10923891264,0,0,0,354.4, -0.8, 2.2,0,0,1024,1024,1024,764,0,0,0,-39,0,0,0,85,,,,,,,7.866,102.2,720.6271145955,14.107612,6,P-GPS,
10800,2023-10-01 20:36:03,40.0688910043602,-88.2095785401848,14.107612,,,720.6271145955,8.858268,0,2.05364835968,3.539370192,26,10,23.8165,720.9551985955,14.435696,1.342164,2.10923891264,0,0,0,352.2, -0.7, 2.6,0,0,1024,1024,1024,767,0,0,0,-39,0,0,0,85,,,,,,,7.866,102.2,720.6271145955,14.107612,6,P-GPS,
10900,2023-10-01 20:36:03,40.0688909586748,-88.2095786050123,14.107612,,,720.6271145955,8.858268,0,2.06644363568,3.563976492,26,10,23.8165,720.9551985955,14.435696,1.342164,2.10923891264,0,0,0,349.7, -0.6, 2.5,0,0,1024,1024,1024,770,0,0,0,-38,0,0,0,85,,,,,,,7.866,102.2,720.6271145955,14.107612,6,P-GPS,
11000,2023-10-01 20:36:03,40.0688909527321,-88.2095786901934,14.107612,,,720.6271145955,9.186352,0,2.08876647104,3.5878610072,26,10,23.8165,720.9551985955,14.435696,1.342164,2.10923891264,0,0,0,347, -0.2, 2.4,0,0,1024,1024,1024,771,0,0,0,-38,0,0,0,85,,,,,,,7.866,102.2,720.6271145955,14.107612,6,P-GPS,
11100,2023-10-01 20:36:03,40.0688909418841,-88.2095787388324,14.107612,,,720.6271145955,8.858268,0,2.10081043468,3.6020014276,26,10,23.8165,720.9551985955,14.435696,1.342164,2.10923891264,0,0,0,344.3, -0.2, 2,0,0,1024,1024,1024,753,0,0,0,-41,0,0,0,85,,,,,,,7.866,102.2,720.6271145955,14.107612,6,P-GPS,
11200,2023-10-01 20:36:03,40.0688909502172,-88.2095787773698,14.107612,,,720.6271145955,8.858268,0,2.1119915374,3.613189092,26,10,23.8165,720.9551985955,14.435696,1.342164,2.1119915374,0,0,0,341.6, 0, 1.8,0,0,1024,1024,1024,749,0,0,0,-42,0,0,0,85,,,,,,,7.866,102.2,720.6271145955,14.107612,6,P-GPS,
11300,2023-10-01 20:36:03,40.0688909763162,-88.2095788196028,14.107612,,,720.6271145955,8.858268,0,2.1258858948,3.6283465728,26,10,23.8165,720.9551985955,14.435696,1.342164,2.1258858948,0,0,0,338.9, 0.6, 1.5,0,0,1024,1024,1024,740,0,0,0,-43,0,0,0,85,,,,,,,7.866,102.2,720.6271145955,14.107612,6,P-GPS,
11400,2023-10-01 20:36:03,40.0688910652428,-88.2095789414309,14.107612,,,720.6271145955,8.858268,0,2.16743117172,3.67536101,26,10,23.8165,720.9551985955,14.435696,1.342164,2.16743117172,0,0,0,336, 1.3, 1.3,0,0,1024,1024,1024,740,0,0,0,-43,0,0,0,85,,,,,,,7.866,102.2,720.6271145955,14.107612,6,P-GPS,
11500,2023-10-01 20:36:04,40.0688911172982,-88.2095789487499,14.107612,,,720.6271145955,8.858268,0,2.17471791736,3.6944554988,26,10,23.8165,720.9551985955,14.435696,1.342164,2.17471791736,0,0,0,333.1, 1.7, 0.8,0,0,1024,1024,1024,725,0,0,0,-45,0,0,0,85,,,,,,,7.866,102.2,720.6271145955,14.107612,6,P-GPS,
11600,2023-10-01 20:36:04,40.0688911675574,-88.2095789403842,14.107612,,,720.6271145955,8.858268,0,2.17776581772,3.712926628,26,10,23.8165,720.9551985955,14.435696,1.342164,2.17776581772,0,0,0,330, 1.7, 0.4,0,0,1024,1024,1024,725,0,0,0,-45,0,0,0,86,,,,,,,7.866,102.2,720.6271145955,14.107612,6,P-GPS,
11700,2023-10-01 20:36:04,40.0688912970757,-88.2095789689866,14.107612,,,720.6271145955,8.530184,0,2.19962933548,3.7608597004,26,10,23.7915,720.9551985955,14.435696,1.342164,2.19962933548,0,0,0,327, 1.7, 0.2,0,0,1024,1024,1024,710,0,0,0,-48,0,0,0,85,,,,,,,8.197,102.2,720.6271145955,14.107612,6,P-GPS,
11800,2023-10-01 20:36:04,40.0688913586568,-88.2095789481153,14.107612,,,720.6271145955,8.858268,0,2.201197577,3.7840880476,26,10,23.7915,720.9551985955,14.435696,1.342164,2.201197577,0,0,0,323.8, 1.8, 0,0,0,1024,1024,1024,700,0,0,0,-49,0,0,0,85,,,,,,,8.197,102.2,720.6271145955,14.107612,6,P-GPS,
11900,2023-10-01 20:36:04,40.0688914232473,-88.2095789318597,14.107612,,,720.6271145955,8.530184,0,2.20458668472,3.808070988,26,10,23.7915,720.9551985955,14.435696,1.342164,2.20458668472,0,0,0,320.6, 1.9, -0.2,0,0,1024,1024,1024,686,0,0,0,-51,0,0,0,85,,,,,,,8.197,102.2,720.6271145955,14.107612,6,P-GPS,
12000,2023-10-01 20:36:04,40.0688914851889,-88.2095789176295,14.107612,,,720.6271145955,8.530184,0,2.2084318292,3.831036868,26,10,23.7915,720.9551985955,14.435696,1.342164,2.2084318292,0,0,0,317.2, 2.2, -0.4,0,0,1024,1024,1024,682,0,0,0,-52,0,0,0,85,,,,,,,8.197,102.2,720.6271145955,14.107612,6,P-GPS,
12100,2023-10-01 20:36:04,40.0688916358061,-88.2095789599639,14.107612,,,720.6271145955,8.530184,0,2.23877303752,3.8872376572,26,10,23.7915,720.9551985955,14.435696,1.342164,2.23877303752,0,0,0,313.7, 2.2, -0.6,0,0,1024,1024,1024,685,0,0,0,-51,0,0,0,85,,,,,,,8.197,102.2,720.6271145955,14.107612,6,P-GPS,
12200,2023-10-01 20:36:04,40.0688916977804,-88.2095789462088,14.107612,,,720.6271145955,8.530184,0,2.2434547962,3.9101707288,26,10,23.7915,720.9551985955,14.435696,1.342164,2.2434547962,0,0,0,310, 2, -0.2,0,0,1024,1024,1024,679,0,0,0,-52,0,0,0,85,,,,,,,8.197,102.2,720.6271145955,14.107612,6,P-GPS,
12300,2023-10-01 20:36:04,40.0688917722003,-88.2095789310907,14.107612,,,720.6271145955,8.530184,0,2.2497376048,3.9376313596,26,10,23.7915,720.9551985955,14.435696,1.342164,2.2497376048,0,0,0,306.2, 2, -0.3,0,0,1024,1024,1024,676,0,0,0,-53,0,0,0,85,,,,,,,8.197,102.2,720.6271145955,14.107612,6,P-GPS,
12400,2023-10-01 20:36:04,40.0688918948449,-88.2095789565329,14.107612,,,720.6271145955,8.858268,0,2.27368117512,3.98293976,26,10,23.7915,720.9551985955,14.435696,1.342164,2.27368117512,0,0,0,302.6, 2.4, -0.6,0,0,1024,1024,1024,685,0,0,0,-51,0,0,0,85,,,,,,,8.197,102.2,720.6271145955,14.107612,6,P-GPS,
12500,2023-10-01 20:36:05,40.0688919836066,-88.2095789586668,14.107612,,,720.6271145955,8.858268,0,2.28726057188,4.0153544592,26,10,23.7915,720.9551985955,14.435696,1.342164,2.28726057188,0,0,0,298.9, 2.8, -1.1,0,0,1024,1024,1024,786,0,0,0,-36,0,0,0,85,,,,,,,8.197,102.2,720.6271145955,14.107612,6,P-GPS,
12600,2023-10-01 20:36:05,40.0688920715027,-88.2095789498995,14.107612,,,720.6271145955,8.858268,0,2.29832356436,4.0475066912,26,10,23.7915,720.9551985955,14.435696,1.342164,2.29832356436,0,0,0,295.4, 2.7, -1.7,0,0,1024,1024,1024,786,0,0,0,-36,0,0,0,86,,,,,,,8.197,102.2,720.6271145955,14.107612,6,P-GPS,
12700,2023-10-01 20:36:05,40.0688921722897,-88.2095789393214,14.107612,,,720.6271145955,8.858268,0,2.31136162252,4.0843833328,26,10,23.7855,720.9551985955,14.435696,1.342164,2.31136162252,0,0,0,292.7, 2.5, -2.4,0,0,1024,1024,1024,1024,0,0,0,0,0,0,0,85,,,,,,,8.167,102.2,720.6271145955,14.107612,6,P-GPS,
12800,2023-10-01 20:36:05,40.0688923212287,-88.2095790568012,14.107612,,,720.6271145955,8.530184,0,2.364747451,4.1478675868,26,10,23.7855,720.9551985955,14.435696,1.342164,2.364747451,0,0,0,290.7, 2.6, -2.6,0,0,1024,1024,1024,1024,0,0,0,0,0,0,0,85,,,,,,,8.167,102.2,720.6271145955,14.107612,6,P-GPS,
12900,2023-10-01 20:36:05,40.0688924174965,-88.2095790544126,14.107612,,,720.6271145955,8.858268,0,2.3800689738,4.1830053832,26,10,23.7855,720.9551985955,14.435696,1.342164,2.3800689738,0,0,0,290, 2.9, -2.8,0,0,1024,1024,1024,690,0,0,0,-51,0,0,0,85,,,,,,,8.167,102.2,720.6271145955,14.107612,6,P-GPS,
13000,2023-10-01 20:36:05,40.0688925000929,-88.2095790545119,14.107612,,,720.6271145955,8.530184,0,2.39407487976,4.2131234944,26,10,23.7855,720.9551985955,14.435696,1.342164,2.39407487976,0,0,0,289.7, 3.2, -2.8,0,0,1024,1024,1024,527,0,0,0,-75,0,0,0,85,,,,,,,8.167,102.2,720.6271145955,14.107612,6,P-GPS,
13100,2023-10-01 20:36:05,40.068892640962,-88.2095791388282,14.107612,,,720.6271145955,8.530184,0,2.43920939564,4.2696523676,26,10,23.7855,720.9551985955,14.435696,1.342164,2.43920939564,0,0,0,288.7, 3.3, -2.5,0,0,1024,1024,1024,364,0,0,0,-100,0,0,0,85,,,,,,,8.167,102.2,720.6271145955,14.107612,6,P-GPS,
13200,2023-10-01 20:36:05,40.068892694093,-88.20957914226,14.107612,,,720.6271145955,8.530184,0,2.44943577392,4.2890749404,26,10,23.7855,720.9551985955,14.435696,1.342164,2.44943577392,0,0,0,284.6, 2.9, -1.6,0,0,1024,1024,1024,892,0,0,0,-20,0,0,0,85,,,,,,,8.167,102.2,720.6271145955,14.107612,6,P-GPS,
13300,2023-10-01 20:36:05,40.0688927393424,-88.2095791650903,14.107612,,,720.6271145955,8.530184,0,2.46307094496,4.306758668,26,10,23.7855,720.9551985955,14.435696,1.342164,2.46307094496,0,0,0,277.7, 2.4, -0.9,0,0,1024,1024,1024,1024,0,0,0,0,0,0,0,85,,,,,,,8.167,102.2,720.6271145955,14.107612,6,P-GPS,
13400,2023-10-01 20:36:05,40.0688928092385,-88.2095791824171,14.107612,,,720.6271145955,8.530184,0,2.4798885308,4.3327101124,26,10,23.7855,720.9551985955,14.435696,1.342164,2.4798885308,0,0,0,273.1, 2.7, -2.9,0,0,1024,1024,1024,1024,0,0,0,0,0,0,0,85,,,,,,,8.167,102.2,720.6271145955,14.107612,6,P-GPS,
13500,2023-10-01 20:36:06,40.0688928939086,-88.209579309608,14.107612,,,720.6271145955,8.530184,0,2.52608931968,4.3797901664,26,10,23.7855,720.9551985955,14.435696,1.342164,2.52608931968,0,0,0,271.8, 2.7, -5.5,0,0,1024,1024,1024,1024,0,0,0,0,0,0,0,85,,,,,,,8.167,102.2,720.6271145955,14.107612,6,P-GPS,
13600,2023-10-01 20:36:06,40.0688929221915,-88.2095793151989,14.107612,,,720.6271145955,8.858268,0,2.53262475296,4.3902232376,26,10,23.7855,720.9551985955,14.435696,1.342164,2.53262475296,0,0,0,271.4, 2.6, -5.6,0,0,1024,1024,1024,1024,0,0,0,0,0,0,0,86,,,,,,,8.167,102.2,720.6271145955,14.107612,6,P-GPS,
13700,2023-10-01 20:36:06,40.0688928764581,-88.2095793135212,14.107612,,,720.6271145955,8.858268,0,2.52384850596,4.4069227132,26,10,23.783,720.9551985955,14.435696,1.342164,2.53262475296,0,0,0,271.1, 2.8, -3.8,0,0,1024,1024,1024,1024,0,0,0,0,0,0,0,85,,,,,,,8.017,102.2,720.6271145955,14.107612,6,P-GPS,
13800,2023-10-01 20:36:06,40.0688927809674,-88.2095793660516,14.107612,,,720.6271145955,8.858268,0,2.51944561868,4.44471799,26,10,23.783,720.9551985955,14.435696,1.342164,2.53262475296,0,0,0,270.9, 3, -2.3,0,0,1024,1024,1024,909,0,0,0,-17,0,0,0,85,,,,,,,8.017,102.2,720.6271145955,14.107612,6,P-GPS,
13900,2023-10-01 20:36:06,40.0688927589037,-88.2095793909585,14.107612,,,720.6271145955,8.858268,0,2.52163065812,4.4553479116,26,10,23.783,720.9551985955,14.435696,1.342164,2.53262475296,0,0,0,271, 2.9, -1.9,0,0,1024,1024,1024,596,0,0,0,-65,0,0,0,85,,,,,,,8.017,102.2,720.6271145955,14.107612,6,P-GPS,
14000,2023-10-01 20:36:06,40.0688927342765,-88.2095794008005,14.107612,,,720.6271145955,8.858268,0,2.51971464756,4.4647639224,26,10,23.783,720.9551985955,14.435696,1.342164,2.53262475296,0,0,0,270.6, 2.8, -2.2,0,0,1024,1024,1024,1121,0,0,0,15,0,0,0,85,,,,,,,8.017,102.2,720.6271145955,14.107612,6,P-GPS,
14100,2023-10-01 20:36:06,40.0688926577793,-88.2095793917071,14.107612,,,720.6271145955,8.530184,0,2.5042159594,4.492782296,26,10,23.783,720.9551985955,14.435696,1.342164,2.53262475296,0,0,0,268.1, 2.3, -1.9,0,0,1024,1024,1024,1028,0,0,0,1,0,0,0,85,,,,,,,8.017,102.2,720.6271145955,14.107612,6,P-GPS,
14200,2023-10-01 20:36:06,40.0688925597175,-88.2095795294641,14.107612,,,720.6271145955,8.858268,0,2.5217684534,4.5453085444,26,10,23.783,720.9551985955,14.435696,1.342164,2.53262475296,0,0,0,265.7, 2.1, -1.4,0,0,1024,1024,1024,1024,0,0,0,0,0,0,0,85,,,,,,,8.017,102.2,720.6271145955,14.107612,6,P-GPS,
14300,2023-10-01 20:36:06,40.0688924978155,-88.2095795451566,14.107612,,,720.6271145955,8.858268,0,2.51552173404,4.5683072328,26,10,23.783,720.9551985955,14.435696,1.342164,2.53262475296,0,0,0,265, 2.1, -2.2,0,0,1024,1024,1024,1024,0,0,0,0,0,0,0,85,,,,,,,8.017,102.2,720.6271145955,14.107612,6,P-GPS,
14400,2023-10-01 20:36:06,40.0688924372904,-88.20957955756,14.107612,,,720.6271145955,8.858268,0,2.50886490968,4.5906825616,26,10,23.783,720.9551985955,14.435696,1.342164,2.53262475296,0,0,0,264.8, 2.1, -2.8,0,0,1024,1024,1024,1024,0,0,0,0,0,0,0,85,,,,,,,8.017,102.2,720.6271145955,14.107612,6,P-GPS,
14500,2023-10-01 20:36:07,40.0688922702857,-88.2095797103504,14.107612,,,720.6271145955,8.530184,0.223694,2.521571603,4.6650592044,26,10,23.783,720.9551985955,14.435696,1.342164,2.53262475296,-0.223694,0,0,264.6, 2.2, -2.3,0,0,1024,1024,1024,1024,0,0,0,0,0,0,0,85,,,,,,,8.017,102.2,720.6271145955,14.107612,6,P-GPS,
14600,2023-10-01 20:36:07,40.0688921650727,-88.2095797242273,14.107612,,,720.6271145955,8.530184,0.223694,2.50955716692,4.7036418828,26,10,23.783,720.9551985955,14.435696,1.342164,2.53262475296,-0.223694,0,0,264.6, 2.2, -1.6,0,0,1024,1024,1024,1024,0,0,0,0,0,0,0,86,,,,,,,8.017,102.2,720.6271145955,14.107612,6,P-GPS,
14700,2023-10-01 20:36:07,40.0688920531898,-88.2095797635658,14.107612,,,720.6271145955,8.858268,0.223694,2.5037074292,4.745899102,26,10,23.783,720.9551985955,14.435696,1.342164,2.53262475296,-0.223694,0,0,264.6, 2.2, -1.1,0,0,1024,1024,1024,1024,0,0,0,0,0,0,0,86,,,,,,,8.017,102.2,720.6271145955,14.107612,6,P-GPS,
14800,2023-10-01 20:36:07,40.0688919538494,-88.2095797918611,14.107612,,,720.6271145955,8.530184,0.223694,2.49738196968,4.7830054024,26,10,23.7765,720.9551985955,14.435696,1.342164,2.53262475296,-0.223694,0,0,264.6, 2.3, -0.8,0,0,1024,1024,1024,1024,0,0,0,0,0,0,0,85,,,,,,,8.377,102.2,720.6271145955,14.107612,6,P-GPS,
14900,2023-10-01 20:36:07,40.0688917816122,-88.2095799258092,14.107612,,,720.6271145955,8.858268,0.223694,2.50993774436,4.856135326,26,10,23.7765,720.9551985955,14.435696,1.342164,2.53262475296,-0.223694,0,0,264.7, 2.4, -0.7,0,0,1024,1024,1024,1024,0,0,0,0,0,0,0,85,,,,,,,8.377,102.2,720.6271145955,14.107612,6,P-GPS,
15000,2023-10-01 20:36:07,40.0688916937764,-88.2095799206703,14.107612,,,720.6271145955,8.858268,0,2.49777895132,4.8882219412,26,10,23.7765,720.9551985955,14.435696,1.342164,2.53262475296,0,0,0,264.8, 2.6, -0.4,0,0,1024,1024,1024,1024,0,0,0,0,0,0,0,85,,,,,,,8.377,102.2,720.6271145955,14.107612,6,P-GPS,
15100,2023-10-01 20:36:07,40.0688916172103,-88.2095799202826,14.107612,,,720.6271145955,8.858268,0,2.4885499484,4.9161418896,26,10,23.7765,720.9551985955,14.435696,1.342164,2.53262475296,0,0,0,264.8, 2.5, -0.4,0,0,1024,1024,1024,1024,0,0,0,0,0,0,0,85,,,,,,,8.377,102.2,720.6271145955,14.107612,6,P-GPS,
15200,2023-10-01 20:36:07,40.0688915191933,-88.2095799663294,14.107612,,,720.6271145955,8.858268,0,2.48951123452,4.9541340168,26,10,23.7765,720.9551985955,14.435696,1.342164,2.53262475296,0,0,0,264.9, 2.2, -1,0,0,1024,1024,1024,1024,0,0,0,0,0,0,0,85,,,,,,,8.377,102.2,720.6271145955,14.107612,6,P-GPS,
15300,2023-10-01 20:36:07,40.0688914843429,-88.2095799599493,14.107612,,,720.6271145955,8.858268,0,2.48393708736,4.9669949096,26,10,23.7765,720.9551985955,14.435696,1.342164,2.53262475296,0,0,0,264.9, 2.3, -1.8,0,0,1024,1024,1024,1024,0,0,0,0,0,0,0,85,,,,,,,8.377,102.2,720.6271145955,14.107612,6,P-GPS,
15400,2023-10-01 20:36:07,40.068891431434,-88.2095799731084,14.107612,,,720.6271145955,8.858268,0,2.48167002692,4.9866471412,26,10,23.7765,720.9551985955,14.435696,1.342164,2.53262475296,0,0,0,265, 2.4, -1.7,0,0,1024,1024,1024,1024,0,0,0,0,0,0,0,85,,,,,,,8.377,102.2,720.6271145955,14.107612,6,P-GPS,
15500,2023-10-01 20:36:08,40.0688913721997,-88.2095799501507,14.107612,,,720.6271145955,8.530184,0,2.46923892416,5.009186512,26,10,23.7765,720.9551985955,14.435696,1.342164,2.53262475296,0,0,0,265.1, 2.4, -1.2,0,0,1024,1024,1024,1024,0,0,0,0,0,0,0,85,,,,,,,8.377,102.2,720.6271145955,14.107612,6,P-GPS,
15600,2023-10-01 20:36:08,40.0688912507767,-88.2095800222721,14.107612,,,720.6271145955,8.530184,0,2.47623367504,5.0578413692,26,10,23.7765,720.9551985955,14.435696,1.342164,2.53262475296,0,0,0,265.1, 2.1, -1.2,0,0,1024,1024,1024,1024,0,0,0,0,0,0,0,86,,,,,,,8.377,102.2,720.6271145955,14.107612,6,P-GPS,
15700,2023-10-01 20:36:08,40.0688912002867,-88.2095799679064,14.107612,,,720.6271145955,8.858268,0,2.456692992,5.0817258844,26,10,23.7765,720.9551985955,14.435696,1.342164,2.53262475296,0,0,0,265.1, 1.8, -1.3,0,0,1024,1024,1024,1024,0,0,0,0,0,0,0,86,,,,,,,8.377,102.2,720.6271145955,14.107612,6,P-GPS,
15800,2023-10-01 20:36:08,40.0688911563658,-88.209579906333,14.107612,,,720.6271145955,8.858268,0,2.43590558976,5.1052166988,26,10,23.7765,720.9551985955,14.435696,1.342164,2.53262475296,0,0,0,265.2, 1.5, -1.2,0,0,1024,1024,1024,1024,0,0,0,0,0,0,0,86,,,,,,,8.377,102.2,720.6271145955,14.107612,6,P-GPS,
15900,2023-10-01 20:36:08,40.0688910437719,-88.2095799103042,14.107612,,,720.6271145955,8.858268,0,2.42664377844,5.1462928156,26,10,23.7765,720.9551985955,14.435696,1.342164,2.53262475296,0,0,0,265.2, 1.4, -1.4,0,0,1024,1024,1024,1024,0,0,0,0,0,0,0,86,,,,,,,8.377,102.2,720.6271145955,14.107612,6,P-GPS,
16000,2023-10-01 20:36:08,40.0688910071456,-88.2095798489882,14.107612,,,720.6271145955,8.858268,0,2.40679797728,5.1680119764,26,10,23.7765,720.9551985955,14.435696,1.342164,2.53262475296,0,0,0,265.3, 1.4, -1.6,0,0,1024,995,1024,1024,0,-4,0,0,0,0,0,86,,,,,,,8.377,102.2,720.6271145955,14.107612,6,P-GPS,
16100,2023-10-01 20:36:08,40.068890969747,-88.2095797906136,14.107612,,,720.6271145955,8.858268,0,2.38771989268,5.1892718196,26,10,23.7765,720.9551985955,14.435696,1.342164,2.53262475296,0,0,0,265.3, 1.5, -1.6,0,0,1024,981,1024,1024,0,-7,0,0,0,0,0,86,,,,,,,8.377,102.2,720.6271145955,14.107612,6,P-GPS,
16200,2023-10-01 20:36:08,40.0688909332096,-88.2095797352069,14.107612,,,720.6271145955,8.858268,0,2.3695538816,5.2097114528,26,10,23.7765,720.9551985955,14.435696,1.342164,2.53262475296,0,0,0,265.2, 1.5, -1.7,0,0,1024,806,1024,1024,0,-33,0,0,0,0,0,86,,,,,,,8.377,102.2,720.6271145955,14.107612,6,P-GPS,
16300,2023-10-01 20:36:08,40.0688908391298,-88.2095797714851,14.107612,,,720.6271145955,8.858268,0,2.37169627012,5.2455054172,26,10,23.7765,720.9551985955,14.435696,1.342164,2.53262475296,0,0,0,265.1, 1.4, -1.8,0,0,1024,786,1024,1024,0,-36,0,0,0,0,0,86,,,,,,,8.377,102.2,720.6271145955,14.107612,6,P-GPS,
16400,2023-10-01 20:36:08,40.0688907996007,-88.209579724817,14.107612,,,720.6271145955,8.858268,0,2.35586293628,5.26492799,26,10,23.7765,720.9551985955,14.435696,1.342164,2.53262475296,0,0,0,265.1, 1.2, -2.9,0,0,1024,786,1024,1024,0,-36,0,0,0,0,0,86,,,,,,,8.377,102.2,720.6271145955,14.107612,6,P-GPS,
16500,2023-10-01 20:36:08,40.0688907487431,-88.2095796879119,14.107612,,,720.6271145955,8.858268,0,2.3418964004,5.2861550248,26,10,23.7765,720.9551985955,14.435696,1.342164,2.53262475296,0,0,0,265.2, 1.1, -5.8,0,0,1024,1024,1024,1024,0,0,0,0,0,0,0,86,,,,,,,8.377,102.2,720.6271145955,14.107612,6,P-GPS,
16600,2023-10-01 20:36:09,40.068890627807,-88.2095797121219,14.107612,,,720.6271145955,8.858268,0.223694,2.33982290952,5.3307744488,26,10,23.7765,720.9551985955,14.435696,1.342164,2.53262475296,-0.223694,0,0,265.2, 1.1, -6.3,0,0,1024,1024,1024,1024,0,0,0,0,0,0,0,86,,,,,,,8.377,102.2,720.6271145955,14.107612,6,P-GPS,
16700,2023-10-01 20:36:09,40.0688904512877,-88.209579697912,14.107612,,,720.6271145955,8.858268,0.447388,2.32466870956,5.3953085716,26,10,23.7705,720.9551985955,14.435696,1.342164,2.53262475296,-0.447388,0,0,265.2, 1, -3.1,0,0,1024,1024,1024,1024,0,0,0,0,0,0,0,85,,,,,,,7.357,102.2,720.6271145955,14.107612,6,P-GPS,
16800,2023-10-01 20:36:09,40.0688902749534,-88.209579699419,14.107612,,,720.6271145955,8.858268,0.447388,2.31557750192,5.459645844,26,10,23.7705,720.9551985955,14.435696,1.342164,2.53262475296,-0.447388,0,0,265.1, 1.1, -0.4,0,0,1024,1024,1024,1024,0,0,0,0,0,0,0,85,,,,,,,7.357,102.2,720.6271145955,14.107612,6,P-GPS,
16900,2023-10-01 20:36:09,40.0688901279636,-88.2095797185517,14.107612,,,720.6271145955,8.858268,0.223694,2.31430125516,5.5135500452,26,10,23.7705,720.9551985955,14.435696,1.342164,2.53262475296,-0.223694,0,0,264.9, 1.3, 0.5,0,0,1024,1024,1024,1024,0,0,0,0,0,0,0,85,,,,,,,7.357,102.2,720.6271145955,14.107612,6,P-GPS,
17000,2023-10-01 20:36:09,40.0688900194559,-88.209579859362,14.107612,,,720.6271145955,8.858268,0,2.34937999644,5.5693571336,26,10,23.7705,720.9551985955,14.435696,1.342164,2.53262475296,0,0,0,264.7, 1.3, 1.5,0,0,1024,1024,1024,1024,0,0,0,0,0,0,0,85,,,,,,,7.357,102.2,720.6271145955,14.107612,6,P-GPS,
17100,2023-10-01 20:36:09,40.0688900106682,-88.209579924256,14.107612,,,720.6271145955,8.858268,0,2.36712934084,5.5877298376,26,10,23.7705,720.9551985955,14.435696,1.342164,2.53262475296,0,0,0,264.6, 1.9, 0.4,0,0,1024,1024,1024,1024,0,0,0,0,0,0,0,85,,,,,,,7.357,102.2,720.6271145955,14.107612,6,P-GPS,
17200,2023-10-01 20:36:09,40.0688900555132,-88.2095800071576,14.107612,,,720.6271145955,8.858268,0,2.39170611328,5.6160762952,26,10,23.7705,720.9551985955,14.435696,1.342164,2.53262475296,0,0,0,264.5, 2.3, -1.7,0,0,1024,1024,1024,1024,0,0,0,0,0,0,0,85,,,,,,,7.357,102.2,720.6271145955,14.107612,6,P-GPS,
17300,2023-10-01 20:36:09,40.0688900503657,-88.2095802822854,14.107612,,,720.6271145955,8.858268,0,2.46800204748,5.692913568,26,10,23.7705,720.9551985955,14.435696,1.342164,2.53262475296,0,0,0,264.4, 2.4, -2.9,0,0,1024,1024,1024,1024,0,0,0,0,0,0,0,85,,,,,,,7.357,102.2,720.6271145955,14.107612,6,P-GPS,
17400,2023-10-01 20:36:10,40.0688900992073,-88.2095803970358,14.107612,,,720.6271145955,8.858268,0,2.50159784908,5.7295933592,26,10,23.7705,720.9551985955,14.435696,1.342164,2.53262475296,0,0,0,264.5, 2.7, -3.2,0,0,1024,1024,1024,1024,0,0,0,0,0,0,0,85,,,,,,,7.357,102.2,720.6271145955,14.107612,6,P-GPS,
17500,2023-10-01 20:36:10,40.0688901412494,-88.2095804823365,14.107612,,,720.6271145955,8.858268,0,2.52684391288,5.7579070084,26,10,23.7705,720.9551985955,14.435696,1.342164,2.53262475296,0,0,0,264.5, 2.7, -2.6,0,0,1024,1024,1024,1024,0,0,0,0,0,0,0,85,,,,,,,7.357,102.2,720.6271145955,14.107612,6,P-GPS,
17600,2023-10-01 20:36:10,40.0688901837217,-88.20958054599,14.107612,,,720.6271145955,8.530184,0,2.54616477964,5.781496248,26,10,23.7515,720.9551985955,14.435696,1.342164,2.54616477964,0,0,0,264.5, 2.3, -2.4,0,0,1024,1024,1024,1024,0,0,0,0,0,0,0,85,,,,,,,8.423,102.2,720.6271145955,14.107612,6,P-GPS,
17700,2023-10-01 20:36:10,40.068890187415,-88.2095807211174,14.107612,,,720.6271145955,8.530184,0,2.59492134288,5.8304135724,26,10,23.7515,720.9551985955,14.435696,1.342164,2.59492134288,0,0,0,264.6, 2, -2.5,0,0,1024,1024,1024,1024,0,0,0,0,0,0,0,85,,,,,,,8.423,102.2,720.6271145955,14.107612,6,P-GPS,
17800,2023-10-01 20:36:10,40.0688902271478,-88.2095807734974,14.107612,,,720.6271145955,8.858268,0,2.61104995232,5.8510172476,26,10,23.7515,720.9551985955,14.435696,1.342164,2.61104995232,0,0,0,264.7, 2, -2.8,0,0,1024,1024,1024,1024,0,0,0,0,0,0,0,85,,,,,,,8.423,102.2,720.6271145955,14.107612,6,P-GPS,
17900,2023-10-01 20:36:10,40.0688902550728,-88.2095808293233,14.107612,,,720.6271145955,8.858268,0,2.62769693448,5.8696196104,26,10,23.7515,720.9551985955,14.435696,1.342164,2.62769693448,0,0,0,264.7, 2, -2.9,0,0,1024,1024,1024,1024,0,0,0,0,0,0,0,85,,,,,,,8.423,102.2,720.6271145955,14.107612,6,P-GPS,
18000,2023-10-01 20:36:10,40.0688902507078,-88.209580941273,14.107612,,,720.6271145955,8.858268,0,2.65856635804,5.900918824,26,10,23.7515,720.9551985955,14.435696,1.342164,2.65856635804,0,0,0,264.6, 2.2, -2.5,0,0,1024,1024,1024,1024,0,0,0,0,0,0,0,85,,,,,,,8.423,102.2,720.6271145955,14.107612,6,P-GPS,
18100,2023-10-01 20:36:10,40.068890286981,-88.2095810121378,14.107612,,,720.6271145955,8.858268,0,2.67974746108,5.9247377224,26,10,23.7515,720.9551985955,14.435696,1.342164,2.67974746108,0,0,0,264.4, 2.3, -2.3,0,0,1024,1024,1024,1024,0,0,0,0,0,0,0,85,,,,,,,8.423,102.2,720.6271145955,14.107612,6,P-GPS,
18200,2023-10-01 20:36:10,40.0688903401442,-88.2095810652329,14.107612,,,720.6271145955,8.858268,0,2.69680782908,5.949147172,26,10,23.7515,720.9551985955,14.435696,1.342164,2.69680782908,0,0,0,264.3, 2.4, -2.4,0,0,1024,1024,1024,1024,0,0,0,0,0,0,0,85,,,,,,,8.423,102.2,720.6271145955,14.107612,6,P-GPS,
18300,2023-10-01 20:36:10,40.0688904213485,-88.2095810968641,14.107612,,,720.6271145955,8.858268,0,2.70939313132,5.9800526848,26,10,23.7515,720.9551985955,14.435696,1.342164,2.70939313132,0,0,0,264.1, 2.4, -3,0,0,1024,1024,1024,1024,0,0,0,0,0,0,0,85,,,,,,,8.423,102.2,720.6271145955,14.107612,6,P-GPS,
18400,2023-10-01 20:36:10,40.0688904577923,-88.2095812220274,14.107612,,,720.6271145955,8.858268,0.223694,2.74582357868,6.0174542608,26,10,23.7515,720.9551985955,14.435696,1.342164,2.74582357868,0.223694,0,0,264.1, 2.1, -3.7,0,0,1024,1024,1024,1024,0,0,0,0,0,0,0,85,,,,,,,8.423,102.2,720.6271145955,14.107612,6,P-GPS,
18500,2023-10-01 20:36:11,40.0688905430006,-88.2095812091964,14.107612,,,720.6271145955,8.858268,0.223694,2.74672580968,6.0487534744,26,10,23.7515,720.9551985955,14.435696,1.342164,2.74672580968,0.223694,0,0,264.3, 1.5, -4.3,0,0,1024,1024,1024,1024,0,0,0,0,0,0,0,85,,,,,,,8.423,102.2,720.6271145955,14.107612,6,P-GPS,
18600,2023-10-01 20:36:11,40.0688906192109,-88.2095811814175,14.107612,,,720.6271145955,8.858268,0,2.74334326364,6.0776248664,26,10,23.7445,720.9551985955,14.435696,1.342164,2.74672580968,0,0,0,264.5, 1, -4.6,0,0,1024,1024,1024,1024,0,0,0,0,0,0,0,85,,,,,,,8.017,102.38,720.6271145955,14.107612,6,P-GPS,
18700,2023-10-01 20:36:11,40.0688906144025,-88.2095812900124,14.107612,,,720.6271145955,8.858268,0,2.77300533808,6.1079726364,26,10,23.7445,720.9551985955,14.435696,1.342164,2.77300533808,0,0,0,264.8, 0.9, -4.6,0,0,1024,1024,1024,1024,0,0,0,0,0,0,0,85,,,,,,,8.017,102.38,720.6271145955,14.107612,6,P-GPS,
18800,2023-10-01 20:36:11,40.0688906572458,-88.2095812617178,14.107612,,,720.6271145955,8.530184,0,2.76770350064,6.125492322,26,10,23.7445,720.9551985955,14.435696,1.342164,2.77300533808,0,0,0,265, 0.8, -4.1,0,0,1024,1024,1024,1024,0,0,0,0,0,0,0,85,,,,,,,8.017,102.38,720.6271145955,14.107612,6,P-GPS,
18900,2023-10-01 20:36:11,40.0688906880653,-88.2095812308261,14.107612,,,720.6271145955,8.530184,0,2.76104995712,6.1396655508,26,10,23.7445,720.9551985955,14.435696,1.342164,2.77300533808,0,0,0,265.2, 0.8, -3.5,0,0,1024,1024,1024,1024,0,0,0,0,0,0,0,85,,,,,,,8.017,102.38,720.6271145955,14.107612,6,P-GPS,
19000,2023-10-01 20:36:11,40.0688907076131,-88.209581210036,14.107612,,,720.6271145955,8.858268,0,2.75653224044,6.1488519028,26,10,23.7445,720.9551985955,14.435696,1.342164,2.77300533808,0,0,0,265.3, 0.9, -2.9,0,0,1024,1024,1024,1024,0,0,0,0,0,0,0,85,,,,,,,8.017,102.38,720.6271145955,14.107612,6,P-GPS,
19100,2023-10-01 20:36:11,40.0688906868804,-88.2095812726058,14.107612,,,720.6271145955,8.530184,0,2.77248040368,6.1679135832,26,10,23.7445,720.9551985955,14.435696,1.342164,2.77300533808,0,0,0,265.3, 1.4, -2.6,0,0,1024,1024,1024,1024,0,0,0,0,0,0,0,85,,,,,,,8.017,102.38,720.6271145955,14.107612,6,P-GPS,
19200,2023-10-01 20:36:11,40.0688907056776,-88.2095812560884,14.107612,,,720.6271145955,8.858268,0,2.76908473428,6.1761484916,26,10,23.7445,720.9551985955,14.435696,1.342164,2.77300533808,0,0,0,265.2, 1.7, -2.7,0,0,1024,1024,1024,1024,0,0,0,0,0,0,0,85,,,,,,,8.017,102.38,720.6271145955,14.107612,6,P-GPS,
19300,2023-10-01 20:36:11,40.0688907217313,-88.2095812457427,14.107612,,,720.6271145955,8.530184,0,2.76723434052,6.1827101716,26,10,23.7445,720.9551985955,14.435696,1.342164,2.77300533808,0,0,0,265.1, 1.9, -3.3,0,0,1024,1069,1024,1024,0,7,0,0,0,0,0,85,,,,,,,8.017,102.38,720.6271145955,14.107612,6,P-GPS,
19400,2023-10-01 20:36:11,40.0688906904419,-88.2095812919098,14.107612,,,720.6271145955,8.530184,0,2.77801189992,6.1999017732,26,10,23.7445,720.9551985955,14.435696,1.342164,2.77801189992,0,0,0,264.9, 1.8, -3.7,0,0,1024,1069,1024,1024,0,7,0,0,0,0,0,85,,,,,,,8.017,102.38,720.6271145955,14.107612,6,P-GPS,
