time(millisecond),datetime(utc),latitude,longitude,height_above_takeoff(feet),height_above_ground_at_drone_location(feet),ground_elevation_at_drone_location(feet),altitude_above_seaLevel(feet),height_sonar(feet),speed(mph),distance(feet),mileage(feet),satellites,gpslevel,voltage(v),max_altitude(feet),max_ascent(feet),max_speed(mph),max_distance(feet), xSpeed(mph), ySpeed(mph), zSpeed(mph), compass_heading(degrees), pitch(degrees), roll(degrees),isPhoto,isVideo,rc_elevator,rc_aileron,rc_throttle,rc_rudder,rc_elevator(percent),rc_aileron(percent),rc_throttle(percent),rc_rudder(percent),gimbal_heading(degrees),gimbal_pitch(degrees),gimbal_roll(degrees),battery_percent,voltageCell1,voltageCell2,voltageCell3,voltageCell4,voltageCell5,voltageCell6,current(A),battery_temperature(f),altitude(feet),ascent(feet),flycStateRaw,flycState,message
0,2023-10-01 21:31:47,40.0688807391896,-88.2096636206396,0,Available with any HD 360 subscription,Available with any HD 360 subscription,706.42929130652,0.656168,0,0,0,28,10,0,706.42929130652,0,0,0,0,0,0,4.1, -0.3, -1.1,0,0,364,364,364,1684,-100,-100,-100,100,0,0,0,69,,,,,,,0,106.34,706.42929130652,0,41,Motors_Started,"Your aircraft is flying in an Altitude Zone (500m). Please fly with caution."
100,2023-10-01 21:31:47,40.0688807370578,-88.2096636064143,0,,,706.42929130652,0.656168,0,0.0040472770324,0.0040472770324,28,10,0,706.42929130652,0,0,0.0040472770324,0,0,0,4.1, -0.3, -1.1,0,0,364,364,364,1684,-100,-100,-100,100,0,0,0,69,,,,,,,0,106.34,706.42929130652,0,41,Motors_Started,
200,2023-10-01 21:31:47,40.0688807335347,-88.2096636591167,0,,,706.42929130652,0.656168,0,0.010939468854,0.0188182748804,28,10,0,706.42929130652,0,0,0.010939468854,0,0,0,4.1, -0.3, -1.1,0,0,364,364,364,1684,-100,-100,-100,100,0,0,0,69,,,,,,,0,106.34,706.42929130652,0,41,Motors_Started,
300,2023-10-01 21:31:47,40.0688807373772,-88.2096636411402,0,,,706.42929130652,0.656168,0,0.0057620080584,0.0240295939448,28,10,0,706.42929130652,0,0,0.010939468854,0,0,0,4.1, -0.3, -1.1,0,0,364,364,364,1684,-100,-100,-100,100,0,0,0,69,,,,,,,0,106.34,706.42929130652,0,41,Motors_Started,
400,2023-10-01 21:31:48,40.0688807380009,-88.2096636191986,0,,,706.42929130652,0.656168,0,0.00059159778796,0.030160105952,28,10,0,706.42929130652,0,0,0.010939468854,0,0,0,4.1, -0.3, -1.1,0,0,364,364,364,1684,-100,-100,-100,100,0,0,0,69,,,,,,,0,106.34,706.42929130652,0,41,Motors_Started,
500,2023-10-01 21:31:48,40.0688807366876,-88.2096636813889,0,,,706.42929130652,0.656168,0,0.0169862538244,0.047530841416,28,10,0,706.42929130652,0,0,0.0169862538244,0,0,0,4.1, -0.3, -1.1,0,0,1024,1024,1024,1024,0,0,0,0,0,0,0,69,,,,,,,0,106.34,706.42929130652,0,41,Motors_Started,
600,2023-10-01 21:31:48,40.0688807347272,-88.209663658374,0,,,706.42929130652,0.656168,0,0.0106608271128,0.053996392804,28,10,0,706.42929130652,0,0,0.0169862538244,0,0,0,4.1, -0.3, -1.1,0,0,1024,1024,1024,1024,0,0,0,0,0,0,0,69,,,,,,,0,106.34,706.42929130652,0,41,Motors_Started,"Setting new Return-To-Home altitude to 100m (328 ft). Data Recorder File Index is 27. Setting new Maximum Flight Altitude to 120m (394 ft)"
700,2023-10-01 21:31:48,40.0688807326968,-88.20966363387,0,,,706.42929130652,0.656168,0,0.0043883531588,0.060878282788,28,10,0,706.42929130652,0,0,0.0169862538244,0,0,0,4.1, -0.4, -1.1,0,0,1024,1024,1024,1024,0,0,0,0,0,0,0,69,,,,,,,0,106.34,706.42929130652,0,41,Motors_Started,
800,2023-10-01 21:31:48,40.0688807292641,-88.2096635988796,0,,,706.42929130652,0.656168,0,0.0070729661056,0.070727692552,28,10,0,706.42929130652,0,0,0.0169862538244,0,0,0,4.1, -0.3, -1.1,0,0,1024,1024,1024,1024,0,0,0,0,0,0,0,69,,,,,,,0,106.34,706.42929130652,0,41,Motors_Started,
900,2023-10-01 21:31:48,40.0688807280152,-88.2096636506756,0,,,706.42929130652,0.656168,0,0.009324803448,0.08519685312,28,10,0,706.42929130652,0,0,0.0169862538244,0,0,0,4, -0.4, -1.1,0,0,1024,1024,1024,1024,0,0,0,0,0,0,0,69,,,,,,,0,106.34,706.42929130652,0,41,Motors_Started,
1000,2023-10-01 21:31:48,40.0688807188399,-88.2096636360747,0,,,706.42929130652,0.656168,0,0.0085847115608,0.090471787672,28,10,0,706.42929130652,0,0,0.0169862538244,0,0,0,4, -0.4, -1.1,0,0,1024,1024,1024,1024,0,0,0,0,0,0,0,69,,,,,,,0,106.34,706.42929130652,0,41,Motors_Started,
1100,2023-10-01 21:31:48,40.068880710824,-88.2096636185804,0,,,706.42929130652,0.656168,0,0.010365157812,0.096165029324,28,10,0,706.42929130652,0,0,0.0169862538244,0,0,0,4, -0.3, -1.1,0,0,1024,1024,1024,1024,0,0,0,0,0,0,0,69,,,,,,,0,106.34,706.42929130652,0,41,Motors_Started,
1200,2023-10-01 21:31:48,40.0688807075735,-88.2096637091286,0,,,706.42929130652,0.656168,0,0.0272670284316,0.12147474142,28,10,0,706.42929130652,0,0,0.0272670284316,0,0,0,4, -0.4, -1.1,0,0,1024,1024,1024,1024,0,0,0,0,0,0,0,69,,,,,,,0,106.34,706.42929130652,0,41,Motors_Started,
1300,2023-10-01 21:31:49,40.0688807067717,-88.2096636901807,0,,,706.42929130652,0.656168,0,0.0227352697564,0.126772969936,28,10,0,706.42929130652,0,0,0.0272670284316,0,0,0,4, -0.4, -1.1,0,0,1024,1024,1024,1024,0,0,0,0,0,0,0,69,,,,,,,0,106.34,706.42929130652,0,41,Motors_Started,
1400,2023-10-01 21:31:49,40.0688807087453,-88.2096636720229,0,,,706.42929130652,0.656168,0,0.018144029452,0.131893705008,28,10,0,706.42929130652,0,0,0.0272670284316,0,0,0,4, -0.4, -1.2,0,0,1024,1024,1024,1024,0,0,0,0,0,0,0,69,,,,,,,0,106.34,706.42929130652,0,41,Motors_Started,
1500,2023-10-01 21:31:49,40.0688807097115,-88.2096636489929,0,,,706.42929130652,0.656168,0,0.013354495178,0.138333665844,28,10,0,706.42929130652,0,0,0.0272670284316,0,0,0,4, -0.4, -1.2,0,0,1024,1024,1024,1024,0,0,0,0,0,0,0,69,,,,,,,0,106.34,706.42929130652,0,41,Motors_Started,
1600,2023-10-01 21:31:49,40.0688807164865,-88.2096636844081,0,,,706.42929130652,0.656168,0,0.0196372053528,0.148526251472,28,10,22.8735,706.42929130652,0,0,0.0272670284316,0,0,0,4, -0.4, -1.1,0,0,1024,1024,1024,1024,0,0,0,0,0,0,0,68,,,,,,,4.158,106.34,706.42929130652,0,41,Motors_Started,
1700,2023-10-01 21:31:49,40.0688807154163,-88.2096636614712,0,,,706.42929130652,0.656168,0,0.0143250004584,0.154942262176,28,10,22.8735,706.42929130652,0,0,0.0272670284316,0,0,0,4, -0.4, -1.1,0,0,1024,1024,1024,1024,0,0,0,0,0,0,0,68,,,,,,,4.158,106.34,706.42929130652,0,41,Motors_Started,
1800,2023-10-01 21:31:49,40.0688807146539,-88.2096636333916,0,,,706.42929130652,0.656168,0,0.0096339241928,0.1627870787,28,10,22.8735,706.42929130652,0,0,0.0272670284316,0,0,0,4, -0.4, -1.1,0,0,1024,1024,1024,1024,0,0,0,0,0,0,0,68,,,,,,,4.158,106.34,706.42929130652,0,41,Motors_Started,
1900,2023-10-01 21:31:49,40.0688807164674,-88.2096637135338,0,,,706.42929130652,0.656168,0,0.0272295612388,0.185173234272,28,10,22.8735,706.42929130652,0,0,0.0272670284316,0,0,0,4, -0.4, -1.1,0,0,1024,1024,1024,1024,0,0,0,0,0,0,0,68,,,,,,,4.158,106.34,706.42929130652,0,41,Motors_Started,
2000,2023-10-01 21:31:49,40.0688807153604,-88.2096637087687,0,,,706.42929130652,0.656168,0,0.0260971465044,0.186563654264,28,10,22.8735,706.42929130652,0,0,0.0272670284316,0,0,0,4, -0.4, -1.1,0,0,1024,1024,1024,1024,0,0,0,0,0,0,0,68,,,,,,,4.158,106.34,706.42929130652,0,10,Assisted_Takeoff,
2100,2023-10-01 21:31:49,40.0688807118501,-88.2096636901506,0,,,706.42929130652,0.656168,0,0.0218213261576,0.19191765706,28,10,22.8735,706.42929130652,0,0,0.0272670284316,0,0,0,4, -0.4, -1.1,0,0,1024,1024,1024,1024,0,0,0,0,0,0,0,68,,,,,,,4.158,106.34,706.42929130652,0,10,Assisted_Takeoff,
2200,2023-10-01 21:31:49,40.0688807138663,-88.2096636677267,0,,,706.42929130652,0.656168,0,0.016068898152,0.198221463036,28,10,22.8735,706.42929130652,0,0,0.0272670284316,0,0,0,4, -0.4, -1.1,0,0,1024,1024,1024,1024,0,0,0,0,0,0,0,68,,,,,,,4.158,106.34,706.42929130652,0,10,Assisted_Takeoff,
2300,2023-10-01 21:31:49,40.0688807160019,-88.2096637186823,0,,,706.42929130652,0.656168,0,0.0286518381872,0.212470151156,28,10,22.8735,706.42929130652,0,0,0.0286518381872,0,0,0,4, -0.5, -1.1,0,0,1024,1024,1024,1024,0,0,0,0,0,0,0,68,,,,,,,4.158,106.34,706.42929130652,0,10,Assisted_Takeoff,
2400,2023-10-01 21:31:50,40.0688807222671,-88.2096636865943,0,,,706.42929130652,0.656168,0,0.0194226056084,0.221716542528,28,10,22.8735,706.42929130652,0,0,0.0286518381872,0,0,0,4, -0.5, -1.1,0,0,1024,1024,1024,1024,0,0,0,0,0,0,0,68,,,,,,,4.158,106.34,706.42929130652,0,10,Assisted_Takeoff,
2500,2023-10-01 21:31:50,40.0688807290332,-88.2096636482695,0,,,706.42929130652,0.656168,0,0.0085583336072,0.232698170176,28,10,22.8735,706.42929130652,0,0,0.0286518381872,0,0,0,4, -0.5, -1.1,0,0,1024,1024,1024,1024,0,0,0,0,0,0,0,68,,,,,,,4.158,106.34,706.42929130652,0,10,Assisted_Takeoff,
2600,2023-10-01 21:31:50,40.0688807375137,-88.2096636414182,0,,,706.42929130652,0.656168,0,0.0058336944124,0.236335637484,28,10,22.9255,706.42929130652,0,0,0.0286518381872,0,0,0,4, -0.5, -1.1,0,0,1024,1024,1024,1024,0,0,0,0,0,0,0,68,,,,,,,1.607,106.52,706.42929130652,0,10,Assisted_Takeoff,
2700,2023-10-01 21:31:50,40.0688807383878,-88.2096636177217,0,,,706.42929130652,0.656168,0,0.00086564307232,0.242959653444,28,10,22.9255,706.42929130652,0,0,0.0286518381872,0,0,0,4, -0.5, -1.1,0,0,1024,1024,1024,1024,0,0,0,0,0,0,0,68,,,,,,,1.607,106.52,706.42929130652,0,10,Assisted_Takeoff,
2800,2023-10-01 21:31:50,40.0688807438789,-88.2096635933228,0,,,706.42929130652,0.656168,0,0.0078166341084,0.25006070354,28,10,22.9255,706.42929130652,0,0,0.0286518381872,0,0,0,4, -0.5, -1.2,0,0,1024,1024,1024,1024,0,0,0,0,0,0,0,68,,,,,,,1.607,106.52,706.42929130652,0,10,Assisted_Takeoff,
2900,2023-10-01 21:31:50,40.0688807619026,-88.2096635425916,0,,,706.42929130652,0.656168,0,0.023314141166,0.265677173856,28,10,22.9255,706.42929130652,0,0,0.0286518381872,0,0,0,4, -0.5, -1.1,0,0,1024,1024,1024,1024,0,0,0,0,0,0,0,68,,,,,,,1.607,106.52,706.42929130652,0,10,Assisted_Takeoff,
3000,2023-10-01 21:31:50,40.0688807732409,-88.2096636055435,0,,,706.42929130652,0.656168,0,0.0131191277164,0.283734261048,28,10,22.9255,706.42929130652,0,0,0.0286518381872,0,0,0,4, -0.5, -1.2,0,0,1024,1024,1024,1024,0,0,0,0,0,0,0,68,,,,,,,1.607,106.52,706.42929130652,0,10,Assisted_Takeoff,
3100,2023-10-01 21:31:50,40.0688807756656,-88.2096635873772,0,,,706.42929130652,0.656168,0,0.0162283797844,0.28888288326,28,10,22.9255,706.42929130652,0,0,0.0286518381872,0,0,0,4, -0.5, -1.1,0,0,1024,1024,1024,1024,0,0,0,0,0,0,0,68,,,,,,,1.607,106.52,706.42929130652,0,10,Assisted_Takeoff,
3200,2023-10-01 21:31:50,40.0688807788867,-88.2096635732,0,,,706.42929130652,0.656168,0,0.0196269035152,0.293012148484,28,10,22.9255,706.42929130652,0,0,0.0286518381872,0,0,0,4, -0.5, -1.1,0,0,1024,1024,1024,1024,0,0,0,0,0,0,0,68,,,,,,,1.607,106.52,706.42929130652,0,10,Assisted_Takeoff,
3300,2023-10-01 21:31:51,40.0688807691735,-88.2096636689085,0,,,706.42929130652,0.656168,0,0.0173581698468,0.31996884226,28,10,22.9255,706.42929130652,0,0,0.0286518381872,0,0,0,4, -0.5, -1.1,0,0,1024,1024,1024,1024,0,0,0,0,0,0,0,68,,,,,,,1.607,106.52,706.42929130652,0,10,Assisted_Takeoff,
3400,2023-10-01 21:31:51,40.0688807753832,-88.2096636532879,0,,,706.42929130652,0.656168,0,0.0160459650804,0.32488354058,28,10,22.9255,706.42929130652,0,0,0.0286518381872,0,0,0,4, -0.5, -1.1,0,0,1024,1024,1137,1024,0,0,17,0,0,0,0,68,,,,,,,1.607,106.52,706.42929130652,0,10,Assisted_Takeoff,
3500,2023-10-01 21:31:51,40.0688807822405,-88.2096636277909,0,,,706.42929130652,0.656168,0,0.015833497882,0.33242783216,28,10,22.9255,706.42929130652,0,0,0.0286518381872,0,0,0,4, -0.5, -1.2,0,0,1024,1024,1597,1024,0,0,87,0,0,0,0,68,,,,,,,1.607,106.52,706.42929130652,0,10,Assisted_Takeoff,
3600,2023-10-01 21:31:51,40.0688807906692,-88.2096636057766,0,,,706.42929130652,0.656168,0,0.0192352696444,0.33930119196,29,10,22.9255,706.42929130652,0,0,0.0286518381872,0,0,0,4, -0.4, -1.1,0,0,1024,1024,1684,1024,0,0,100,0,0,0,0,69,,,,,,,1.607,106.52,706.42929130652,0,10,Assisted_Takeoff,
3700,2023-10-01 21:31:51,40.0688807958038,-88.2096636727659,0,,,706.42929130652,0.656168,0,0.0252681110448,0.35810040516,29,10,22.9195,706.42929130652,0,0,0.0286518381872,0,0,0,4, -0.5, -1.1,0,0,1024,1024,1684,1024,0,0,100,0,0,0,0,68,,,,,,,0.945,106.52,706.42929130652,0,10,Assisted_Takeoff,
3800,2023-10-01 21:31:51,40.0688808023667,-88.2096636405306,0,,,706.42929130652,0.656168,0,0.0237097120448,0.36741470992,29,10,22.9195,706.42929130652,0,0,0.0286518381872,0,0,0,4, -0.4, -1.1,0,0,1024,1024,1684,1024,0,0,100,0,0,0,0,68,,,,,,,0.945,106.52,706.42929130652,0,10,Assisted_Takeoff,
3900,2023-10-01 21:31:51,40.0688808051536,-88.2096636027348,0,,,706.42929130652,0.656168,0,0.0245806438312,0.37801510396,29,10,22.9195,706.42929130652,0,0,0.0286518381872,0,0,0,4, -0.4, -1.1,0,0,1024,1024,1684,1024,0,0,100,0,0,0,0,68,,,,,,,0.945,106.52,706.42929130652,0,10,Assisted_Takeoff,
4000,2023-10-01 21:31:51,40.068880771495,-88.2096636806954,0,,,706.42929130652,0.656168,0,0.0204961620732,0.40300854308,29,10,22.9195,706.42929130652,0,0,0.0286518381872,0,0,0,4, -0.2, -1.1,0,0,1024,1024,1684,1024,0,0,100,0,0,0,0,68,,,,,,,0.945,106.52,706.42929130652,0,10,Assisted_Takeoff,
4100,2023-10-01 21:31:51,40.0688807457511,-88.2096636875891,0,,,706.42929130652,0.656168,0,0.0188455386608,0.41259515756,29,10,22.9195,706.42929130652,0,0,0.0286518381872,0,0,0,3.9, 0.8, -1,0,0,1024,1024,1684,1024,0,0,100,0,0,0,0,68,,,,,,,0.945,106.52,706.42929130652,0,10,Assisted_Takeoff,
4200,2023-10-01 21:31:51,40.0688806853449,-88.2096637229139,0,,,706.42929130652,0.656168,0,0.034660762264,0.43674213996,29,10,22.9195,706.42929130652,0,0,0.034660762264,0,0,-0.223694,3.7, 3.1, -0.1,0,0,1024,1024,1684,1024,0,0,100,0,0,0,0,68,,,,,,,0.945,106.52,706.42929130652,0,10,Assisted_Takeoff,
4300,2023-10-01 21:31:52,40.0688805478279,-88.2096637727836,0,,,706.42929130652,0.984252,0.223694,0.081726052484,0.48880907076,29,10,22.9195,706.42929130652,0,0.223694,0.081726052484,-0.223694,0,-0.894776,3.5, 3.9, 0.5,0,0,1024,1024,1684,1024,0,0,100,0,0,0,0,68,,,,,,,0.945,106.52,706.42929130652,0,6,P-GPS,
4400,2023-10-01 21:31:52,40.0688803190232,-88.2096638703096,0,,,706.42929130652,0.984252,0.223694,0.168403220612,0.57661747252,29,10,22.9195,706.42929130652,0,0.223694,0.168403220612,-0.447388,0,-1.565858,3.4, 2.8, 1,0,0,1024,1024,1684,1024,0,0,100,0,0,0,0,68,,,,,,,0.945,106.52,706.42929130652,0,6,P-GPS,
4500,2023-10-01 21:31:52,40.0688800179585,-88.209663898247,0.328084,,,706.75737530652,1.312336,0.671082,0.274318906416,0.68673886712,29,10,22.9195,706.75737530652,0.328084,0.671082,0.274318906416,-0.671082,0,-2.013246,3.2, 0.5, 0.5,0,0,1024,1024,1684,1024,0,0,100,0,0,0,0,68,,,,,,,0.945,106.52,706.75737530652,0.328084,6,P-GPS,
4600,2023-10-01 21:31:52,40.0688796947178,-88.2096639227302,0.656168,,,707.08545930652,1.64042,0.671082,0.39029856892,0.80486879216,29,10,22.9195,707.08545930652,0.656168,0.671082,0.39029856892,-0.671082,0,-2.684328,3, -2.3, -0.3,0,0,1024,1024,1684,1024,0,0,100,0,0,0,0,69,,,,,,,0.945,106.52,707.08545930652,0.656168,6,P-GPS,
4700,2023-10-01 21:31:52,40.0688793754009,-88.2096640480401,1.312336,,,707.74162730652,1.968504,0.671082,0.51168636808,0.92651249684,29,10,22.756,707.74162730652,1.312336,0.671082,0.51168636808,-0.671082,0,-3.35541,3, -4.6, -0.7,0,0,1024,1024,1684,1024,0,0,100,0,0,0,0,68,,,,,,,5.496,106.52,707.74162730652,1.312336,6,P-GPS,
4800,2023-10-01 21:31:52,40.0688791662255,-88.209664094753,1.64042,,,708.06971130652,2.624672,0.447388,0.58896327344,1.00393704,29,10,22.756,708.06971130652,1.64042,0.671082,0.58896327344,-0.447388,0,-4.026492,3, -5, -0.9,0,0,1024,1024,1684,1024,0,0,100,0,0,0,0,68,,,,,,,5.496,106.52,708.06971130652,1.64042,6,P-GPS,
4900,2023-10-01 21:31:52,40.068879055425,-88.2096641536568,2.624672,,,709.05396330652,3.28084,0.223694,0.63208991524,1.04757877368,29,10,22.756,709.05396330652,2.624672,0.671082,0.63208991524,-0.223694,0,-4.921268,3.1, -3.6, -0.8,0,0,1024,1024,1684,1024,0,0,100,0,0,0,0,68,,,,,,,5.496,106.52,709.05396330652,2.624672,6,P-GPS,
5000,2023-10-01 21:31:52,40.0688789991667,-88.2096642561524,3.28084,,,709.71013130652,4.265092,0,0.65917653028,1.08279859108,29,10,22.756,709.71013130652,3.28084,0.671082,0.65917653028,0,0,-5.59235,3.2, -1.7, -0.2,0,0,1024,1024,1684,1024,0,0,100,0,0,0,0,68,,,,,,,5.496,106.52,709.71013130652,3.28084,6,P-GPS,
5100,2023-10-01 21:31:52,40.0688789443611,-88.209664437114,4.265092,,,710.69438330652,4.92126,0,0.6933891298,1.13713586316,29,10,22.756,710.69438330652,4.265092,0.671082,0.6933891298,0,0,-6.263432,3.3, -0.2, 0.4,0,0,1024,1024,1684,1024,0,0,100,0,0,0,0,68,,,,,,,5.496,106.52,710.69438330652,4.265092,6,P-GPS,
5200,2023-10-01 21:31:52,40.068878881899,-88.209664576582,5.249344,,,711.67863530652,5.905512,0,0.72830054824,1.18225397484,29,10,22.756,711.67863530652,5.249344,0.671082,0.72830054824,0,0,-7.158208,3.4, -0.1, 0.9,0,0,1024,1024,1684,1024,0,0,100,0,0,0,0,68,,,,,,,5.496,106.52,711.67863530652,5.249344,6,P-GPS,
5300,2023-10-01 21:31:52,40.0688787997252,-88.2096647104492,6.233596,,,712.66288730652,6.56168,0,0.77026249184,1.23017064304,29,10,22.756,712.66288730652,6.233596,0.671082,0.77026249184,0,0,-8.052984,3.4, -1.1, 1.3,0,0,1024,1024,1684,1024,0,0,100,0,0,0,0,68,,,,,,,5.496,106.52,712.66288730652,6.233596,6,P-GPS,
5400,2023-10-01 21:31:53,40.0688786522169,-88.2096649375406,7.545932,,,713.97522330652,7.545932,0,0.84556105068,1.3133366562,29,10,22.756,713.97522330652,7.545932,0.671082,0.84556105068,0,0,-8.724066,3.4, -2, 0.9,0,0,1024,1024,1684,1033,0,0,100,1,0,0,0,68,,,,,,,5.496,106.52,713.97522330652,7.545932,6,P-GPS,
5500,2023-10-01 21:31:53,40.0688785523513,-88.2096650044002,8.858268,,,715.28755930652,8.530184,0,0.88648952968,1.35427825856,29,10,22.756,715.28755930652,8.858268,0.671082,0.88648952968,0,0,-9.618842,3.3, -2.2, 0.1,0,0,1024,1024,1684,1046,0,0,100,3,0,0,0,68,,,,,,,5.496,106.52,715.28755930652,8.858268,6,P-GPS,
5600,2023-10-01 21:31:53,40.0688784804626,-88.2096650725124,10.170604,,,716.59989530652,9.186352,0,0.91840226036,1.38667655356,29,10,22.756,716.59989530652,10.170604,0.671082,0.91840226036,0,0,-10.06623,3.3, -1.9, -0.2,0,0,1024,1024,1328,1024,0,0,46,0,0,0,0,69,,,,,,,5.496,106.52,716.59989530652,10.170604,6,P-GPS,
5700,2023-10-01 21:31:53,40.068878422141,-88.2096651573278,11.811024,,,718.24031530652,9.84252,0,0.94802168388,1.41851054408,29,10,22.5515,718.24031530652,11.811024,0.671082,0.94802168388,0,0,-10.513618,3.2, -1.6, -0.4,0,0,1024,1024,1328,1024,0,0,46,0,0,0,0,68,,,,,,,15.854,106.52,718.24031530652,11.811024,6,P-GPS,
5800,2023-10-01 21:31:53,40.0688783449475,-88.2096652999306,13.451444,,,719.88073530652,11.154856,0,0.99141735456,1.46728351152,29,10,22.5515,719.88073530652,13.451444,0.671082,0.99141735456,0,0,-10.513618,3.1, -1.9, -0.1,0,0,1024,1024,1024,1024,0,0,0,0,0,0,0,68,,,,,,,15.854,106.52,719.88073530652,13.451444,6,P-GPS,
5900,2023-10-01 21:31:53,40.0688783148157,-88.2096653849382,14.76378,,,721.19307130652,12.139108,0,1.0124508198,1.493438368,29,10,22.5515,721.19307130652,14.76378,0.671082,1.0124508198,0,0,-10.289924,3, -2.5, 0.5,0,0,1024,1024,1024,1024,0,0,0,0,0,0,0,68,,,,,,,15.854,106.52,721.19307130652,14.76378,6,P-GPS,
6000,2023-10-01 21:31:53,40.0688783005883,-88.2096654801079,16.4042,,,722.83349130652,10.498688,0,1.03012142404,1.52051514052,29,10,22.5515,722.83349130652,16.4042,0.671082,1.03012142404,0,0,-10.06623,3.1, -3, 1,0,0,1024,1024,1024,1024,0,0,0,0,0,0,0,68,,,,,,,15.854,106.52,722.83349130652,16.4042,6,P-GPS,
6100,2023-10-01 21:31:53,40.0688782733507,-88.209665684034,17.716536,,,724.14582730652,11.811024,0,1.06831696332,1.5783136988,29,10,22.5515,724.14582730652,17.716536,0.671082,1.06831696332,0,0,-9.395148,3.1, -2.8, 1.1,0,0,1024,1024,1024,1024,0,0,0,0,0,0,0,68,,,,,,,15.854,106.52,724.14582730652,17.716536,6,P-GPS,
6200,2023-10-01 21:31:53,40.0688783104124,-88.209665768034,19.028872,,,725.45816330652,12.467192,0.223694,1.06991801324,1.60538390964,29,10,22.5515,725.45816330652,19.028872,0.671082,1.06991801324,0.223694,0,-8.724066,3.1, -1.8, 1.1,0,0,1024,1024,1024,1024,0,0,0,0,0,0,0,68,,,,,,,15.854,106.52,725.45816330652,19.028872,6,P-GPS,
6300,2023-10-01 21:31:54,40.0688783626104,-88.2096658549213,20.341208,,,726.77049930652,7.874016,0.223694,1.06818244888,1.63622708648,29,10,22.5515,726.77049930652,20.341208,0.671082,1.06991801324,0.223694,0,-8.052984,3.1, -0.8, 1,0,0,1024,1024,1024,1024,0,0,0,0,0,0,0,68,,,,,,,15.854,106.52,726.77049930652,20.341208,6,P-GPS,
6400,2023-10-01 21:31:54,40.068878425325,-88.2096659400418,21.653544,,,728.08283530652,8.858268,0.223694,1.06398953536,1.66921593268,29,10,22.5515,728.08283530652,21.653544,0.671082,1.06991801324,0.223694,0,-7.158208,3.1, -0.3, 1.1,0,0,1024,1024,1024,1024,0,0,0,0,0,0,0,68,,,,,,,15.854,106.52,728.08283530652,21.653544,6,P-GPS,
6500,2023-10-01 21:31:54,40.0688784446084,-88.2096661827789,22.637796,,,729.06708730652,3.608924,0.223694,1.10119098012,1.73735569864,29,10,22.5515,729.06708730652,22.637796,0.671082,1.10119098012,0.223694,0,-6.263432,3.2, -0.1, 1.4,0,0,1024,1024,1024,1024,0,0,0,0,0,0,0,68,,,,,,,15.854,106.52,729.06708730652,22.637796,6,P-GPS,
6600,2023-10-01 21:31:54,40.068878506841,-88.2096662814837,23.293964,,,729.72325530652,4.593176,0.223694,1.1024114526,1.7730643612,29,10,22.5515,729.72325530652,23.293964,0.671082,1.1024114526,0.223694,0,-5.368656,3.1, -0.1, 1.9,0,0,1024,1024,1024,1024,0,0,0,0,0,0,0,69,,,,,,,15.854,106.52,729.72325530652,23.293964,6,P-GPS,
6700,2023-10-01 21:31:54,40.0688785692939,-88.2096663810625,24.278216,,,730.70750730652,5.249344,0.223694,1.10489504848,1.80901252508,29,10,22.5515,730.70750730652,24.278216,0.671082,1.10489504848,0.223694,0,-4.47388,3.1, -0.1, 2.2,0,0,1024,1024,1024,1024,0,0,0,0,0,0,0,69,,,,,,,15.854,106.52,730.70750730652,24.278216,6,P-GPS,
6800,2023-10-01 21:31:54,40.0688785782478,-88.209666647802,24.934384,,,731.36367530652,5.905512,0.223694,1.15584649368,1.88355977156,29,10,22.744,731.36367530652,24.934384,0.671082,1.15584649368,0.223694,0,-3.579104,3.2, 0, 2.5,0,0,1024,1024,1024,1024,0,0,0,0,0,0,0,68,,,,,,,6.756,106.52,731.36367530652,24.934384,6,P-GPS,
6900,2023-10-01 21:31:54,40.0688786276485,-88.2096667863783,25.262468,,,731.69175930652,6.233596,0.223694,1.17251316088,1.92624349996,29,10,22.744,731.69175930652,25.262468,0.671082,1.17251316088,0.223694,0,-2.684328,3.2, 0.1, 2.5,0,0,1024,1024,1024,1024,0,0,0,0,0,0,0,68,,,,,,,6.756,106.52,731.69175930652,25.262468,6,P-GPS,
7000,2023-10-01 21:31:54,40.0688786756716,-88.209666919884,25.590552,,,732.01984330652,6.56168,0.223694,1.18970148164,1.96743116532,29,10,22.744,732.01984330652,25.590552,0.671082,1.18970148164,0.223694,0,-1.789552,3.2, 0.3, 2.5,0,0,1024,1024,1024,1024,0,0,0,0,0,0,0,68,,,,,,,6.756,106.52,732.01984330652,25.590552,6,P-GPS,
7100,2023-10-01 21:31:54,40.0688787374886,-88.2096670155115,25.918636,,,732.34792730652,6.889764,0,1.19659452648,2.00238195384,29,10,22.744,732.34792730652,25.918636,0.671082,1.19659452648,0,0,-1.11847,3.2, 0.5, 2.4,0,0,1024,1024,1024,1024,0,0,0,0,0,0,0,68,,,,,,,6.756,106.52,732.34792730652,25.918636,6,P-GPS,
7200,2023-10-01 21:31:54,40.0688787807645,-88.209667157843,25.918636,,,732.34792730652,6.889764,0,1.21899282116,2.0451444224,29,10,22.744,732.34792730652,25.918636,0.671082,1.21899282116,0,0,-0.671082,3.2, 0.4, 2.4,0,0,1024,1024,1024,1024,0,0,0,0,0,0,0,68,,,,,,,6.756,106.52,732.34792730652,25.918636,6,P-GPS,
7300,2023-10-01 21:31:55,40.0688788303733,-88.2096671795514,26.24672,,,732.67601130652,6.889764,0,1.21343179736,2.06423234952,29,10,22.744,732.67601130652,26.24672,0.671082,1.21899282116,0,0,-0.223694,3.2, 0.3, 2.3,0,0,1024,1024,1024,1024,0,0,0,0,0,0,0,68,,,,,,,6.756,106.52,732.67601130652,26.24672,6,P-GPS,
7400,2023-10-01 21:31:55,40.0688788842093,-88.2096671801503,26.24672,,,732.67601130652,6.889764,0,1.20240161328,2.0838747386,29,10,22.744,732.67601130652,26.24672,0.671082,1.21899282116,0,0,0,3.1, 0.3, 2,0,0,1024,1024,1024,1024,0,0,0,0,0,0,0,68,,,,,,,6.756,106.52,732.67601130652,26.24672,6,P-GPS,
7500,2023-10-01 21:31:55,40.0688789546849,-88.2096672261427,26.24672,,,732.67601130652,6.889764,0,1.19888127196,2.112614897,29,10,22.744,732.67601130652,26.24672,0.671082,1.21899282116,0,0,0,3.1, 0.2, 1.6,0,0,1024,1024,1024,1024,0,0,0,0,0,0,0,68,,,,,,,6.756,106.52,732.67601130652,26.24672,6,P-GPS,
7600,2023-10-01 21:31:55,40.0688790102632,-88.2096671744807,26.24672,,,732.67601130652,6.889764,0,1.17579400088,2.1375000684,29,10,22.744,732.67601130652,26.24672,0.671082,1.21899282116,0,0,0,3.1, 0.2, 1.2,0,0,1024,1024,1024,1024,0,0,0,0,0,0,0,69,,,,,,,6.756,106.52,732.67601130652,26.24672,6,P-GPS,
7700,2023-10-01 21:31:55,40.0688790754592,-88.2096671200377,25.918636,,,732.34792730652,6.889764,0,1.15026578484,2.16572841576,29,10,22.744,732.67601130652,26.24672,0.671082,1.21899282116,0,0,0.223694,3.1, 0.3, 1,0,0,1024,1024,1024,1024,0,0,0,0,0,0,0,69,,,,,,,6.756,106.52,732.34792730652,25.918636,6,P-GPS,
7800,2023-10-01 21:31:55,40.0688791477737,-88.2096670599624,25.918636,,,732.34792730652,6.889764,0,1.1221785136,2.19699482096,29,10,22.708,732.67601130652,26.24672,0.671082,1.21899282116,0,0,0.223694,3.1, 0.3, 0.9,0,0,1024,1024,1024,1024,0,0,0,0,0,0,0,68,,,,,,,7.491,106.52,732.34792730652,25.918636,6,P-GPS,
7900,2023-10-01 21:31:55,40.0688792775087,-88.2096670142668,25.918636,,,732.34792730652,6.889764,0,1.08729662272,2.24601713224,29,10,22.708,732.67601130652,26.24672,0.671082,1.21899282116,0,0,0.223694,3.1, 0.4, 1,0,0,1024,1024,1024,1024,0,0,0,0,0,0,0,68,,,,,,,7.491,106.52,732.34792730652,25.918636,6,P-GPS,
8000,2023-10-01 21:31:55,40.0688793525391,-88.2096669346478,25.918636,,,732.34792730652,6.889764,0,1.0545768054,2.28127960056,29,10,22.708,732.67601130652,26.24672,0.671082,1.21899282116,0,0,0.223694,3.1, 0.4, 1.1,0,0,1024,1024,1024,1024,0,0,0,0,0,0,0,68,,,,,,,7.491,106.52,732.34792730652,25.918636,6,P-GPS,
8100,2023-10-01 21:31:55,40.0688794171283,-88.2096668578484,25.918636,,,732.34792730652,6.889764,0,1.02451118764,2.31314311864,29,10,22.708,732.67601130652,26.24672,0.671082,1.21899282116,0,0,0,3.1, 0.3, 1.3,0,0,1024,1024,1024,1024,0,0,0,0,0,0,0,68,,,,,,,7.491,106.52,732.34792730652,25.918636,6,P-GPS,
8200,2023-10-01 21:31:55,40.068879481928,-88.2096668636786,25.918636,,,732.34792730652,6.889764,0,1.01504596424,2.33684062596,29,10,22.708,732.67601130652,26.24672,0.671082,1.21899282116,0,0,0,3.1, 0.2, 1.3,0,0,1024,1024,1024,1024,0,0,0,0,0,0,0,68,,,,,,,7.491,106.52,732.34792730652,25.918636,6,P-GPS,
8300,2023-10-01 21:31:56,40.0688795300938,-88.2096667827374,25.918636,,,732.34792730652,6.889764,0,0.986958693,2.3654692358,29,10,22.708,732.67601130652,26.24672,0.671082,1.21899282116,0,0,0,3.1, 0.3, 1.1,0,0,1024,1024,1024,1024,0,0,0,0,0,0,0,68,,,,,,,7.491,106.52,732.34792730652,25.918636,6,P-GPS,
8400,2023-10-01 21:31:56,40.0688795754423,-88.2096666978585,25.918636,,,732.34792730652,6.889764,0,0.95837273408,2.39437015536,29,10,22.708,732.67601130652,26.24672,0.671082,1.21899282116,0,0,0,3.1, 0.3, 0.9,0,0,1024,1024,1024,1024,0,0,0,0,0,0,0,68,,,,,,,7.491,106.52,732.34792730652,25.918636,6,P-GPS,
8500,2023-10-01 21:31:56,40.0688796227946,-88.2096665997348,25.918636,,,732.34792730652,6.889764,0,0.9261647278,2.42676188868,29,10,22.708,732.67601130652,26.24672,0.671082,1.21899282116,0,0,0,3.1, 0.3, 0.7,0,0,1024,1024,1024,1024,0,0,0,0,0,0,0,68,,,,,,,7.491,106.52,732.34792730652,25.918636,6,P-GPS,
8600,2023-10-01 21:31:56,40.0688796727314,-88.2096665398119,25.918636,,,732.34792730652,6.889764,0,0.90316932024,2.45149614144,29,10,22.708,732.67601130652,26.24672,0.671082,1.21899282116,0,0,0,3.1, 0.5, 0.5,0,0,1024,1024,1024,1024,0,0,0,0,0,0,0,68,,,,,,,7.491,106.52,732.34792730652,25.918636,6,P-GPS,
8700,2023-10-01 21:31:56,40.0688797324452,-88.2096664248475,25.590552,,,732.01984330652,6.889764,0,0.86483598568,2.49029207444,29,10,22.708,732.67601130652,26.24672,0.671082,1.21899282116,0,0,0,3.2, 0.4, 0.4,0,0,1024,1024,1024,1024,0,0,0,0,0,0,0,68,,,,,,,7.491,106.52,732.01984330652,25.590552,6,P-GPS,
8800,2023-10-01 21:31:56,40.0688797798693,-88.2096663397497,25.590552,,,732.01984330652,6.889764,0,0.83599412124,2.51968512,29,10,22.708,732.67601130652,26.24672,0.671082,1.21899282116,0,0,0,3.2, 0.3, 0.6,0,0,1024,1024,1024,1024,0,0,0,0,0,0,0,68,,,,,,,7.491,106.52,732.01984330652,25.590552,6,P-GPS,
8900,2023-10-01 21:31:56,40.0688798237568,-88.2096663457399,25.590552,,,732.01984330652,6.889764,0,0.83095147016,2.53578420188,29,10,22.676,732.67601130652,26.24672,0.671082,1.21899282116,0,0,0,3.2, 0.3, 0.9,0,0,1024,1024,1024,1024,0,0,0,0,0,0,0,68,,,,,,,8.784,106.52,732.01984330652,25.590552,6,P-GPS,
9000,2023-10-01 21:31:56,40.0688798487512,-88.2096663207425,25.590552,,,732.01984330652,6.889764,0,0.82091209976,2.54726714188,29,10,22.676,732.67601130652,26.24672,0.671082,1.21899282116,0,0,0,3.1, 0.5, 1.1,0,0,1024,1024,1024,1024,0,0,0,0,0,0,0,68,,,,,,,8.784,106.52,732.01984330652,25.590552,6,P-GPS,
9100,2023-10-01 21:31:56,40.0688798675583,-88.2096662874856,25.590552,,,732.01984330652,6.889764,0,0.80967522276,2.55881241784,29,10,22.676,732.67601130652,26.24672,0.671082,1.21899282116,0,0,0,3.1, 0.6, 1.2,0,0,1024,1024,1024,1024,0,0,0,0,0,0,0,68,,,,,,,8.784,106.52,732.01984330652,25.590552,6,P-GPS,
9200,2023-10-01 21:31:56,40.0688798790764,-88.2096662593994,25.590552,,,732.01984330652,6.889764,0,0.80081367392,2.56771005592,29,10,22.676,732.67601130652,26.24672,0.671082,1.21899282116,0,0,0,3.1, 0.4, 1,0,0,1024,1024,1024,1024,0,0,0,0,0,0,0,68,,,,,,,8.784,106.52,732.01984330652,25.590552,6,P-GPS,
9300,2023-10-01 21:31:57,40.068879871607,-88.2096663604426,25.590552,,,732.01984330652,6.889764,0,0.82788060392,2.59605323268,29,10,22.676,732.67601130652,26.24672,0.671082,1.21899282116,0,0,0,3.1, 0.1, 0.9,0,0,1024,1024,1024,1024,0,0,0,0,0,0,0,68,,,,,,,8.784,106.52,732.01984330652,25.590552,6,P-GPS,
9400,2023-10-01 21:31:57,40.0688798829401,-88.2096663200293,25.590552,,,732.01984330652,6.889764,0,0.81587272952,2.6080709496,29,10,22.676,732.67601130652,26.24672,0.671082,1.21899282116,0,0,0,3.2, 0.1, 0.8,0,0,1024,1024,1024,1024,0,0,0,0,0,0,0,68,,,,,,,8.784,106.52,732.01984330652,25.590552,6,P-GPS,
9500,2023-10-01 21:31:57,40.0688799009585,-88.209666277545,25.590552,,,732.01984330652,6.889764,0,0.80239831964,2.62163394216,29,10,22.676,732.67601130652,26.24672,0.671082,1.21899282116,0,0,0,3.2, 0.1, 0.6,0,0,1024,1024,1024,1024,0,0,0,0,0,0,0,68,,,,,,,8.784,106.52,732.01984330652,25.590552,6,P-GPS,
9600,2023-10-01 21:31:57,40.0688799210046,-88.2096663599825,25.590552,,,732.01984330652,6.889764,0,0.82103677168,2.6457842054,29,10,22.676,732.67601130652,26.24672,0.671082,1.21899282116,0,0,0,3.2, 0.1, 0.6,0,0,1024,1024,1024,1024,0,0,0,0,0,0,0,68,,,,,,,8.784,106.52,732.01984330652,25.590552,6,P-GPS,
9700,2023-10-01 21:31:57,40.068879943792,-88.2096663431078,25.590552,,,732.01984330652,6.889764,0,0.81364832,2.65534129232,29,10,22.676,732.67601130652,26.24672,0.671082,1.21899282116,0,0,0,3.2, 0.1, 0.7,0,0,1024,1024,1024,1024,0,0,0,0,0,0,0,68,,,,,,,8.784,106.52,732.01984330652,25.590552,6,P-GPS,
9800,2023-10-01 21:31:57,40.068879976021,-88.2096663262479,25.590552,,,732.01984330652,6.889764,0,0.80511157432,2.66800533472,29,10,22.676,732.67601130652,26.24672,0.671082,1.21899282116,0,0,0,3.2, 0.3, 0.9,0,0,1024,1024,968,1024,0,0,-8,0,0,0,0,68,,,,,,,8.784,106.52,732.01984330652,25.590552,6,P-GPS,
9900,2023-10-01 21:31:57,40.0688800257823,-88.20966629875,25.590552,,,732.01984330652,6.889764,0,0.79175855552,2.68771662144,29,10,22.665,732.67601130652,26.24672,0.671082,1.21899282116,0,0,0,3.2, 0.4, 1,0,0,1024,1024,968,1024,0,0,-8,0,0,0,0,68,,,,,,,8.722,106.52,732.01984330652,25.590552,6,P-GPS,
10000,2023-10-01 21:31:57,40.0688800947041,-88.2096663314679,25.590552,,,732.01984330652,6.889764,0,0.79257220384,2.71447187164,29,10,22.665,732.67601130652,26.24672,0.671082,1.21899282116,0,0,0,3.2, 0.3, 1.1,0,0,1024,1024,703,1024,0,0,-49,0,0,0,0,68,,,,,,,8.722,106.52,732.01984330652,25.590552,6,P-GPS,
10100,2023-10-01 21:31:57,40.068880143878,-88.2096663039206,25.590552,,,732.01984330652,6.889764,0,0.78004595672,2.73399286964,29,10,22.665,732.67601130652,26.24672,0.671082,1.21899282116,0,0,0.447388,3.3, 0, 1.2,0,0,1024,1024,1024,1024,0,0,0,0,0,0,0,68,,,,,,,8.722,106.52,732.01984330652,25.590552,6,P-GPS,
10200,2023-10-01 21:31:57,40.0688801926907,-88.209666284263,25.262468,,,731.69175930652,6.889764,0,0.76997049708,2.75262804084,29,10,22.665,732.67601130652,26.24672,0.671082,1.21899282116,0,0,0.894776,3.2, 0.2, 1.3,0,0,1024,1024,1024,1024,0,0,0,0,0,0,0,68,,,,,,,8.722,106.52,731.69175930652,25.262468,6,P-GPS,
10300,2023-10-01 21:31:57,40.0688802698136,-88.2096663634635,25.262468,,,731.69175930652,6.889764,0,0.78473427708,2.78841544356,29,10,22.665,732.67601130652,26.24672,0.671082,1.21899282116,0,0,0.671082,3.2, 0.7, 1.2,0,0,1024,1024,717,1024,0,0,-47,0,0,0,0,68,,,,,,,8.722,106.52,731.69175930652,25.262468,6,P-GPS,
10400,2023-10-01 21:31:58,40.0688803103783,-88.2096663203332,25.262468,,,731.69175930652,6.889764,0,0.76984254432,2.807496809,29,10,22.665,732.67601130652,26.24672,0.671082,1.21899282116,0,0,0.447388,3.2, 0.7, 0.7,0,0,1024,1024,711,1024,0,0,-47,0,0,0,0,68,,,,,,,8.722,106.52,731.69175930652,25.262468,6,P-GPS,
10500,2023-10-01 21:31:58,40.0688803502973,-88.2096662860286,24.934384,,,731.36367530652,6.889764,0,0.75760501112,2.82492791192,29,10,22.665,732.67601130652,26.24672,0.671082,1.21899282116,0,0,0.671082,3.3, 0.3, 0.6,0,0,1024,1024,1024,1024,0,0,0,0,0,0,0,68,,,,,,,8.722,106.52,731.36367530652,24.934384,6,P-GPS,
10600,2023-10-01 21:31:58,40.06888040771,-88.2096662526044,24.934384,,,731.36367530652,6.889764,0,0.74475396084,2.84786098352,29,10,22.665,732.67601130652,26.24672,0.671082,1.21899282116,0,0,1.11847,3.2, 0.2, 1,0,0,1024,1024,1019,1024,0,0,-1,0,0,0,0,68,,,,,,,8.722,106.52,731.36367530652,24.934384,6,P-GPS,
10700,2023-10-01 21:31:58,40.0688805220673,-88.2096662682064,24.6063,,,731.03559130652,6.889764,0,0.7434547482,2.88980980376,29,10,22.665,732.67601130652,26.24672,0.671082,1.21899282116,0,0,0.671082,3.2, 0.7, 1.3,0,0,1024,1024,776,1024,0,0,-38,0,0,0,0,68,,,,,,,8.722,106.52,731.03559130652,24.6063,6,P-GPS,
10800,2023-10-01 21:31:58,40.0688805526216,-88.2096662269253,24.6063,,,731.03559130652,6.889764,0,0.7308727268,2.90584326884,29,10,22.665,732.67601130652,26.24672,0.671082,1.21899282116,0,0,0.671082,3.2, 0.9, 1.3,0,0,1024,1024,844,1024,0,0,-27,0,0,0,0,68,,,,,,,8.722,106.52,731.03559130652,24.6063,6,P-GPS,
10900,2023-10-01 21:31:58,40.0688805335956,-88.2096662336713,24.6063,,,731.03559130652,6.889764,0,0.73342850116,2.91303815096,29,10,22.496,732.67601130652,26.24672,0.671082,1.21899282116,0,0,0.671082,3.2, 0.5, 1.1,0,0,1024,1024,844,1024,0,0,-27,0,0,0,0,68,,,,,,,8.423,106.52,731.03559130652,24.6063,6,P-GPS,
11000,2023-10-01 21:31:58,40.0688805461466,-88.2096663747989,24.278216,,,730.70750730652,6.889764,0,0.77220474912,2.9527067874,29,10,22.496,732.67601130652,26.24672,0.671082,1.21899282116,0,0,0.894776,3.2, 0.6, 1,0,0,1024,1024,880,1024,0,0,-22,0,0,0,0,68,,,,,,,8.423,106.52,730.70750730652,24.278216,6,P-GPS,
11100,2023-10-01 21:31:58,40.0688805963513,-88.2096663260904,24.278216,,,730.70750730652,6.889764,0,0.75718178276,2.97552174876,29,10,22.496,732.67601130652,26.24672,0.671082,1.21899282116,0,0,0.447388,3.2, 0.9, 0.8,0,0,1024,1024,634,1024,0,0,-59,0,0,0,0,68,,,,,,,8.423,106.52,730.70750730652,24.278216,6,P-GPS,
11200,2023-10-01 21:31:58,40.0688806157118,-88.2096662876989,24.278216,,,730.70750730652,6.889764,0,0.74602692676,2.98835639484,29,10,22.496,732.67601130652,26.24672,0.671082,1.21899282116,0,0,0.447388,3.3, 0.6, 0.7,0,0,1024,1024,634,1024,0,0,-59,0,0,0,0,68,,,,,,,8.423,106.52,730.70750730652,24.278216,6,P-GPS,
11300,2023-10-01 21:31:58,40.0688806152505,-88.2096662563627,23.950132,,,730.37942330652,6.889764,0,0.73730645404,2.99710967596,29,10,22.496,732.67601130652,26.24672,0.671082,1.21899282116,0,0,0.894776,3.3, 0.2, 0.8,0,0,1024,1024,634,1024,0,0,-59,0,0,0,0,68,,,,,,,8.423,106.52,730.37942330652,23.950132,6,P-GPS,
11400,2023-10-01 21:31:59,40.0688806365967,-88.209666304388,23.950132,,,730.37942330652,6.889764,0,0.75025921036,3.0126149258,29,10,22.496,732.67601130652,26.24672,0.671082,1.21899282116,0,0,0.671082,3.3, 0.5, 1,0,0,1024,1024,750,1024,0,0,-42,0,0,0,0,68,,,,,,,8.423,106.52,730.37942330652,23.950132,6,P-GPS,
11500,2023-10-01 21:31:59,40.0688806709465,-88.2096662973297,23.622048,,,730.05133930652,6.889764,0,0.7477690528,3.02530193408,29,10,22.496,732.67601130652,26.24672,0.671082,1.21899282116,0,0,0.447388,3.3, 0.5, 1,0,0,1024,1024,639,1024,0,0,-58,0,0,0,0,68,,,,,,,8.423,106.52,730.05133930652,23.622048,6,P-GPS,
11600,2023-10-01 21:31:59,40.0688806905838,-88.2096662807059,23.622048,,,730.05133930652,6.889764,0,0.74292653296,3.03383867976,29,10,22.496,732.67601130652,26.24672,0.671082,1.21899282116,0,0,0.671082,3.4, 0.3, 1.2,0,0,1024,1024,1024,1024,0,0,0,0,0,0,0,68,,,,,,,8.423,106.52,730.05133930652,23.622048,6,P-GPS,
11700,2023-10-01 21:31:59,40.0688807575621,-88.2096663818706,23.622048,,,730.05133930652,6.889764,0,0.77098755748,3.07118776232,29,10,22.496,732.67601130652,26.24672,0.671082,1.21899282116,0,0,1.11847,3.4, 0.4, 1.7,0,0,1024,1024,923,1024,0,0,-15,0,0,0,0,68,,,,,,,8.423,106.52,730.05133930652,23.622048,6,P-GPS,
11800,2023-10-01 21:31:59,40.0688807931037,-88.2096663493886,23.293964,,,729.72325530652,6.889764,0,0.76214569368,3.08701125364,29,10,22.496,732.67601130652,26.24672,0.671082,1.21899282116,0,0,0.894776,3.3, 1, 2,0,0,1024,1024,593,1024,0,0,-65,0,0,0,0,68,,,,,,,8.423,106.52,729.72325530652,23.293964,6,P-GPS,
11900,2023-10-01 21:31:59,40.0688808531068,-88.2096662667107,23.293964,,,729.72325530652,6.889764,0,0.73997377696,3.11882555912,29,10,22.496,732.67601130652,26.24672,0.671082,1.21899282116,0,0,0.671082,3.3, 0.9, 1.6,0,0,1024,1024,620,1024,0,0,-61,0,0,0,0,68,,,,,,,8.423,106.52,729.72325530652,23.293964,6,P-GPS,
12000,2023-10-01 21:31:59,40.0688808919807,-88.2096661965793,22.96588,,,729.39517130652,6.889764,0,0.72138125668,3.14300534992,29,10,22.679,732.67601130652,26.24672,0.671082,1.21899282116,0,0,1.11847,3.3, 0.3, 1.2,0,0,1024,1024,883,1024,0,0,-21,0,0,0,0,68,,,,,,,9.533,106.52,729.39517130652,22.96588,6,P-GPS,
12100,2023-10-01 21:31:59,40.0688809809971,-88.2096661948851,22.96588,,,729.39517130652,6.889764,0,0.7241470048,3.17548566592,29,10,22.679,732.67601130652,26.24672,0.671082,1.21899282116,0,0,1.565858,3.4, 0.2, 1.4,0,0,1024,1024,933,1024,0,0,-14,0,0,0,0,68,,,,,,,9.533,106.52,729.39517130652,22.96588,6,P-GPS,
12200,2023-10-01 21:31:59,40.0688809934055,-88.2096661215941,22.637796,,,729.06708730652,6.889764,0,0.70442259472,3.19644367184,29,10,22.679,732.67601130652,26.24672,0.671082,1.21899282116,0,0,1.11847,3.4, 0.4, 1.2,0,0,1024,1024,933,1024,0,0,-14,0,0,0,0,68,,,,,,,9.533,106.52,729.06708730652,22.637796,6,P-GPS,
12300,2023-10-01 21:32:00,40.0688810062112,-88.2096660298245,22.637796,,,729.06708730652,6.889764,0,0.67968506112,3.2224902606,29,10,22.679,732.67601130652,26.24672,0.671082,1.21899282116,0,0,0.894776,3.4, 0.6, 0.6,0,0,1024,1024,933,1024,0,0,-14,0,0,0,0,68,,,,,,,9.533,106.52,729.06708730652,22.637796,6,P-GPS,
12400,2023-10-01 21:32:00,40.068881035436,-88.2096660079076,22.309712,,,728.73900330652,0.984252,0,0.67525264628,3.23478356808,29,10,22.679,732.67601130652,26.24672,0.671082,1.21899282116,0,0,0.671082,3.4, 0.5, 0.3,0,0,1024,1024,1024,1024,0,0,0,0,0,0,0,68,,,,,,,9.533,106.52,728.73900330652,22.309712,6,P-GPS,
12500,2023-10-01 21:32:00,40.068881023065,-88.2096659272414,22.309712,,,728.73900330652,0.656168,0,0.65229988964,3.25775272892,29,10,22.679,732.67601130652,26.24672,0.671082,1.21899282116,0,0,0.447388,3.3, 0.5, 0.6,0,0,1024,1024,1024,1024,0,0,0,0,0,0,0,68,,,,,,,9.533,106.52,728.73900330652,22.309712,6,P-GPS,
12600,2023-10-01 21:32:00,40.0688810063221,-88.2096658495021,21.981628,,,728.41091930652,0.984252,0,0.6299048758,3.28030194224,29,10,22.679,732.67601130652,26.24672,0.671082,1.21899282116,0,0,0.223694,3.3, 0.4, 1.1,0,0,1024,1024,1024,1024,0,0,0,0,0,0,0,68,,,,,,,9.533,106.52,728.41091930652,21.981628,6,P-GPS,
12700,2023-10-01 21:32:00,40.0688809935351,-88.2096657633834,21.981628,,,728.41091930652,1.312336,0,0.60542652856,3.304790132,29,10,22.679,732.67601130652,26.24672,0.671082,1.21899282116,0,0,0.223694,3.2, 0.4, 1.3,0,0,1024,1024,1024,1024,0,0,0,0,0,0,0,68,,,,,,,9.533,106.52,728.41091930652,21.981628,6,P-GPS,
12800,2023-10-01 21:32:00,40.0688809860561,-88.2096657321566,21.981628,,,728.41091930652,0.984252,0,0.59639437604,3.3139436756,29,10,22.679,732.67601130652,26.24672,0.671082,1.21899282116,0,0,0,3.2, 0.3, 1.2,0,0,1024,1024,1024,1024,0,0,0,0,0,0,0,68,,,,,,,9.533,106.52,728.41091930652,21.981628,6,P-GPS,
12900,2023-10-01 21:32:00,40.0688809494464,-88.2096657051886,21.981628,,,728.41091930652,1.312336,0,0.5870571054,3.3292651984,29,10,22.679,732.67601130652,26.24672,0.671082,1.21899282116,0,0,0,3.2, 0.3, 0.9,0,0,1024,1024,1024,1024,0,0,0,0,0,0,0,68,,,,,,,9.533,106.52,728.41091930652,21.981628,6,P-GPS,
13000,2023-10-01 21:32:00,40.0688809193409,-88.2096656632683,21.981628,,,728.41091930652,1.312336,0,0.57409450656,3.345308506,29,10,22.624,732.67601130652,26.24672,0.671082,1.21899282116,0,0,0,3.3, 0.2, 0.6,0,0,1024,1024,1024,1024,0,0,0,0,0,0,0,68,,,,,,,9.624,106.52,728.41091930652,21.981628,6,P-GPS,
13100,2023-10-01 21:32:00,40.0688808911308,-88.2096657555228,21.981628,,,728.41091930652,1.64042,0,0.59865159396,3.3730644124,29,10,22.624,732.67601130652,26.24672,0.671082,1.21899282116,0,0,0,3.4, 0, 0.5,0,0,1024,1024,1024,1024,0,0,0,0,0,0,0,68,,,,,,,9.624,106.52,728.41091930652,21.981628,6,P-GPS,
13200,2023-10-01 21:32:00,40.0688808864018,-88.2096656861495,21.981628,,,728.41091930652,1.312336,0,0.57920277444,3.3924869852,29,10,22.624,732.67601130652,26.24672,0.671082,1.21899282116,0,0,0,3.4, 0, 0.5,0,0,1024,1024,1024,1024,0,0,0,0,0,0,0,68,,,,,,,9.624,106.52,728.41091930652,21.981628,6,P-GPS,
13300,2023-10-01 21:32:01,40.0688809054466,-88.2096655999254,21.981628,,,728.41091930652,0.328084,0,0.55595146136,3.4175526028,29,10,22.624,732.67601130652,26.24672,0.671082,1.21899282116,0,0,0,3.5, 0.2, 0.7,0,0,1024,1024,1013,1024,0,0,-2,0,0,0,0,68,,,,,,,9.624,106.52,728.41091930652,21.981628,6,P-GPS,
13400,2023-10-01 21:32:01,40.0688809307365,-88.2096655175176,21.981628,,,728.41091930652,0,0,0.53421589636,3.4423557532,29,10,22.624,732.67601130652,26.24672,0.671082,1.21899282116,0,0,0,3.5, 0.4, 0.6,0,0,1024,1024,956,1024,0,0,-10,0,0,0,0,68,,,,,,,9.624,106.52,728.41091930652,21.981628,6,P-GPS,
13500,2023-10-01 21:32:01,40.0688810146,-88.2096655092556,21.981628,,,728.41091930652,0,0,0.53680775996,3.4730316072,29,10,22.624,732.67601130652,26.24672,0.671082,1.21899282116,0,0,0,3.6, 0.5, 0.3,0,0,1024,1024,956,1024,0,0,-10,0,0,0,0,68,,,,,,,9.624,106.52,728.41091930652,21.981628,6,P-GPS,
13600,2023-10-01 21:32:01,40.0688810414117,-88.2096654415441,21.981628,,,728.41091930652,0,0,0.52023295628,3.4943242588,29,10,22.624,732.67601130652,26.24672,0.671082,1.21899282116,0,0,0,3.6, 0.5, 0.2,0,0,1024,1024,919,1024,0,0,-16,0,0,0,0,68,,,,,,,9.624,106.52,728.41091930652,21.981628,6,P-GPS,
13700,2023-10-01 21:32:01,40.0688810661914,-88.2096653856066,21.981628,,,728.41091930652,0.328084,0,0.50703085612,3.5123688788,29,10,22.624,732.67601130652,26.24672,0.671082,1.21899282116,0,0,0,3.5, 0.6, 0.3,0,0,1024,1024,927,1024,0,0,-15,0,0,0,0,68,,,,,,,9.624,106.52,728.41091930652,21.981628,6,P-GPS,
13800,2023-10-01 21:32:01,40.068881136498,-88.2096654347472,21.981628,,,728.41091930652,0.328084,0,0.52685041056,3.5414699296,29,10,22.624,732.67601130652,26.24672,0.671082,1.21899282116,0,0,0,3.4, 0.7, 0.2,0,0,1024,1024,933,1024,0,0,-14,0,0,0,0,68,,,,,,,9.624,106.52,728.41091930652,21.981628,6,P-GPS,
13900,2023-10-01 21:32:01,40.0688811697712,-88.2096653985408,21.981628,,,728.41091930652,0.656168,0,0.520669308,3.55725077,29,10,22.624,732.67601130652,26.24672,0.671082,1.21899282116,0,0,0,3.3, 0.7, 0.2,0,0,1024,1024,930,1024,0,0,-14,0,0,0,0,68,,,,,,,9.624,106.52,728.41091930652,21.981628,6,P-GPS,
14000,2023-10-01 21:32:01,40.0688812044172,-88.209665374363,21.981628,,,728.41091930652,0.984252,0,0.5182414864,3.5715880408,29,10,22.628,732.67601130652,26.24672,0.671082,1.21899282116,0,0,0,3.3, 0.8, 0.6,0,0,1024,1024,930,1024,0,0,-14,0,0,0,0,68,,,,,,,8.498,106.52,728.41091930652,21.981628,6,P-GPS,
14100,2023-10-01 21:32:01,40.0688812421961,-88.2096653526291,21.981628,,,728.41091930652,1.312336,0,0.51723754936,3.5866470964,29,10,22.628,732.67601130652,26.24672,0.671082,1.21899282116,0,0,0,3.2, 1, 0.9,0,0,1024,1024,930,1024,0,0,-14,0,0,0,0,68,,,,,,,8.498,106.52,728.41091930652,21.981628,6,P-GPS,
14200,2023-10-01 21:32:01,40.068881306419,-88.2096653733044,21.981628,,,728.41091930652,0.984252,0,0.53132219548,3.6107612704,29,10,22.628,732.67601130652,26.24672,0.671082,1.21899282116,0,0,0,3.2, 1.1, 1,0,0,1024,1024,937,1024,0,0,-13,0,0,0,0,68,,,,,,,8.498,106.52,728.41091930652,21.981628,6,P-GPS,
14300,2023-10-01 21:32:01,40.0688813420979,-88.2096653289667,21.981628,,,728.41091930652,1.312336,0,0.52525920316,3.6287402736,29,10,22.628,732.67601130652,26.24672,0.671082,1.21899282116,0,0,0,3.2, 1.3, 1,0,0,1024,1024,944,1024,0,0,-12,0,0,0,0,68,,,,,,,8.498,106.52,728.41091930652,21.981628,6,P-GPS,
14400,2023-10-01 21:32:02,40.0688813667668,-88.2096652857458,21.981628,,,728.41091930652,1.64042,0,0.51823820556,3.6437993292,29,10,22.628,732.67601130652,26.24672,0.671082,1.21899282116,0,0,0,3.2, 1.6, 0.9,0,0,1024,1024,944,1024,0,0,-12,0,0,0,0,68,,,,,,,8.498,106.52,728.41091930652,21.981628,6,P-GPS,
14500,2023-10-01 21:32:02,40.0688814202004,-88.2096653333734,21.981628,,,728.41091930652,0.984252,0,0.53890749756,3.6673885688,29,10,22.628,732.67601130652,26.24672,0.671082,1.21899282116,0,0,0,3.3, 1.9, 0.7,0,0,1024,1024,943,1024,0,0,-12,0,0,0,0,68,,,,,,,8.498,106.52,728.41091930652,21.981628,6,P-GPS,
14600,2023-10-01 21:32:02,40.068881422325,-88.2096652871359,21.981628,,,728.41091930652,0.984252,0,0.52785106676,3.6803150784,29,10,22.628,732.67601130652,26.24672,0.671082,1.21899282116,0,0,0,3.3, 1.8, 0.5,0,0,1024,1024,940,1024,0,0,-13,0,0,0,0,68,,,,,,,8.498,106.52,728.41091930652,21.981628,6,P-GPS,
14700,2023-10-01 21:32:02,40.0688814199559,-88.2096652257637,21.981628,,,728.41091930652,0.984252,0,0.51238846784,3.6974738716,29,10,22.628,732.67601130652,26.24672,0.671082,1.21899282116,0,0,0,3.3, 1.6, 0.4,0,0,1024,1024,940,1024,0,0,-13,0,0,0,0,68,,,,,,,8.498,106.52,728.41091930652,21.981628,6,P-GPS,
14800,2023-10-01 21:32:02,40.0688814070399,-88.2096651766917,21.981628,,,728.41091930652,1.312336,0,0.49812665636,3.7119751844,29,10,22.628,732.67601130652,26.24672,0.671082,1.21899282116,0,0,0,3.3, 1.4, 0.3,0,0,1024,1024,909,1024,0,0,-17,0,0,0,0,68,,,,,,,8.498,106.52,728.41091930652,21.981628,6,P-GPS,
14900,2023-10-01 21:32:02,40.0688814390314,-88.2096652430929,21.981628,,,728.41091930652,1.64042,0,0.52000985916,3.7338911956,29,10,22.628,732.67601130652,26.24672,0.671082,1.21899282116,0,0,0,3.2, 1.3, 0.2,0,0,1024,1024,890,1024,0,0,-20,0,0,0,0,68,,,,,,,8.498,106.52,728.41091930652,21.981628,6,P-GPS,
15000,2023-10-01 21:32:02,40.0688814110449,-88.2096652200341,21.981628,,,728.41091930652,1.64042,0,0.50941930764,3.7459646868,29,10,22.618,732.67601130652,26.24672,0.671082,1.21899282116,0,0,0,3.2, 1.1, 0.2,0,0,1024,1024,923,1024,0,0,-15,0,0,0,0,68,,,,,,,8.453,106.52,728.41091930652,21.981628,6,P-GPS,
15100,2023-10-01 21:32:02,40.0688813786408,-88.2096651952183,21.981628,,,728.41091930652,1.968504,0,0.49770670884,3.7596457896,29,10,22.618,732.67601130652,26.24672,0.671082,1.21899282116,0,0,0,3.2, 1, 0.2,0,0,1024,1024,923,1024,0,0,-15,0,0,0,0,68,,,,,,,8.453,106.52,728.41091930652,21.981628,6,P-GPS,
15200,2023-10-01 21:32:02,40.0688813966379,-88.2096652734658,21.981628,,,728.41091930652,2.296588,0,0.52010172268,3.782480436,29,10,22.618,732.67601130652,26.24672,0.671082,1.21899282116,0,0,0,3.2, 1, 0.2,0,0,1024,1024,929,1024,0,0,-14,0,0,0,0,68,,,,,,,8.453,106.52,728.41091930652,21.981628,6,P-GPS,
15300,2023-10-01 21:32:02,40.0688813699325,-88.2096652440076,21.981628,,,728.41091930652,2.624672,0,0.5083333496,3.7952100952,29,10,22.618,732.67601130652,26.24672,0.671082,1.21899282116,0,0,0,3.2, 1, 0.2,0,0,1024,1024,930,1024,0,0,-14,0,0,0,0,68,,,,,,,8.453,106.52,728.41091930652,21.981628,6,P-GPS,
15400,2023-10-01 21:32:03,40.0688813440777,-88.2096652183504,21.981628,,,728.41091930652,0.984252,0,0.49770014716,3.8070539276,29,10,22.618,732.67601130652,26.24672,0.671082,1.21899282116,0,0,0,3.2, 0.9, 0.3,0,0,1024,1024,924,1024,0,0,-15,0,0,0,0,68,,,,,,,8.453,106.52,728.41091930652,21.981628,6,P-GPS,
15500,2023-10-01 21:32:03,40.068881317706,-88.2096651925781,21.981628,,,728.41091930652,0.984252,0,0.48701445128,3.8190946104,29,10,22.618,732.67601130652,26.24672,0.671082,1.21899282116,0,0,0,3.2, 0.8, 0.3,0,0,1024,1024,924,1024,0,0,-15,0,0,0,0,68,,,,,,,8.453,106.52,728.41091930652,21.981628,6,P-GPS,
15600,2023-10-01 21:32:03,40.0688813178624,-88.2096652294442,21.981628,,,728.41091930652,1.312336,0,0.49633531772,3.8293636396,29,10,22.618,732.67601130652,26.24672,0.671082,1.21899282116,0,0,0,3.2, 0.8, 0.2,0,0,1024,1024,918,1024,0,0,-16,0,0,0,0,68,,,,,,,8.453,106.52,728.41091930652,21.981628,6,P-GPS,
15700,2023-10-01 21:32:03,40.0688812828103,-88.2096651978637,21.981628,,,728.41091930652,1.64042,0,0.48297901808,3.8449148212,29,10,22.618,732.67601130652,26.24672,0.671082,1.21899282116,0,0,0,3.2, 0.7, 0.2,0,0,1024,1024,910,1024,0,0,-17,0,0,0,0,68,,,,,,,8.453,106.52,728.41091930652,21.981628,6,P-GPS,
15800,2023-10-01 21:32:03,40.0688812565438,-88.2096651600415,21.981628,,,728.41091930652,2.296588,0,0.46943571056,3.8591536668,29,10,22.618,732.67601130652,26.24672,0.671082,1.21899282116,0,0,0,3.2, 0.5, 0.1,0,0,1024,1024,914,1024,0,0,-17,0,0,0,0,68,,,,,,,8.453,106.52,728.41091930652,21.981628,6,P-GPS,
15900,2023-10-01 21:32:03,40.0688812948543,-88.2096652075555,21.981628,,,728.41091930652,1.968504,0,0.48726051428,3.878445006,29,10,22.618,732.67601130652,26.24672,0.671082,1.21899282116,0,0,0,3.2, 0.4, 0.1,0,0,1024,1024,914,1024,0,0,-17,0,0,0,0,68,,,,,,,8.453,106.52,728.41091930652,21.981628,6,P-GPS,
16000,2023-10-01 21:32:03,40.0688812881791,-88.2096651611528,21.981628,,,728.41091930652,1.968504,0,0.4744750808,3.8916339828,29,10,22.6115,732.67601130652,26.24672,0.671082,1.21899282116,0,0,0,3.2, 0.6, 0.1,0,0,1024,1024,943,1024,0,0,-12,0,0,0,0,67,,,,,,,8.437,106.52,728.41091930652,21.981628,6,P-GPS,
16100,2023-10-01 21:32:03,40.068881279217,-88.2096651112649,21.981628,,,728.41091930652,1.968504,0,0.46047573652,3.9059384452,29,10,22.6115,732.67601130652,26.24672,0.671082,1.21899282116,0,0,0,3.3, 0.8, 0.1,0,0,1024,1024,933,1024,0,0,-14,0,0,0,0,67,,,,,,,8.437,106.52,728.41091930652,21.981628,6,P-GPS,
16200,2023-10-01 21:32:03,40.0688812715703,-88.2096650631419,21.981628,,,728.41091930652,1.64042,0,0.44715224528,3.9196523564,29,10,22.6115,732.67601130652,26.24672,0.671082,1.21899282116,0,0,0,3.2, 0.9, 0,0,0,1024,1024,926,1024,0,0,-15,0,0,0,0,67,,,,,,,8.437,106.52,728.41091930652,21.981628,6,P-GPS,
16300,2023-10-01 21:32:04,40.0688813170233,-88.2096651096558,21.981628,,,728.41091930652,1.64042,0,0.46614502804,3.9407153492,29,10,22.6115,732.67601130652,26.24672,0.671082,1.21899282116,0,0,0,3.2, 0.9, 0.1,0,0,1024,1024,906,1024,0,0,-18,0,0,0,0,67,,,,,,,8.437,106.52,728.41091930652,21.981628,6,P-GPS,
16400,2023-10-01 21:32:04,40.0688813049912,-88.2096650661763,21.981628,,,728.41091930652,1.64042,0,0.45333334784,3.9536090504,29,10,22.6115,732.67601130652,26.24672,0.671082,1.21899282116,0,0,0,3.2, 0.8, 0.2,0,0,1024,1024,850,1024,0,0,-26,0,0,0,0,67,,,,,,,8.437,106.52,728.41091930652,21.981628,6,P-GPS,
16500,2023-10-01 21:32:04,40.0688812832158,-88.2096650159656,21.981628,,,728.41091930652,1.968504,0,0.4372375468,3.9697507832,29,10,22.6115,732.67601130652,26.24672,0.671082,1.21899282116,0,0,0,3.2, 0.8, 0.3,0,0,1024,1024,802,1024,0,0,-34,0,0,0,0,67,,,,,,,8.437,106.52,728.41091930652,21.981628,6,P-GPS,
16600,2023-10-01 21:32:04,40.0688812954963,-88.2096650742306,21.981628,,,728.41091930652,1.64042,0,0.45377954208,3.9866143008,29,10,22.6115,732.67601130652,26.24672,0.671082,1.21899282116,0,0,0,3.2, 0.7, 0.5,0,0,1024,1024,829,1024,0,0,-30,0,0,0,0,68,,,,,,,8.437,106.52,728.41091930652,21.981628,6,P-GPS,
16700,2023-10-01 21:32:04,40.068881271641,-88.2096650356202,21.981628,,,728.41091930652,1.312336,0,0.44025263876,4.0004594456,29,10,22.6115,732.67601130652,26.24672,0.671082,1.21899282116,0,0,0,3.2, 0.7, 0.5,0,0,1024,1024,824,1024,0,0,-30,0,0,0,0,68,,,,,,,8.437,106.52,728.41091930652,21.981628,6,P-GPS,
16800,2023-10-01 21:32:04,40.0688812482963,-88.2096649962138,21.981628,,,728.41091930652,0.984252,0,0.42663059108,4.0143702072,29,10,22.6115,732.67601130652,26.24672,0.671082,1.21899282116,0,0,0,3.1, 0.8, 0.3,0,0,1024,1024,827,1024,0,0,-30,0,0,0,0,68,,,,,,,8.437,106.52,728.41091930652,21.981628,6,P-GPS,
16900,2023-10-01 21:32:04,40.0688812199533,-88.2096649568665,21.981628,,,728.41091930652,0.984252,0,0.41226379272,4.0294620712,29,10,22.6115,732.67601130652,26.24672,0.671082,1.21899282116,0,0,0,3.2, 1, 0,0,0,1024,1024,827,1024,0,0,-30,0,0,0,0,68,,,,,,,8.437,106.52,728.41091930652,21.981628,6,P-GPS,
17000,2023-10-01 21:32:04,40.0688812087211,-88.2096649940033,21.981628,,,728.41091930652,0.984252,0,0.4199803284,4.0406169272,29,10,22.6115,732.67601130652,26.24672,0.671082,1.21899282116,0,0,0,3.2, 1, 0,0,0,1024,1024,827,1024,0,0,-30,0,0,0,0,68,,,,,,,8.437,106.52,728.41091930652,21.981628,6,P-GPS,
17100,2023-10-01 21:32:04,40.0688811863596,-88.209664950888,21.981628,,,728.41091930652,1.64042,0,0.40566930432,4.0551510484,29,10,22.6115,732.67601130652,26.24672,0.671082,1.21899282116,0,0,0,3.2, 1, -0.1,0,0,1024,1024,831,1024,0,0,-29,0,0,0,0,68,,,,,,,8.437,106.52,728.41091930652,21.981628,6,P-GPS,
17200,2023-10-01 21:32:04,40.0688811639287,-88.2096649167591,21.981628,,,728.41091930652,1.312336,0,0.39367127244,4.0677166656,29,10,22.6115,732.67601130652,26.24672,0.671082,1.21899282116,0,0,0,3.2, 0.9, 0,0,0,1024,1024,831,1024,0,0,-29,0,0,0,0,68,,,,,,,8.437,106.52,728.41091930652,21.981628,6,P-GPS,
17300,2023-10-01 21:32:04,40.0688811883968,-88.2096649825999,21.981628,,,728.41091930652,1.312336,0,0.41408465892,4.0881562988,29,10,22.6115,732.67601130652,26.24672,0.671082,1.21899282116,0,0,0,3.1, 0.8, 0.3,0,0,1024,1024,831,1024,0,0,-29,0,0,0,0,68,,,,,,,8.437,106.52,728.41091930652,21.981628,6,P-GPS,
17400,2023-10-01 21:32:05,40.0688811660541,-88.2096649548051,21.981628,,,728.41091930652,1.64042,0,0.4037565746,4.09940958,29,10,22.6115,732.67601130652,26.24672,0.671082,1.21899282116,0,0,0,3.1, 0.7, 0.3,0,0,1024,1024,830,1024,0,0,-29,0,0,0,0,68,,,,,,,8.437,106.52,728.41091930652,21.981628,6,P-GPS,
17500,2023-10-01 21:32:05,40.0688811442275,-88.209664925023,21.981628,,,728.41091930652,1.312336,0,0.39303478948,4.1109253284,29,10,22.6115,732.67601130652,26.24672,0.671082,1.21899282116,0,0,0,3.1, 0.6, 0.2,0,0,1024,1024,842,1024,0,0,-28,0,0,0,0,68,,,,,,,8.437,106.52,728.41091930652,21.981628,6,P-GPS,
17600,2023-10-01 21:32:05,40.068881119981,-88.2096648819241,21.981628,,,728.41091930652,1.312336,0,0.3785761276,4.1258531504,29,10,22.6115,732.67601130652,26.24672,0.671082,1.21899282116,0,0,0,3.2, 0.6, 0,0,0,1024,1024,841,1024,0,0,-28,0,0,0,0,68,,,,,,,8.437,106.52,728.41091930652,21.981628,6,P-GPS,
17700,2023-10-01 21:32:05,40.068881159496,-88.2096649528592,21.981628,,,728.41091930652,1.312336,0,0.40233597088,4.1503610252,29,10,22.6115,732.67601130652,26.24672,0.671082,1.21899282116,0,0,0,3.2, 0.7, 0,0,0,1024,1024,841,1024,0,0,-28,0,0,0,0,68,,,,,,,8.437,106.52,728.41091930652,21.981628,6,P-GPS,
17800,2023-10-01 21:32:05,40.0688811513327,-88.2096649278006,21.981628,,,728.41091930652,1.64042,0,0.3947342646,4.157972574,29,10,22.6115,732.67601130652,26.24672,0.671082,1.21899282116,0,0,0,3.2, 0.7, 0,0,0,1024,1024,819,1024,0,0,-31,0,0,0,0,68,,,,,,,8.437,106.52,728.41091930652,21.981628,6,P-GPS,
17900,2023-10-01 21:32:05,40.0688811402743,-88.2096648909526,21.981628,,,728.41091930652,1.64042,0,0.38368439548,4.1690290048,29,10,22.6115,732.67601130652,26.24672,0.671082,1.21899282116,0,0,0,3.2, 0.8, 0.1,0,0,1024,1024,819,1024,0,0,-31,0,0,0,0,68,,,,,,,8.437,106.52,728.41091930652,21.981628,6,P-GPS,
18000,2023-10-01 21:32:05,40.0688811918983,-88.2096649345126,21.981628,,,728.41091930652,1.64042,0,0.402313005,4.191437142,29,10,22.6115,732.67601130652,26.24672,0.671082,1.21899282116,0,0,0,3.2, 0.8, 0.2,0,0,1024,1024,766,1024,0,0,-39,0,0,0,0,68,,,,,,,8.437,106.52,728.41091930652,21.981628,6,P-GPS,
18100,2023-10-01 21:32:05,40.0688811785564,-88.2096648862325,21.981628,,,728.41091930652,1.312336,0,0.3880249468,4.2057744128,29,10,22.603,732.67601130652,26.24672,0.671082,1.21899282116,0,0,0,3.2, 0.7, 0.2,0,0,1024,1024,762,1024,0,0,-40,0,0,0,0,67,,,,,,,8.407,106.52,728.41091930652,21.981628,6,P-GPS,
18200,2023-10-01 21:32:05,40.068881165959,-88.2096648356826,21.981628,,,728.41091930652,1.312336,0,0.373277571,4.2206038096,29,10,22.603,732.67601130652,26.24672,0.671082,1.21899282116,0,0,0,3.2, 0.8, 0.1,0,0,1024,1024,775,1024,0,0,-38,0,0,0,0,67,,,,,,,8.407,106.52,728.41091930652,21.981628,6,P-GPS,
18300,2023-10-01 21:32:06,40.0688811521202,-88.20966477944,21.981628,,,728.41091930652,1.64042,0,0.35690289856,4.2371064348,29,10,22.603,732.67601130652,26.24672,0.671082,1.21899282116,0,0,0,3.3, 0.8, 0.1,0,0,1024,1024,775,1024,0,0,-38,0,0,0,0,67,,,,,,,8.407,106.52,728.41091930652,21.981628,6,P-GPS,
18400,2023-10-01 21:32:06,40.06888117336,-88.2096647766248,21.981628,,,728.41091930652,1.64042,0,0.35953741308,4.2448820256,29,10,22.603,732.67601130652,26.24672,0.671082,1.21899282116,0,0,0,3.3, 0.9, 0,0,0,1024,1024,707,1024,0,0,-48,0,0,0,0,67,,,,,,,8.407,106.52,728.41091930652,21.981628,6,P-GPS,
18500,2023-10-01 21:32:06,40.068881156559,-88.2096647414035,21.981628,,,728.41091930652,1.968504,0,0.34801182216,4.2564961992,29,10,22.603,732.67601130652,26.24672,0.671082,1.21899282116,0,0,0,3.3, 0.9, 0,0,0,1024,1024,755,1024,0,0,-41,0,0,0,0,67,,,,,,,8.407,106.52,728.41091930652,21.981628,6,P-GPS,
18600,2023-10-01 21:32:06,40.0688811389614,-88.2096647092509,21.981628,,,728.41091930652,1.968504,0,0.33713583756,4.2675198216,29,10,22.603,732.67601130652,26.24672,0.671082,1.21899282116,0,0,0,3.3, 0.8, 0,0,0,1024,1024,762,1024,0,0,-40,0,0,0,0,68,,,,,,,8.407,106.52,728.41091930652,21.981628,6,P-GPS,
18700,2023-10-01 21:32:06,40.0688811751464,-88.2096647753147,21.981628,,,728.41091930652,1.968504,0,0.359498043,4.290190426,29,10,22.603,732.67601130652,26.24672,0.671082,1.21899282116,0,0,0,3.4, 0.7, 0.1,0,0,1024,1024,707,1024,0,0,-48,0,0,0,0,68,,,,,,,8.407,106.52,728.41091930652,21.981628,6,P-GPS,
18800,2023-10-01 21:32:06,40.0688811578466,-88.209664750687,21.981628,,,728.41091930652,1.64042,0,0.35054791148,4.29954082,29,10,22.603,732.67601130652,26.24672,0.671082,1.21899282116,0,0,0,3.3, 0.7, 0.1,0,0,1024,1024,711,1024,0,0,-47,0,0,0,0,68,,,,,,,8.407,106.52,728.41091930652,21.981628,6,P-GPS,
18900,2023-10-01 21:32:06,40.0688811378574,-88.209664736857,21.981628,,,728.41091930652,1.968504,0,0.3439304572,4.3077757284,29,10,22.603,732.67601130652,26.24672,0.671082,1.21899282116,0,0,0,3.4, 0.7, 0.1,0,0,1024,1024,714,1024,0,0,-47,0,0,0,0,68,,,,,,,8.407,106.52,728.41091930652,21.981628,6,P-GPS,
19000,2023-10-01 21:32:06,40.0688811185372,-88.2096647201007,21.981628,,,728.41091930652,1.968504,0,0.33673885592,4.3162402956,29,10,22.603,732.67601130652,26.24672,0.671082,1.21899282116,0,0,0,3.4, 0.8, 0,0,0,1024,1024,697,1024,0,0,-50,0,0,0,0,68,,,,,,,8.407,106.52,728.41091930652,21.981628,6,P-GPS,
19100,2023-10-01 21:32:06,40.0688811439691,-88.209664818778,21.981628,,,728.41091930652,1.64042,0,0.36567914556,4.345308538,29,10,22.603,732.67601130652,26.24672,0.671082,1.21899282116,0,0,0,3.4, 0.9, 0,0,0,1024,1024,684,1024,0,0,-52,0,0,0,0,68,,,,,,,8.407,106.52,728.41091930652,21.981628,6,P-GPS,
19200,2023-10-01 21:32:06,40.0688811224733,-88.2096648017001,21.981628,,,728.41091930652,1.312336,0,0.35818898784,4.35449489,29,10,22.603,732.67601130652,26.24672,0.671082,1.21899282116,0,0,0,3.4, 0.9, 0,0,0,1024,1024,673,1024,0,0,-53,0,0,0,0,68,,,,,,,8.407,106.52,728.41091930652,21.981628,6,P-GPS,
19300,2023-10-01 21:32:07,40.0688810991764,-88.209664780877,21.653544,,,728.08283530652,1.64042,0,0.34956037864,4.3647967276,29,10,22.603,732.67601130652,26.24672,0.671082,1.21899282116,0,0,0,3.4, 0.8, 0.1,0,0,1024,1024,673,1024,0,0,-53,0,0,0,0,68,,,,,,,8.407,106.52,728.08283530652,21.653544,6,P-GPS,
