time(millisecond),datetime(utc),latitude,longitude,height_above_takeoff(feet),height_above_ground_at_drone_location(feet),ground_elevation_at_drone_location(feet),altitude_above_seaLevel(feet),height_sonar(feet),speed(mph),distance(feet),mileage(feet),satellites,gpslevel,voltage(v),max_altitude(feet),max_ascent(feet),max_speed(mph),max_distance(feet), xSpeed(mph), ySpeed(mph), zSpeed(mph), compass_heading(degrees), pitch(degrees), roll(degrees),isPhoto,isVideo,rc_elevator,rc_aileron,rc_throttle,rc_rudder,rc_elevator(percent),rc_aileron(percent),rc_throttle(percent),rc_rudder(percent),gimbal_heading(degrees),gimbal_pitch(degrees),gimbal_roll(degrees),battery_percent,voltageCell1,voltageCell2,voltageCell3,voltageCell4,voltageCell5,voltageCell6,current(A),battery_temperature(f),altitude(feet),ascent(feet),flycStateRaw,flycState,message
143400,2023-10-01 21:00:04,40.0688890442579,-88.2096490509808,0,Available with any HD 360 subscription,Available with any HD 360 subscription,706.43970403652,0.656168,0,0,0,29,10,0,706.43970403652,0,0,0,0,0,0,271, -1.4, -1,0,0,364,364,364,1684,-100,-100,-100,100,0,0,0,74,,,,,,,0,105.26,706.43970403652,0,41,Motors_Started,"GEO: You are in a Warning Zone (Airport). Fly with caution."
143500,2023-10-01 21:00:04,40.0688890429695,-88.2096490479523,0,,,706.43970403652,0.656168,0,0.00096745738004,0.00096745738004,29,10,0,706.43970403652,0,0,0.00096745738004,0,0,0,271, -1.4, -1,0,0,364,364,364,1684,-100,-100,-100,100,0,0,0,74,,,,,,,0,105.26,706.43970403652,0,41,Motors_Started,
143600,2023-10-01 21:00:05,40.0688890423925,-88.2096490419776,0,,,706.43970403652,0.656168,0,0.00260427501772,0.00264887147584,29,10,0,706.43970403652,0,0,0.00260427501772,0,0,0,271, -1.5, -1,0,0,364,364,364,1684,-100,-100,-100,100,0,0,0,74,,,,,,,0,105.26,706.43970403652,0,41,Motors_Started,
143700,2023-10-01 21:00:05,40.0688890433126,-88.209649039719,0,,,706.43970403652,0.656168,0,0.00316326453692,0.0033632875092,29,10,0,706.43970403652,0,0,0.00316326453692,0,0,0,270.9, -1.5, -1,0,0,364,364,364,1684,-100,-100,-100,100,0,0,0,74,,,,,,,0,105.26,706.43970403652,0,41,Motors_Started,
143800,2023-10-01 21:00:05,40.0688890450941,-88.2096490413223,0,,,706.43970403652,0.656168,0,0.00271394037556,0.0041525263796,29,10,0,706.43970403652,0,0,0.00316326453692,0,0,0,270.9, -1.5, -1,0,0,364,364,611,1603,-100,-100,-63,88,0,0,0,74,,,,,,,0,105.26,706.43970403652,0,41,Motors_Started,"Setting new Return-To-Home altitude to 100m (328 ft). Data Recorder File Index is 26. Setting new Maximum Flight Altitude to 120m (394 ft)"
143900,2023-10-01 21:00:05,40.0688890477186,-88.2096490365057,0,,,706.43970403652,0.656168,0,0.0053561025336,0.0058034450676,29,10,0,706.43970403652,0,0,0.0053561025336,0,0,0,270.9, -1.4, -1,0,0,1024,1024,1024,1024,0,0,0,0,0,0,0,74,,,,,,,0,105.26,706.43970403652,0,41,Motors_Started,
144000,2023-10-01 21:00:05,40.068889050917,-88.2096490287504,0,,,706.43970403652,0.656168,0,0.0067978348632,0.0082631892408,29,10,0,706.43970403652,0,0,0.0067978348632,0,0,0,270.9, -1.5, -1,0,0,1024,1024,1024,1024,0,0,0,0,0,0,0,74,,,,,,,0,105.26,706.43970403652,0,41,Motors_Started,
144100,2023-10-01 21:00:05,40.0688890498254,-88.2096490210299,0,,,706.43970403652,0.656168,0,0.0089796262716,0.0104552824868,29,10,0,706.43970403652,0,0,0.0089796262716,0,0,0,271, -1.4, -1,0,0,1024,1024,1024,1024,0,0,0,0,0,0,0,74,,,,,,,0,105.26,706.43970403652,0,41,Motors_Started,
144200,2023-10-01 21:00:05,40.0688890495492,-88.2096490201606,0,,,706.43970403652,0.656168,0,0.0092403874348,0.0107181105792,29,10,0,706.43970403652,0,0,0.0092403874348,0,0,0,271, -1.4, -1,0,0,1024,1024,1024,1024,0,0,0,0,0,0,0,74,,,,,,,0,105.26,706.43970403652,0,41,Motors_Started,
144300,2023-10-01 21:00:05,40.0688890478571,-88.2096490198221,0,,,706.43970403652,0.656168,0,0.0095135829816,0.0113426512816,29,10,0,706.43970403652,0,0,0.0095135829816,0,0,0,271, -1.4, -1,0,0,1024,1024,1024,1024,0,0,0,0,0,0,0,74,,,,,,,0,105.26,706.43970403652,0,41,Motors_Started,
144400,2023-10-01 21:00:05,40.0688890463623,-88.2096490155242,0,,,706.43970403652,0.656168,0,0.0108263782992,0.0126607943684,29,10,0,706.43970403652,0,0,0.0108263782992,0,0,0,271, -1.4, -1,0,0,1024,1024,1024,1024,0,0,0,0,0,0,0,74,,,,,,,0,105.26,706.43970403652,0,41,Motors_Started,
144500,2023-10-01 21:00:05,40.068889041642,-88.2096490262329,0,,,706.43970403652,0.656168,0,0.0089801840144,0.0161112866048,29,10,0,706.43970403652,0,0,0.0108263782992,0,0,0,271, -1.4, -1,0,0,1024,1024,1024,1024,0,0,0,0,0,0,0,74,,,,,,,0,105.26,706.43970403652,0,41,Motors_Started,
144600,2023-10-01 21:00:06,40.0688890350157,-88.2096490438278,0,,,706.43970403652,0.656168,0,0.0081049543276,0.0215865492472,29,10,23.158,706.43970403652,0,0,0.0108263782992,0,0,0,270.8, -1.4, -1,0,0,1024,1024,1024,1024,0,0,0,0,0,0,0,73,,,,,,,4.263,105.26,706.43970403652,0,41,Motors_Started,
144700,2023-10-01 21:00:06,40.0688890346254,-88.2096490590787,0,,,706.43970403652,0.656168,0,0.0081549871376,0.0258471464964,29,10,23.158,706.43970403652,0,0,0.0108263782992,0,0,0,270.8, -1.5, -1,0,0,1024,1024,1024,1024,0,0,0,0,0,0,0,73,,,,,,,4.263,105.26,706.43970403652,0,41,Motors_Started,
144800,2023-10-01 21:00:06,40.0688890417192,-88.209649089026,0,,,706.43970403652,0.656168,0,0.0116172247812,0.034600066724,29,10,23.158,706.43970403652,0,0,0.0116172247812,0,0,0,270.8, -1.5, -1,0,0,1024,1024,1024,1024,0,0,0,0,0,0,0,74,,,,,,,4.263,105.26,706.43970403652,0,41,Motors_Started,
144900,2023-10-01 21:00:06,40.0688890525602,-88.2096490964161,0,,,706.43970403652,0.656168,0,0.012462926908,0.039061352956,29,10,23.158,706.43970403652,0,0,0.012462926908,0,0,0,270.8, -1.5, -1,0,0,1024,1024,1024,1024,0,0,0,0,0,0,0,74,,,,,,,4.263,105.26,706.43970403652,0,41,Motors_Started,
145000,2023-10-01 21:00:06,40.0688890645081,-88.2096491073364,0,,,706.43970403652,0.656168,0,0.0157226382984,0.044380906932,29,10,23.158,706.43970403652,0,0,0.0157226382984,0,0,0,270.8, -1.5, -1,0,0,1024,1024,1024,1024,0,0,0,0,0,0,0,74,,,,,,,4.263,105.26,706.43970403652,0,41,Motors_Started,
145100,2023-10-01 21:00:06,40.0688890697776,-88.2096491106538,0,,,706.43970403652,0.656168,0,0.0170832354548,0.046515093352,29,10,23.158,706.43970403652,0,0,0.0170832354548,0,0,0,270.8, -1.5, -1,0,0,1024,1024,1024,1024,0,0,0,0,0,0,0,74,,,,,,,4.263,105.26,706.43970403652,0,41,Motors_Started,
145200,2023-10-01 21:00:06,40.0688890762064,-88.2096491085919,0,,,706.43970403652,0.656168,0,0.0173742131544,0.048930119676,29,10,23.158,706.43970403652,0,0,0.0173742131544,0,0,0,270.8, -1.5, -1,0,0,1024,1024,1024,1024,0,0,0,0,0,0,0,74,,,,,,,4.263,105.26,706.43970403652,0,41,Motors_Started,
145300,2023-10-01 21:00:06,40.0688890828874,-88.2096491046978,0,,,706.43970403652,0.656168,0,0.0176076449204,0.051599083016,29,10,23.158,706.43970403652,0,0,0.0176076449204,0,0,0,270.8, -1.4, -1,0,0,1024,1024,1024,1024,0,0,0,0,0,0,0,74,,,,,,,4.263,105.26,706.43970403652,0,41,Motors_Started,
145400,2023-10-01 21:00:06,40.0688890810706,-88.2096490943871,0,,,706.43970403652,0.656168,0,0.0148751973264,0.054553479436,29,10,23.158,706.43970403652,0,0,0.0176076449204,0,0,0,270.8, -1.4, -1,0,0,1024,1024,1024,1024,0,0,0,0,0,0,0,74,,,,,,,4.263,105.26,706.43970403652,0,10,Assisted_Takeoff,
145500,2023-10-01 21:00:06,40.0688890737177,-88.2096490647235,0,,,706.43970403652,0.656168,0,0.0072669949832,0.06325951646,29,10,23.158,706.43970403652,0,0,0.0176076449204,0,0,0,270.8, -1.4, -1,0,0,1024,1024,1024,1024,0,0,0,0,0,0,0,74,,,,,,,4.263,105.26,706.43970403652,0,10,Assisted_Takeoff,
145600,2023-10-01 21:00:07,40.0688890854446,-88.2096490568421,0,,,706.43970403652,0.656168,0,0.0107098756708,0.068070540236,29,10,23.209,706.43970403652,0,0,0.0176076449204,0,0,0,270.8, -1.4, -1,0,0,1024,1024,1024,1024,0,0,0,0,0,0,0,73,,,,,,,1.742,105.26,706.43970403652,0,10,Assisted_Takeoff,
145700,2023-10-01 21:00:07,40.0688890986387,-88.2096490475765,0,,,706.43970403652,0.656168,0,0.015490322018,0.073535763508,29,10,23.209,706.43970403652,0,0,0.0176076449204,0,0,0,270.8, -1.4, -1,0,0,1024,1024,1024,1024,0,0,0,0,0,0,0,73,,,,,,,1.742,105.26,706.43970403652,0,10,Assisted_Takeoff,
145800,2023-10-01 21:00:07,40.0688891144844,-88.2096490393211,0,,,706.43970403652,0.656168,0,0.021516732972,0.079759516988,29,10,23.209,706.43970403652,0,0,0.021516732972,0,0,0,270.8, -1.4, -1,0,0,1024,1024,1024,1024,0,0,0,0,0,0,0,74,,,,,,,1.742,105.26,706.43970403652,0,10,Assisted_Takeoff,
145900,2023-10-01 21:00:07,40.0688891271764,-88.2096490336593,0,,,706.43970403652,0.656168,0,0.0263568577988,0.084652561764,29,10,23.209,706.43970403652,0,0,0.0263568577988,0,0,0,270.8, -1.4, -1,0,0,1024,1024,1024,1024,0,0,0,0,0,0,0,74,,,,,,,1.742,105.26,706.43970403652,0,10,Assisted_Takeoff,
146000,2023-10-01 21:00:07,40.0688891348574,-88.2096490353256,0,,,706.43970403652,0.656168,0,0.0290322515852,0.08749344112,29,10,23.209,706.43970403652,0,0,0.0290322515852,0,0,0,270.9, -1.4, -1,0,0,1024,1024,1024,1024,0,0,0,0,0,0,0,74,,,,,,,1.742,105.26,706.43970403652,0,10,Assisted_Takeoff,
146100,2023-10-01 21:00:07,40.0688891398904,-88.2096490346863,0,,,706.43970403652,0.656168,0,0.0308735574184,0.089338257452,29,10,23.209,706.43970403652,0,0,0.0308735574184,0,0,0,270.8, -1.4, -1,0,0,1024,1024,1024,1024,0,0,0,0,0,0,0,74,,,,,,,1.742,105.26,706.43970403652,0,10,Assisted_Takeoff,
146200,2023-10-01 21:00:07,40.0688891294022,-88.2096490352745,0,,,706.43970403652,0.656168,0,0.0270722121524,0.093168310068,29,10,23.209,706.43970403652,0,0,0.0308735574184,0,0,0,270.8, -1.4, -1,0,0,1024,1024,1024,1024,0,0,0,0,0,0,0,74,,,,,,,1.742,105.26,706.43970403652,0,10,Assisted_Takeoff,
146300,2023-10-01 21:00:07,40.0688891372439,-88.2096490307234,0,,,706.43970403652,0.656168,0,0.0301194563444,0.096298887596,29,10,23.209,706.43970403652,0,0,0.0308735574184,0,0,0,270.9, -1.5, -1,0,0,1024,1024,1024,1024,0,0,0,0,0,0,0,74,,,,,,,1.742,105.26,706.43970403652,0,10,Assisted_Takeoff,
146400,2023-10-01 21:00:07,40.0688891497031,-88.2096490254972,0,,,706.43970403652,0.656168,0,0.034868111352,0.101073165964,29,10,23.209,706.43970403652,0,0,0.034868111352,0,0,0,270.8, -1.5, -1,0,0,1024,1024,1024,1024,0,0,0,0,0,0,0,74,,,,,,,1.742,105.26,706.43970403652,0,10,Assisted_Takeoff,
146500,2023-10-01 21:00:08,40.0688891600457,-88.2096490217616,0,,,706.43970403652,0.656168,0,0.038777560296,0.104988192336,29,10,23.209,706.43970403652,0,0,0.038777560296,0,0,0,270.9, -1.5, -1,0,0,1024,1024,1024,1024,0,0,0,0,0,0,0,74,,,,,,,1.742,105.26,706.43970403652,0,10,Assisted_Takeoff,
146600,2023-10-01 21:00:08,40.068889133236,-88.2096490242249,0,,,706.43970403652,0.656168,0,0.02911827521,0.114793638844,29,10,23.209,706.43970403652,0,0,0.038777560296,0,0,0,270.9, -1.5, -1,0,0,1024,1024,1024,1024,0,0,0,0,0,0,0,74,,,,,,,1.742,105.26,706.43970403652,0,10,Assisted_Takeoff,
146700,2023-10-01 21:00:08,40.0688891303791,-88.2096490258987,0,,,706.43970403652,0.656168,0,0.0279895678248,0.115936027332,29,10,23.2085,706.43970403652,0,0,0.038777560296,0,0,0,270.9, -1.4, -1.1,0,0,1024,1024,1024,1024,0,0,0,0,0,0,0,73,,,,,,,1.05,105.26,706.43970403652,0,10,Assisted_Takeoff,
146800,2023-10-01 21:00:08,40.0688891303581,-88.2096490310723,0,,,706.43970403652,0.656168,0,0.027640420832,0.117380581184,29,10,23.2085,706.43970403652,0,0,0.038777560296,0,0,0,270.9, -1.4, -1.1,0,0,1024,1024,1024,1024,0,0,0,0,0,0,0,74,,,,,,,1.05,105.26,706.43970403652,0,10,Assisted_Takeoff,
146900,2023-10-01 21:00:08,40.0688891093657,-88.2096490410251,0,,,706.43970403652,0.656168,0,0.0195968838292,0.12552821924,29,10,23.2085,706.43970403652,0,0,0.038777560296,0,0,0,270.9, -1.4, -1.1,0,0,1024,1024,1024,1024,0,0,0,0,0,0,0,74,,,,,,,1.05,105.26,706.43970403652,0,10,Assisted_Takeoff,
147000,2023-10-01 21:00:08,40.0688891126533,-88.2096490379848,0,,,706.43970403652,0.656168,0,0.0209249350528,0.126997707476,29,10,23.2085,706.43970403652,0,0,0.038777560296,0,0,0,270.9, -1.4, -1.1,0,0,1024,1024,1024,1024,0,0,0,0,0,0,0,74,,,,,,,1.05,105.26,706.43970403652,0,10,Assisted_Takeoff,
147100,2023-10-01 21:00:08,40.0688891107333,-88.2096490345048,0,,,706.43970403652,0.656168,0,0.0204480649588,0.12819554216,29,10,23.2085,706.43970403652,0,0,0.038777560296,0,0,0,270.9, -1.4, -1,0,0,1024,1024,1024,1024,0,0,0,0,0,0,0,74,,,,,,,1.05,105.26,706.43970403652,0,10,Assisted_Takeoff,
147200,2023-10-01 21:00:08,40.0688891098476,-88.2096490306962,0,,,706.43970403652,0.656168,0,0.020419291992,0.129306762668,29,10,23.2085,706.43970403652,0,0,0.038777560296,0,0,0,270.9, -1.4, -1.1,0,0,1024,1024,1024,1024,0,0,0,0,0,0,0,74,,,,,,,1.05,105.26,706.43970403652,0,10,Assisted_Takeoff,
147300,2023-10-01 21:00:08,40.0688890943586,-88.2096490304229,0,,,706.43970403652,0.656168,0,0.0151351054712,0.134958665736,29,10,23.2085,706.43970403652,0,0,0.038777560296,0,0,0,270.9, -1.4, -1.1,0,0,1024,1024,1024,1024,0,0,0,0,0,0,0,74,,,,,,,1.05,105.26,706.43970403652,0,10,Assisted_Takeoff,
147400,2023-10-01 21:00:08,40.0688890848108,-88.2096490301655,0,,,706.43970403652,0.656168,0,0.0120577759764,0.138442917816,29,10,23.2085,706.43970403652,0,0,0.038777560296,0,0,0,270.9, -1.4, -1.1,0,0,1024,1024,1024,1024,0,0,0,0,0,0,0,74,,,,,,,1.05,105.26,706.43970403652,0,10,Assisted_Takeoff,
147500,2023-10-01 21:00:09,40.06888907839,-88.2096490295377,0,,,706.43970403652,0.656168,0,0.0102151249988,0.140791999256,29,10,23.2085,706.43970403652,0,0,0.038777560296,0,0,0,270.9, -1.4, -1.1,0,0,1024,1024,1024,1024,0,0,0,0,0,0,0,74,,,,,,,1.05,105.26,706.43970403652,0,10,Assisted_Takeoff,
147600,2023-10-01 21:00:09,40.0688890487219,-88.2096490368773,0,,,706.43970403652,0.656168,0,0.0050630250964,0.151808731892,29,10,23.2085,706.43970403652,0,0,0.038777560296,0,0,0,270.9, -1.4, -1,0,0,1024,1024,1024,1024,0,0,0,0,0,0,0,74,,,,,,,1.05,105.26,706.43970403652,0,10,Assisted_Takeoff,
147700,2023-10-01 21:00:09,40.0688890409474,-88.2096490365634,0,,,706.43970403652,0.656168,0,0.0070822180744,0.154646658492,29,10,23.21,706.43970403652,0,0,0.038777560296,0,0,0,270.9, -1.4, -1,0,0,1024,1024,1024,1024,0,0,0,0,0,0,0,73,,,,,,,0.931,105.26,706.43970403652,0,10,Assisted_Takeoff,
147800,2023-10-01 21:00:09,40.06888903704,-88.2096490340169,0,,,706.43970403652,0.656168,0,0.0086507876784,0.156239506312,29,10,23.21,706.43970403652,0,0,0.038777560296,0,0,0,270.9, -1.4, -1.1,0,0,1024,1024,1024,1024,0,0,0,0,0,0,0,74,,,,,,,0.931,105.26,706.43970403652,0,10,Assisted_Takeoff,
147900,2023-10-01 21:00:09,40.0688890392241,-88.2096490317429,0,,,706.43970403652,0.656168,0,0.0084295606372,0.157258535216,29,10,23.21,706.43970403652,0,0,0.038777560296,0,0,0,270.9, -1.5, -1.1,0,0,1024,1024,1024,1024,0,0,0,0,0,0,0,74,,,,,,,0.931,105.26,706.43970403652,0,10,Assisted_Takeoff,
148000,2023-10-01 21:00:09,40.0688890427657,-88.2096490309988,0,,,706.43970403652,0.656168,0,0.007681594734,0.158567262292,29,10,23.21,706.43970403652,0,0,0.038777560296,0,0,0,270.9, -1.4, -1.1,0,0,1024,1024,1024,1024,0,0,0,0,0,0,0,74,,,,,,,0.931,105.26,706.43970403652,0,10,Assisted_Takeoff,
148100,2023-10-01 21:00:09,40.0688890459944,-88.2096490276467,0,,,706.43970403652,0.656168,0,0.0077859910628,0.160071855516,29,10,23.21,706.43970403652,0,0,0.038777560296,0,0,0,270.9, -1.4, -1.1,0,0,1024,1024,1024,1024,0,0,0,0,0,0,0,74,,,,,,,0.931,105.26,706.43970403652,0,10,Assisted_Takeoff,
148200,2023-10-01 21:00:09,40.0688890491013,-88.2096490225688,0,,,706.43970403652,0.656168,0,0.0086427496204,0.161887144288,29,10,23.21,706.43970403652,0,0,0.038777560296,0,0,0,270.9, -1.4, -1,0,0,1024,1024,1024,1024,0,0,0,0,0,0,0,74,,,,,,,0.931,105.26,706.43970403652,0,10,Assisted_Takeoff,
148300,2023-10-01 21:00:09,40.0688890506003,-88.2096490212645,0,,,706.43970403652,0.656168,0,0.0088455383408,0.162543968456,29,10,23.21,706.43970403652,0,0,0.038777560296,0,0,0,270.8, -1.4, -1.1,0,0,1024,1024,1024,1024,0,0,0,0,0,0,0,74,,,,,,,0.931,105.26,706.43970403652,0,10,Assisted_Takeoff,
148400,2023-10-01 21:00:09,40.0688890518418,-88.2096490178864,0,,,706.43970403652,0.656168,0,0.0096779202572,0.163590228332,29,10,23.21,706.43970403652,0,0,0.038777560296,0,0,0,270.9, -1.4, -1.1,0,0,1024,1024,1024,1024,0,0,0,0,0,0,0,74,,,,,,,0.931,105.26,706.43970403652,0,10,Assisted_Takeoff,
148500,2023-10-01 21:00:09,40.0688890529809,-88.2096490189165,0,,,706.43970403652,0.656168,0,0.0093312667028,0.164095805776,29,10,23.21,706.43970403652,0,0,0.038777560296,0,0,0,270.8, -1.4, -1.1,0,0,1024,1024,1024,1024,0,0,0,0,0,0,0,74,,,,,,,0.931,105.26,706.43970403652,0,10,Assisted_Takeoff,
148600,2023-10-01 21:00:10,40.0688890547732,-88.2096490255883,0,,,706.43970403652,0.656168,0,0.007410105224,0.166069887204,29,10,23.21,706.43970403652,0,0,0.038777560296,0,0,0,270.8, -1.5, -1.1,0,0,1024,1024,1024,1024,0,0,0,0,0,0,0,74,,,,,,,0.931,105.26,706.43970403652,0,10,Assisted_Takeoff,
148700,2023-10-01 21:00:10,40.0688890516615,-88.2096490397032,0,,,706.43970403652,0.656168,0,0.0038437993356,0.170171265288,29,10,23.21,706.43970403652,0,0,0.038777560296,0,0,0,270.8, -1.5, -1.1,0,0,1024,1024,1024,1024,0,0,0,0,0,0,0,74,,,,,,,0.931,105.26,706.43970403652,0,10,Assisted_Takeoff,
148800,2023-10-01 21:00:10,40.068889048983,-88.2096490398605,0,,,706.43970403652,0.656168,0,0.0043302494824,0.171149611776,29,10,23.21,706.43970403652,0,0,0.038777560296,0,0,0,270.8, -1.4, -1,0,0,1024,1024,1024,1024,0,0,0,0,0,0,0,74,,,,,,,0.931,105.26,706.43970403652,0,10,Assisted_Takeoff,
148900,2023-10-01 21:00:10,40.0688890484724,-88.2096490409941,0,,,706.43970403652,0.656168,0,0.0042105972476,0.171516737772,29,10,23.21,706.43970403652,0,0,0.038777560296,0,0,0,270.8, -1.4, -1.1,0,0,1024,1024,1024,1024,0,0,0,0,0,0,0,74,,,,,,,0.931,105.26,706.43970403652,0,10,Assisted_Takeoff,
149000,2023-10-01 21:00:10,40.0688890417746,-88.2096490491326,0,,,706.43970403652,0.656168,0,0.0053691602768,0.174853680136,29,10,23.21,706.43970403652,0,0,0.038777560296,0,0,0,270.8, -1.4, -1.1,0,0,1024,1024,1024,1024,0,0,0,0,0,0,0,74,,,,,,,0.931,105.26,706.43970403652,0,10,Assisted_Takeoff,
149100,2023-10-01 21:00:10,40.0688890403659,-88.2096490496124,0,,,706.43970403652,0.656168,0,0.0058606301088,0.175384848132,29,10,23.21,706.43970403652,0,0,0.038777560296,0,0,0,270.8, -1.5, -1.1,0,0,1024,1024,1024,1024,0,0,0,0,0,0,0,74,,,,,,,0.931,105.26,706.43970403652,0,10,Assisted_Takeoff,
149200,2023-10-01 21:00:10,40.0688890403657,-88.2096490489611,0,,,706.43970403652,0.656168,0,0.0058846130492,0.175566606668,29,10,23.21,706.43970403652,0,0,0.038777560296,0,0,0,270.8, -1.5, -1.1,0,0,1024,1024,1024,1024,0,0,0,0,0,0,0,74,,,,,,,0.931,105.26,706.43970403652,0,10,Assisted_Takeoff,
149300,2023-10-01 21:00:10,40.0688890380947,-88.2096490481211,0,,,706.43970403652,0.656168,0,0.0067395343364,0.176427827168,29,10,23.21,706.43970403652,0,0,0.038777560296,0,0,0,270.9, -1.5, -1.1,0,0,1024,1024,1024,1024,0,0,0,0,0,0,0,74,,,,,,,0.931,105.26,706.43970403652,0,10,Assisted_Takeoff,
149400,2023-10-01 21:00:10,40.0688890265215,-88.2096490470493,0,,,706.43970403652,0.656168,0,0.0109613848652,0.180660766936,29,10,23.21,706.43970403652,0,0,0.038777560296,0,0,0,270.9, -1.4, -1.1,0,0,1024,1024,1024,1024,0,0,0,0,0,0,0,74,,,,,,,0.931,105.26,706.43970403652,0,10,Assisted_Takeoff,
149500,2023-10-01 21:00:10,40.0688890308149,-88.2096490448338,0,,,706.43970403652,0.656168,0,0.0095212929556,0.182345150192,29,10,23.21,706.43970403652,0,0,0.038777560296,0,0,0,270.9, -1.4, -1.1,0,0,1024,1024,1024,1024,0,0,0,0,0,0,0,74,,,,,,,0.931,105.26,706.43970403652,0,10,Assisted_Takeoff,
149600,2023-10-01 21:00:11,40.0688890442586,-88.2096490412145,0,,,706.43970403652,0.656168,0,0.0053404529268,0.187353024368,29,10,23.2095,706.43970403652,0,0,0.038777560296,0,0,0,270.8, -1.4, -1.1,0,0,1024,1024,1024,1024,0,0,0,0,0,0,0,73,,,,,,,0.945,105.26,706.43970403652,0,10,Assisted_Takeoff,
149700,2023-10-01 21:00:11,40.0688890617032,-88.2096490386281,0,,,706.43970403652,0.656168,0,0.004231135306,0.193758536384,29,10,23.2095,706.43970403652,0,0,0.038777560296,0,0,0,270.8, -1.4, -1.1,0,0,1024,1024,1024,1024,0,0,0,0,0,0,0,73,,,,,,,0.945,105.26,706.43970403652,0,10,Assisted_Takeoff,
149800,2023-10-01 21:00:11,40.0688890614727,-88.2096490399711,0,,,706.43970403652,0.656168,0,0.0038612534044,0.194142722748,29,10,23.2095,706.43970403652,0,0,0.038777560296,0,0,0,270.9, -1.5, -1.1,0,0,1024,1024,1024,1024,0,0,0,0,0,0,0,74,,,,,,,0.945,105.26,706.43970403652,0,10,Assisted_Takeoff,
149900,2023-10-01 21:00:11,40.068889058097,-88.2096490410343,0,,,706.43970403652,0.656168,0,0.00314346794836,0.195409783156,29,10,23.2095,706.43970403652,0,0,0.038777560296,0,0,0,270.9, -1.5, -1.1,0,0,1024,1024,1024,1024,0,0,0,0,0,0,0,74,,,,,,,0.945,105.26,706.43970403652,0,10,Assisted_Takeoff,
150000,2023-10-01 21:00:11,40.0688890512809,-88.2096490417115,0,,,706.43970403652,0.656168,0,0.0034226379048,0.19790354964,29,10,23.2095,706.43970403652,0,0,0.038777560296,0,0,0,270.9, -1.4, -1.1,0,0,1024,1024,1024,1024,0,0,0,0,0,0,0,74,,,,,,,0.945,105.26,706.43970403652,0,10,Assisted_Takeoff,
150100,2023-10-01 21:00:11,40.0688890412937,-88.2096490422909,0,,,706.43970403652,0.656168,0,0.006122375524,0.201551187552,29,10,23.2095,706.43970403652,0,0,0.038777560296,0,0,0,270.9, -1.4, -1.1,0,0,1024,1024,1024,1024,0,0,0,0,0,0,0,74,,,,,,,0.945,105.26,706.43970403652,0,10,Assisted_Takeoff,
150200,2023-10-01 21:00:11,40.0688890344648,-88.209649040355,0,,,706.43970403652,0.656168,0,0.0086167653676,0.204100400232,29,10,23.2095,706.43970403652,0,0,0.038777560296,0,0,0,270.8, -1.4, -1.1,0,0,1024,1024,1024,1024,0,0,0,0,0,0,0,74,,,,,,,0.945,105.26,706.43970403652,0,10,Assisted_Takeoff,
150300,2023-10-01 21:00:11,40.0688890288954,-88.2096490394307,0,,,706.43970403652,0.656168,0,0.010608268056,0.206148956728,29,10,23.2095,706.43970403652,0,0,0.038777560296,0,0,0,270.8, -1.4, -1,0,0,1024,1024,1024,1024,0,0,0,0,0,0,0,74,,,,,,,0.945,105.26,706.43970403652,0,10,Assisted_Takeoff,
150400,2023-10-01 21:00:11,40.0688890372147,-88.2096490354518,0,,,706.43970403652,0.656168,0,0.0083707679844,0.209380912212,29,10,23.2095,706.43970403652,0,0,0.038777560296,0,0,0,270.9, -1.4, -1,0,0,1024,1024,1024,1024,0,0,0,0,0,0,0,74,,,,,,,0.945,105.26,706.43970403652,0,10,Assisted_Takeoff,
150500,2023-10-01 21:00:11,40.0688890331744,-88.2096490375862,0,,,706.43970403652,0.656168,0,0.0093608270712,0.21097113536,29,10,23.2095,706.43970403652,0,0,0.038777560296,0,0,0,270.9, -1.4, -1.1,0,0,1024,1024,1024,1024,0,0,0,0,0,0,0,74,,,,,,,0.945,105.26,706.43970403652,0,10,Assisted_Takeoff,
150600,2023-10-01 21:00:12,40.0688890200062,-88.2096490457633,0,,,706.43970403652,0.656168,0,0.0133649610576,0.216290361252,29,10,23.208,706.43970403652,0,0,0.038777560296,0,0,0,270.9, -1.4, -1.1,0,0,1024,1024,1024,1024,0,0,0,0,0,0,0,73,,,,,,,0.945,105.26,706.43970403652,0,10,Assisted_Takeoff,
150700,2023-10-01 21:00:12,40.068889002717,-88.2096490536725,0,,,706.43970403652,0.656168,0,0.0195623693924,0.222973760416,29,10,23.208,706.43970403652,0,0,0.038777560296,0,0,0,270.9, -1.4, -1.1,0,0,1024,1024,1024,1024,0,0,0,0,0,0,0,73,,,,,,,0.945,105.26,706.43970403652,0,10,Assisted_Takeoff,
150800,2023-10-01 21:00:12,40.0688889681299,-88.2096490729707,0,,,706.43970403652,0.656168,0,0.0327020679756,0.236694889464,29,10,23.208,706.43970403652,0,0,0.038777560296,0,0,0,270.8, -1.4, -1,0,0,1024,1024,1024,1024,0,0,0,0,0,0,0,74,,,,,,,0.945,105.26,706.43970403652,0,10,Assisted_Takeoff,
150900,2023-10-01 21:00:12,40.0688889595971,-88.209649077303,0,,,706.43970403652,0.656168,0,0.035986877792,0.240034784584,29,10,23.208,706.43970403652,0,0,0.038777560296,0,0,0,270.8, -1.4, -1,0,0,1024,1024,1024,1024,0,0,0,0,0,0,0,74,,,,,,,0.945,105.26,706.43970403652,0,10,Assisted_Takeoff,
151000,2023-10-01 21:00:12,40.0688889573393,-88.2096490813647,0,,,706.43970403652,0.656168,0,0.037028872576,0.241436687516,29,10,23.208,706.43970403652,0,0,0.038777560296,0,0,0,270.9, -1.4, -1,0,0,1024,1024,1024,1024,0,0,0,0,0,0,0,74,,,,,,,0.945,105.26,706.43970403652,0,10,Assisted_Takeoff,
151100,2023-10-01 21:00:12,40.0688889730204,-88.2096490907427,0,,,706.43970403652,0.656168,0,0.0322548566752,0.247728682468,29,10,23.208,706.43970403652,0,0,0.038777560296,0,0,0,270.8, -1.4, -1.1,0,0,1024,1024,1243,1024,0,0,33,0,0,0,0,74,,,,,,,0.945,105.26,706.43970403652,0,10,Assisted_Takeoff,
151200,2023-10-01 21:00:12,40.0688889758052,-88.2096490971615,0,,,706.43970403652,0.656168,0,0.0319622057472,0.249788721904,29,10,23.208,706.43970403652,0,0,0.038777560296,0,0,0,270.9, -1.5, -1.1,0,0,1024,1024,1243,1024,0,0,33,0,0,0,0,74,,,,,,,0.945,105.26,706.43970403652,0,10,Assisted_Takeoff,
151300,2023-10-01 21:00:12,40.0688889827019,-88.2096490968344,0,,,706.43970403652,0.656168,0,0.0296274943864,0.252306766604,29,10,23.208,706.43970403652,0,0,0.038777560296,0,0,0,270.9, -1.4, -1,0,0,1024,1024,1328,1024,0,0,46,0,0,0,0,74,,,,,,,0.945,105.26,706.43970403652,0,10,Assisted_Takeoff,
151400,2023-10-01 21:00:12,40.0688889918196,-88.2096490925052,0,,,706.43970403652,0.656168,0,0.0261033801004,0.255846136796,29,10,23.208,706.43970403652,0,0,0.038777560296,0,0,0,270.8, -1.4, -1,0,0,1024,1024,1670,1024,0,0,98,0,0,0,0,74,,,,,,,0.945,105.26,706.43970403652,0,10,Assisted_Takeoff,
151500,2023-10-01 21:00:12,40.0688890112904,-88.2096490821722,0,,,706.43970403652,0.656168,0,0.0184566278872,0.263513459876,29,10,23.208,706.43970403652,0,0,0.038777560296,0,0,0,270.9, -1.4, -1,0,0,1024,1024,1670,1024,0,0,98,0,0,0,0,74,,,,,,,0.945,105.26,706.43970403652,0,10,Assisted_Takeoff,
151600,2023-10-01 21:00:13,40.0688890189896,-88.209649074942,0,,,706.43970403652,0.656168,0,0.0150451776468,0.266972449488,29,10,23.208,706.43970403652,0,0,0.038777560296,0,0,0,270.8, -1.4, -1.1,0,0,1024,1024,1684,1024,0,0,100,0,0,0,0,74,,,,,,,0.945,105.26,706.43970403652,0,10,Assisted_Takeoff,
151700,2023-10-01 21:00:13,40.0688890230658,-88.2096490639971,0,,,706.43970403652,0.656168,0,0.0125830384604,0.270371071644,29,10,23.208,706.43970403652,0,0,0.038777560296,0,0,0,270.8, -1.3, -1,0,0,1024,1024,1684,1024,0,0,100,0,0,0,0,74,,,,,,,0.945,105.26,706.43970403652,0,10,Assisted_Takeoff,
151800,2023-10-01 21:00:13,40.0688890297651,-88.2096490387975,0,,,706.43970403652,0.656168,0,0.0103712929828,0.277819562696,29,10,23.208,706.43970403652,0,0,0.038777560296,0,0,0,270.7, -1, -0.9,0,0,1024,1024,1684,1024,0,0,100,0,0,0,0,74,,,,,,,0.945,105.26,706.43970403652,0,10,Assisted_Takeoff,
151900,2023-10-01 21:00:13,40.0688890303088,-88.2096490265994,0,,,706.43970403652,0.656168,0,0.011855971508,0.281231308212,29,10,23.208,706.43970403652,0,0,0.038777560296,0,0,0,270.5, 0, -0.5,0,0,1024,1024,1684,1024,0,0,100,0,0,0,0,74,,,,,,,0.945,105.26,706.43970403652,0,10,Assisted_Takeoff,
152000,2023-10-01 21:00:13,40.0688890373183,-88.2096490180567,0,,,706.43970403652,0.656168,0,0.0117538389588,0.284728355568,29,10,23.208,706.43970403652,0,0,0.038777560296,0,0,-0.447388,270.2, 1.1, 0,0,0,1024,1024,1684,1024,0,0,100,0,0,0,0,74,,,,,,,0.945,105.26,706.43970403652,0,6,P-GPS,
152100,2023-10-01 21:00:13,40.0688890559851,-88.2096489843889,0,,,706.43970403652,0.656168,0,0.0188921922056,0.296336295572,29,10,23.208,706.43970403652,0,0,0.038777560296,0,0,-1.11847,269.9, 1.8, 0.8,0,0,1024,1024,1684,1024,0,0,100,0,0,0,0,74,,,,,,,0.945,105.26,706.43970403652,0,6,P-GPS,
152200,2023-10-01 21:00:13,40.0688891069428,-88.2096489128288,0.328084,,,706.76778803652,0.656168,0,0.043036746784,0.32362861928,29,10,23.208,706.76778803652,0.328084,0,0.043036746784,0,0,-2.013246,269.8, 2.1, 0,0,0,1024,1024,1684,1024,0,0,100,0,0,0,0,74,,,,,,,0.945,105.26,706.76778803652,0.328084,6,P-GPS,
152300,2023-10-01 21:00:13,40.0688891810486,-88.2096487916652,0.656168,,,707.09587203652,1.64042,0.223694,0.085769687784,0.36693570728,29,10,23.208,707.09587203652,0.656168,0.223694,0.085769687784,0,0.223694,-2.684328,269.6, 1.1, -1.1,0,0,1024,1024,1684,1024,0,0,100,0,0,0,0,74,,,,,,,0.945,105.26,707.09587203652,0.656168,6,P-GPS,
152400,2023-10-01 21:00:13,40.0688892570178,-88.2096486403234,0.984252,,,707.42395603652,1.968504,0.223694,0.136297904624,0.4174704858,29,10,23.208,707.42395603652,0.984252,0.223694,0.136297904624,0,0.223694,-3.35541,269.7, -0.1, -1.9,0,0,1024,1024,1684,1024,0,0,100,0,0,0,0,74,,,,,,,0.945,105.26,707.42395603652,0.984252,6,P-GPS,
152500,2023-10-01 21:00:14,40.0688892862869,-88.2096485246894,1.64042,,,708.08012403652,2.624672,0.223694,0.169471134032,0.4514763924,29,10,23.208,708.08012403652,1.64042,0.223694,0.169471134032,0,0.223694,-4.250186,269.7, -1.1, -2.1,0,0,1024,1024,1684,1024,0,0,100,0,0,0,0,74,,,,,,,0.945,105.26,708.08012403652,1.64042,6,P-GPS,
152600,2023-10-01 21:00:14,40.0688892862173,-88.2096484147161,2.296588,,,708.73629203652,3.28084,0,0.196727040416,0.48218177396,29,10,23.1265,708.73629203652,2.296588,0.223694,0.196727040416,0,0,-4.921268,269.8, -1.4, -1.3,0,0,1024,1024,1684,1024,0,0,100,0,0,0,0,73,,,,,,,3.678,105.26,708.73629203652,2.296588,6,P-GPS,
152700,2023-10-01 21:00:14,40.0688892657014,-88.2096483670651,3.28084,,,709.72054403652,4.265092,0,0.205946200816,0.49744752248,29,10,23.1265,709.72054403652,3.28084,0.223694,0.205946200816,0,0,-5.816044,269.8, -1.1, -0.2,0,0,1024,1024,1684,1024,0,0,100,0,0,0,0,73,,,,,,,3.678,105.26,709.72054403652,3.28084,6,P-GPS,
152800,2023-10-01 21:00:14,40.0688892553158,-88.2096483706038,3.937008,,,710.37671203652,4.92126,0,0.203647644312,0.50136484544,29,10,23.1265,710.37671203652,3.937008,0.223694,0.205946200816,0,0,-6.71082,269.8, -0.2, 0,0,0,1024,1024,1684,1024,0,0,100,0,0,0,0,74,,,,,,,3.678,105.26,710.37671203652,3.937008,6,P-GPS,
152900,2023-10-01 21:00:14,40.0688893058333,-88.2096483794614,5.249344,,,711.68904803652,5.905512,0,0.208694560484,0.51996064656,29,10,23.1265,711.68904803652,5.249344,0.223694,0.208694560484,0,0,-7.381902,269.8, 0.3, -0.5,0,0,1024,1024,1684,1024,0,0,100,0,0,0,0,74,,,,,,,3.678,105.26,711.68904803652,5.249344,6,P-GPS,
153000,2023-10-01 21:00:14,40.0688893829825,-88.2096484068586,6.233596,,,712.67330003652,6.889764,0,0.216000006912,0.549130595,29,10,23.1265,712.67330003652,6.233596,0.223694,0.216000006912,0,0,-8.276678,269.8, 0.4, -1.2,0,0,1024,1024,1684,1024,0,0,100,0,0,0,0,74,,,,,,,3.678,105.26,712.67330003652,6.233596,6,P-GPS,
153100,2023-10-01 21:00:14,40.0688894339538,-88.2096484446817,7.545932,,,713.98563603652,7.874016,0,0.218498038488,0.57051511012,29,10,23.1265,713.98563603652,7.545932,0.223694,0.218498038488,0,0,-8.94776,269.9, 0.6, -1.5,0,0,1024,1024,1684,1024,0,0,100,0,0,0,0,74,,,,,,,3.678,105.26,713.98563603652,7.545932,6,P-GPS,
153200,2023-10-01 21:00:14,40.0688894897481,-88.2096484917311,8.858268,,,715.29797203652,8.858268,0,0.222446201344,0.59474411352,29,10,23.1265,715.29797203652,8.858268,0.223694,0.222446201344,0,0,-9.618842,269.9, 0.5, -1.4,0,0,1024,1024,992,1024,0,0,-5,0,0,0,0,74,,,,,,,3.678,105.26,715.29797203652,8.858268,6,P-GPS,
153300,2023-10-01 21:00:14,40.0688894932781,-88.2096485390921,10.498688,,,716.93839203652,9.84252,0,0.214309718144,0.60802823468,29,10,23.1265,716.93839203652,10.498688,0.223694,0.222446201344,0,0,-10.06623,270, 0.1, -1,0,0,1024,1024,1024,1024,0,0,0,0,0,0,0,74,,,,,,,3.678,105.26,716.93839203652,10.498688,6,P-GPS,
153400,2023-10-01 21:00:14,40.0688894918521,-88.2096486132629,11.811024,,,718.25072803652,10.498688,0,0.200648628468,0.62874345844,29,10,23.1265,718.25072803652,11.811024,0.223694,0.222446201344,0,0,-10.289924,270.1, 0, -1,0,0,1024,1024,1024,1024,0,0,0,0,0,0,0,74,,,,,,,3.678,105.26,718.25072803652,11.811024,6,P-GPS,
153500,2023-10-01 21:00:15,40.0688894938952,-88.2096487159813,13.451444,,,719.89114803652,11.811024,0,0.185182420624,0.65743440424,29,10,23.1265,719.89114803652,13.451444,0.223694,0.222446201344,0,0,-10.06623,270.4, 0.6, -1.4,0,0,1024,1024,1024,1024,0,0,0,0,0,0,0,74,,,,,,,3.678,105.26,719.89114803652,13.451444,6,P-GPS,
153600,2023-10-01 21:00:15,40.0688894775854,-88.2096488200048,14.76378,,,721.20348403652,12.795276,0.223694,0.166795609012,0.68708007448,29,10,23.1265,721.20348403652,14.76378,0.223694,0.222446201344,0,-0.223694,-9.618842,270.6, 1.4, -1.3,0,0,1024,1024,1024,1024,0,0,0,0,0,0,0,74,,,,,,,3.678,105.26,721.20348403652,14.76378,6,P-GPS,
153700,2023-10-01 21:00:15,40.0688894520519,-88.2096489485703,16.076116,,,722.51582003652,11.154856,0.223694,0.147245083452,0.72416668984,29,10,23.1265,722.51582003652,16.076116,0.223694,0.222446201344,0,-0.223694,-9.171454,270.7, 1.9, -0.4,0,0,1024,1024,1024,1024,0,0,0,0,0,0,0,74,,,,,,,3.678,105.26,722.51582003652,16.076116,6,P-GPS,
153800,2023-10-01 21:00:15,40.068889423278,-88.2096490962772,17.716536,,,724.15624003652,12.467192,0.223694,0.134452432124,0.76672246548,29,10,23.1265,724.15624003652,17.716536,0.223694,0.222446201344,0,-0.223694,-8.500372,270.6, 2, 0.6,0,0,1024,1024,1024,1024,0,0,0,0,0,0,0,74,,,,,,,3.678,105.26,724.15624003652,17.716536,6,P-GPS,
153900,2023-10-01 21:00:15,40.0688893949597,-88.2096492318738,18.700788,,,725.14049203652,13.12336,0.223694,0.133364177496,0.80596787356,29,10,23.1265,725.14049203652,18.700788,0.223694,0.222446201344,0,-0.223694,-7.82929,270.5, 2.1, 0.7,0,0,1024,1024,1024,1024,0,0,0,0,0,0,0,74,,,,,,,3.678,105.26,725.14049203652,18.700788,6,P-GPS,
154000,2023-10-01 21:00:15,40.0688893794013,-88.209649401008,20.013124,,,726.45282803652,9.84252,0.223694,0.152930451088,0.85353021104,29,10,23.1265,726.45282803652,20.013124,0.223694,0.222446201344,0,-0.223694,-7.158208,270.5, 2.3, 0.3,0,0,1024,1024,1024,1024,0,0,0,0,0,0,0,74,,,,,,,3.678,105.26,726.45282803652,20.013124,6,P-GPS,
154100,2023-10-01 21:00:15,40.0688893849965,-88.2096495655517,20.997376,,,727.43708003652,10.826772,0.223694,0.186912407556,0.89951774532,29,10,23.1265,727.43708003652,20.997376,0.223694,0.222446201344,0,-0.223694,-6.263432,270.5, 2.6, -0.2,0,0,1024,1024,364,1073,0,0,-100,7,0,0,0,74,,,,,,,3.678,105.26,727.43708003652,20.997376,6,P-GPS,
154200,2023-10-01 21:00:15,40.0688893976132,-88.2096497445458,21.981628,,,728.42133203652,10.826772,0.223694,0.229977697648,0.94970803564,29,10,23.1265,728.42133203652,21.981628,0.223694,0.229977697648,0,-0.223694,-5.59235,270.6, 3, -0.5,0,0,1024,1024,677,1024,0,0,-53,0,0,0,0,74,,,,,,,3.678,105.26,728.42133203652,21.981628,6,P-GPS,
154300,2023-10-01 21:00:15,40.068889407607,-88.2096499224747,22.637796,,,729.07750003652,4.92126,0.223694,0.274754930052,0.99952102936,29,10,23.1265,729.07750003652,22.637796,0.223694,0.274754930052,0,-0.223694,-4.697574,270.6, 3.6, -0.4,0,0,1024,1024,1024,1024,0,0,0,0,0,0,0,74,,,,,,,3.678,105.26,729.07750003652,22.637796,6,P-GPS,
154400,2023-10-01 21:00:15,40.0688894055431,-88.2096501042007,23.293964,,,729.73366803652,5.577428,0.223694,0.320210312084,1.05026578164,29,10,23.1265,729.73366803652,23.293964,0.223694,0.320210312084,0,-0.223694,-4.026492,270.5, 3.9, -0.1,0,0,1024,1024,364,1060,0,0,-100,5,0,0,0,74,,,,,,,3.678,105.26,729.73366803652,23.293964,6,P-GPS,
154500,2023-10-01 21:00:16,40.0688893998723,-88.2096502720066,23.622048,,,730.06175203652,6.233596,0.223694,0.36295276752,1.0971621086,29,10,23.1265,730.06175203652,23.622048,0.223694,0.36295276752,0,-0.223694,-3.35541,270.5, 4.2, -0.3,0,0,1024,1024,364,1060,0,0,-100,5,0,0,0,74,,,,,,,3.678,105.26,730.06175203652,23.622048,6,P-GPS,
154600,2023-10-01 21:00:16,40.0688893787274,-88.2096504443323,24.278216,,,730.71792003652,6.56168,0.223694,0.40614502612,1.14589242512,29,10,23.0035,730.71792003652,24.278216,0.223694,0.40614502612,0,-0.223694,-2.460634,270.6, 4.5, -0.6,0,0,1024,1024,364,1088,0,0,-100,10,0,0,0,73,,,,,,,9.608,105.26,730.71792003652,24.278216,6,P-GPS,
154700,2023-10-01 21:00:16,40.0688893610218,-88.2096506196747,24.6063,,,731.04600403652,6.889764,0.223694,0.4515912218,1.1952756288,29,10,23.0035,731.04600403652,24.6063,0.223694,0.4515912218,0,-0.223694,-1.565858,270.8, 4.8, -0.4,0,0,1024,1024,364,1088,0,0,-100,10,0,0,0,73,,,,,,,9.608,105.26,731.04600403652,24.6063,6,P-GPS,
154800,2023-10-01 21:00:16,40.0688893420652,-88.2096508032311,24.6063,,,731.04600403652,6.889764,0.223694,0.4999343992,1.24698822888,29,10,23.0035,731.04600403652,24.6063,0.223694,0.4999343992,0,-0.223694,-0.671082,270.9, 5.3, -0.2,0,0,1024,1024,1024,1024,0,0,0,0,0,0,0,73,,,,,,,9.608,105.26,731.04600403652,24.6063,6,P-GPS,
154900,2023-10-01 21:00:16,40.0688893340139,-88.2096509484089,24.934384,,,731.37408803652,6.889764,0.223694,0.53908466292,1.2876312748,29,10,23.0035,731.37408803652,24.934384,0.223694,0.53908466292,0,-0.223694,-0.223694,270.8, 5.5, -0.2,0,0,1024,1024,1024,1024,0,0,0,0,0,0,0,73,,,,,,,9.608,105.26,731.37408803652,24.934384,6,P-GPS,
155000,2023-10-01 21:00:16,40.0688893401508,-88.2096511065622,24.934384,,,731.37408803652,6.889764,0,0.58291012364,1.33184387464,29,10,23.0035,731.37408803652,24.934384,0.223694,0.58291012364,0,0,0,270.8, 4.3, -0.2,0,0,1024,1024,1024,1024,0,0,0,0,0,0,0,73,,,,,,,9.608,105.26,731.37408803652,24.934384,6,P-GPS,
155100,2023-10-01 21:00:16,40.0688893289643,-88.2096511807352,24.934384,,,731.37408803652,6.889764,0,0.60261484868,1.3529527992,29,10,23.0035,731.37408803652,24.934384,0.223694,0.60261484868,0,0,0,270.6, 3.2, 0,0,0,1024,1024,1024,1024,0,0,0,0,0,0,0,73,,,,,,,9.608,105.26,731.37408803652,24.934384,6,P-GPS,
155200,2023-10-01 21:00:16,40.0688893103736,-88.2096512541804,24.934384,,,731.37408803652,6.889764,0,0.621801201,1.37455384976,29,10,23.0035,731.37408803652,24.934384,0.223694,0.621801201,0,0,0,270.4, 3, 0.1,0,0,1024,1024,1024,1024,0,0,0,0,0,0,0,73,,,,,,,9.608,105.26,731.37408803652,24.934384,6,P-GPS,
155300,2023-10-01 21:00:16,40.0688892921714,-88.2096513348412,24.934384,,,731.37408803652,6.889764,0,0.64315618856,1.3980315408,29,10,23.0035,731.37408803652,24.934384,0.223694,0.64315618856,0,0,0,270.3, 3.8, 0.2,0,0,1024,1024,1024,1024,0,0,0,0,0,0,0,73,,,,,,,9.608,105.26,731.37408803652,24.934384,6,P-GPS,
155400,2023-10-01 21:00:16,40.0688892593843,-88.2096513915848,24.934384,,,731.37408803652,6.889764,0,0.65740487668,1.41788390364,29,10,23.0035,731.37408803652,24.934384,0.223694,0.65740487668,0,0,0,270.2, 4.4, 0.4,0,0,1024,1024,1024,1024,0,0,0,0,0,0,0,73,,,,,,,9.608,105.26,731.37408803652,24.934384,6,P-GPS,
155500,2023-10-01 21:00:16,40.068889247318,-88.2096514330736,24.934384,,,731.37408803652,6.889764,0,0.66844490328,1.43027563632,29,10,23.0035,731.37408803652,24.934384,0.223694,0.66844490328,0,0,0,270.1, 4.5, 0.3,0,0,1024,1024,1024,1024,0,0,0,0,0,0,0,73,,,,,,,9.608,105.26,731.37408803652,24.934384,6,P-GPS,
155600,2023-10-01 21:00:17,40.0688892608997,-88.2096514769873,24.6063,,,731.04600403652,6.889764,0,0.68116471996,1.44350070236,29,10,22.89,731.37408803652,24.934384,0.223694,0.68116471996,0,0,0,270.1, 4.4, 0.1,0,0,1024,1024,1024,1024,0,0,0,0,0,0,0,73,,,,,,,3.753,105.26,731.04600403652,24.6063,6,P-GPS,
155700,2023-10-01 21:00:17,40.0688892877735,-88.2096514561181,24.6063,,,731.04600403652,6.889764,0,0.67652889304,1.45490818304,29,10,22.89,731.37408803652,24.934384,0.223694,0.68116471996,0,0,0,270, 4.2, 0.2,0,0,1024,1024,1024,1024,0,0,0,0,0,0,0,73,,,,,,,3.753,105.26,731.04600403652,24.6063,6,P-GPS,
155800,2023-10-01 21:00:17,40.0688893004916,-88.2096514674757,24.6063,,,731.04600403652,6.889764,0,0.6802657698,1.46052826196,29,10,22.89,731.37408803652,24.934384,0.223694,0.68116471996,0,0,0,270, 4, 0.3,0,0,1024,1024,1024,1024,0,0,0,0,0,0,0,73,,,,,,,3.753,105.26,731.04600403652,24.6063,6,P-GPS,
155900,2023-10-01 21:00:17,40.0688893006276,-88.2096514736461,24.6063,,,731.04600403652,6.889764,0,0.68198164912,1.46225070296,29,10,22.89,731.37408803652,24.934384,0.223694,0.68198164912,0,0,0,270, 4, 0.3,0,0,1024,1024,1024,1024,0,0,0,0,0,0,0,73,,,,,,,3.753,105.26,731.04600403652,24.6063,6,P-GPS,
156000,2023-10-01 21:00:17,40.0688893107017,-88.2096514769597,24.6063,,,731.04600403652,6.889764,0,0.68338584864,1.46604007316,29,10,22.89,731.37408803652,24.934384,0.223694,0.68338584864,0,0,0,270, 4.2, 0.2,0,0,1024,1024,1024,1024,0,0,0,0,0,0,0,73,,,,,,,3.753,105.26,731.04600403652,24.6063,6,P-GPS,
156100,2023-10-01 21:00:17,40.0688893088154,-88.2096514601702,24.6063,,,731.04600403652,6.889764,0,0.67864831568,1.47078088696,29,10,22.89,731.37408803652,24.934384,0.223694,0.68338584864,0,0,0,270.1, 4.2, 0.2,0,0,1024,1024,1024,1024,0,0,0,0,0,0,0,73,,,,,,,3.753,105.26,731.04600403652,24.6063,6,P-GPS,
156200,2023-10-01 21:00:17,40.0688893122515,-88.2096514259156,24.6063,,,731.04600403652,6.889764,0,0.66935041512,1.48042655656,29,10,22.89,731.37408803652,24.934384,0.223694,0.68338584864,0,0,0,270.1, 3.9, 0.1,0,0,1024,1024,1024,1024,0,0,0,0,0,0,0,73,,,,,,,3.753,105.26,731.04600403652,24.6063,6,P-GPS,
156300,2023-10-01 21:00:17,40.068889316292,-88.2096513852094,24.6063,,,731.04600403652,6.889764,0,0.65830710768,1.49188653068,29,10,22.89,731.37408803652,24.934384,0.223694,0.68338584864,0,0,0,270.2, 3.5, 0.1,0,0,1024,1024,1024,1024,0,0,0,0,0,0,0,73,,,,,,,3.753,105.26,731.04600403652,24.6063,6,P-GPS,
156400,2023-10-01 21:00:17,40.068889319669,-88.2096513090914,24.6063,,,731.04600403652,6.889764,0,0.637467212,1.51317590144,29,10,22.89,731.37408803652,24.934384,0.223694,0.68338584864,0,0,0,270.3, 3.4, 0,0,0,1024,1024,1024,1024,0,0,0,0,0,0,0,73,,,,,,,3.753,105.26,731.04600403652,24.6063,6,P-GPS,
156500,2023-10-01 21:00:17,40.0688893156162,-88.2096512776745,24.6063,,,731.04600403652,6.889764,0,0.62857285476,1.52207025868,29,10,22.89,731.37408803652,24.934384,0.223694,0.68338584864,0,0,0,270.3, 3.6, 0.1,0,0,1024,1024,1024,1024,0,0,0,0,0,0,0,73,,,,,,,3.753,105.26,731.04600403652,24.6063,6,P-GPS,
156600,2023-10-01 21:00:18,40.0688893035683,-88.2096512475971,24.6063,,,731.04600403652,6.889764,0,0.61961616156,1.53154860544,29,10,22.983,731.37408803652,24.934384,0.223694,0.68338584864,0,0,0,270.3, 3.7, 0.1,0,0,1024,1024,1024,1024,0,0,0,0,0,0,0,73,,,,,,,8.197,105.26,731.04600403652,24.6063,6,P-GPS,
156700,2023-10-01 21:00:18,40.0688892669251,-88.209651188485,24.6063,,,731.04600403652,6.889764,0,0.60144030796,1.5527887636,29,10,22.983,731.37408803652,24.934384,0.223694,0.68338584864,0,0,0,270.4, 3.6, 0,0,0,1024,1024,1024,1024,0,0,0,0,0,0,0,73,,,,,,,8.197,105.26,731.04600403652,24.6063,6,P-GPS,
156800,2023-10-01 21:00:18,40.0688892563508,-88.2096511406983,24.6063,,,731.04600403652,6.889764,0,0.58771655424,1.56667655932,29,10,22.983,731.37408803652,24.934384,0.223694,0.68338584864,0,0,0,270.4, 3.6, -0.1,0,0,1024,1024,1024,1024,0,0,0,0,0,0,0,73,,,,,,,8.197,105.26,731.04600403652,24.6063,6,P-GPS,
156900,2023-10-01 21:00:18,40.06888924525,-88.2096510914748,24.6063,,,731.04600403652,6.889764,0,0.57358269552,1.58100726844,29,10,22.983,731.37408803652,24.934384,0.223694,0.68338584864,0,0,0,270.4, 3.6, -0.1,0,0,1024,1024,1024,1024,0,0,0,0,0,0,0,73,,,,,,,8.197,105.26,731.04600403652,24.6063,6,P-GPS,
157000,2023-10-01 21:00:18,40.0688892303465,-88.2096510385513,24.6063,,,731.04600403652,6.889764,0,0.55827101524,1.5967520196,29,10,22.983,731.37408803652,24.934384,0.223694,0.68338584864,0,0,0,270.4, 3.4, -0.1,0,0,1024,1024,1024,1024,0,0,0,0,0,0,0,73,,,,,,,8.197,105.26,731.04600403652,24.6063,6,P-GPS,
157100,2023-10-01 21:00:18,40.0688892085465,-88.2096509688267,24.6063,,,731.04600403652,6.889764,0,0.53805447916,1.617782204,29,10,22.983,731.37408803652,24.934384,0.223694,0.68338584864,0,0,0,270.4, 3.1, 0,0,0,1024,1024,1024,1024,0,0,0,0,0,0,0,73,,,,,,,8.197,105.26,731.04600403652,24.6063,6,P-GPS,
157200,2023-10-01 21:00:18,40.0688891910964,-88.2096509210236,24.6063,,,731.04600403652,6.889764,0,0.52414371756,1.63256894988,29,10,22.983,731.37408803652,24.934384,0.223694,0.68338584864,0,0,0,270.4, 3.1, 0.2,0,0,1024,1024,1024,1024,0,0,0,0,0,0,0,73,,,,,,,8.197,105.26,731.04600403652,24.6063,6,P-GPS,
157300,2023-10-01 21:00:18,40.0688891803036,-88.2096508758545,24.6063,,,731.04600403652,6.889764,0,0.51122705048,1.64578089256,29,10,22.983,731.37408803652,24.934384,0.223694,0.68338584864,0,0,0,270.4, 3.2, 0.2,0,0,1024,1024,1024,1024,0,0,0,0,0,0,0,73,,,,,,,8.197,105.26,731.04600403652,24.6063,6,P-GPS,
157400,2023-10-01 21:00:18,40.0688891744807,-88.2096508006821,24.6063,,,731.04600403652,6.889764,0,0.49013124928,1.66687669376,29,10,22.983,731.37408803652,24.934384,0.223694,0.68338584864,0,0,0,270.4, 3.1, 0.2,0,0,1024,1024,855,1024,0,0,-26,0,0,0,0,73,,,,,,,8.197,105.26,731.04600403652,24.6063,6,P-GPS,
157500,2023-10-01 21:00:18,40.0688891747758,-88.2096507666415,24.6063,,,731.04600403652,6.889764,0,0.4806758684,1.67638128724,29,10,22.983,731.37408803652,24.934384,0.223694,0.68338584864,0,0,0,270.4, 3.2, 0,0,0,1024,1024,391,1346,0,0,-96,49,0,0,0,73,,,,,,,8.197,105.26,731.04600403652,24.6063,6,P-GPS,
157600,2023-10-01 21:00:19,40.0688891814366,-88.2096507310499,24.6063,,,731.04600403652,6.889764,0,0.47100723292,1.68661094636,29,10,22.983,731.37408803652,24.934384,0.223694,0.68338584864,0,0,0,270.4, 3.3, 0,0,0,1024,1024,391,1346,0,0,-96,49,0,0,0,73,,,,,,,8.197,105.26,731.04600403652,24.6063,6,P-GPS,
157700,2023-10-01 21:00:19,40.0688891827988,-88.2096507003374,24.6063,,,731.04600403652,6.889764,0,0.46252298068,1.69520346632,29,10,22.973,731.37408803652,24.934384,0.223694,0.68338584864,0,0,0.223694,270.9, 3.1, 0,0,0,1024,1024,994,1024,0,0,-5,0,0,0,0,73,,,,,,,8.033,105.26,731.04600403652,24.6063,6,P-GPS,
157800,2023-10-01 21:00:19,40.0688891880284,-88.2096506547153,24.6063,,,731.04600403652,6.889764,0,0.450049227,1.70808076332,29,10,22.973,731.37408803652,24.934384,0.223694,0.68338584864,0,0,0.671082,272.1, 3.1, 0.3,0,0,1024,1024,1024,1024,0,0,0,0,0,0,0,73,,,,,,,8.033,105.26,731.04600403652,24.6063,6,P-GPS,
157900,2023-10-01 21:00:19,40.068889169841,-88.2096506473266,24.6063,,,731.04600403652,6.889764,0,0.44733597232,1.71502958244,29,10,22.973,731.37408803652,24.934384,0.223694,0.68338584864,0,0,0.671082,272.3, 3.6, 0.7,0,0,1024,1024,364,1325,0,0,-100,46,0,0,0,73,,,,,,,8.033,105.26,731.04600403652,24.6063,6,P-GPS,
158000,2023-10-01 21:00:19,40.0688891544959,-88.209650624478,24.278216,,,730.71792003652,6.889764,0,0.44049542092,1.72352039636,29,10,22.973,731.37408803652,24.934384,0.223694,0.68338584864,0,0,0.447388,272.1, 3.5, 0.7,0,0,1024,1024,364,1325,0,0,-100,46,0,0,0,73,,,,,,,8.033,105.26,730.71792003652,24.278216,6,P-GPS,
158100,2023-10-01 21:00:19,40.0688891472354,-88.2096505921831,24.278216,,,730.71792003652,6.889764,0,0.43129594556,1.73291672212,29,10,22.973,731.37408803652,24.934384,0.223694,0.68338584864,0,0,0.671082,273, 3, 0.1,0,0,1024,1024,803,1113,0,0,-33,13,0,0,0,73,,,,,,,8.033,105.26,730.71792003652,24.278216,6,P-GPS,
158200,2023-10-01 21:00:19,40.0688891501726,-88.2096505865166,23.950132,,,730.38983603652,6.889764,0,0.42980316336,1.73482945184,29,10,22.973,731.37408803652,24.934384,0.223694,0.68338584864,0,0,1.342164,275.4, 3, -0.2,0,0,1024,1024,661,1024,0,0,-55,0,0,0,0,73,,,,,,,8.033,105.26,730.38983603652,23.950132,6,P-GPS,
158300,2023-10-01 21:00:19,40.0688891460446,-88.2096505911582,23.950132,,,730.38983603652,6.889764,0,0.43097770408,1.73681436004,29,10,22.973,731.37408803652,24.934384,0.223694,0.68338584864,0,0,1.565858,276.5, 3.8, 0.6,0,0,1024,1024,661,1024,0,0,-55,0,0,0,0,73,,,,,,,8.033,105.26,730.38983603652,23.950132,6,P-GPS,
158400,2023-10-01 21:00:19,40.0688891303331,-88.2096505761096,23.622048,,,730.06175203652,6.889764,0,0.42638780892,1.74392065948,29,10,22.973,731.37408803652,24.934384,0.223694,0.68338584864,0,0,1.11847,276.4, 3.6, 1.9,0,0,1024,1024,1024,1024,0,0,0,0,0,0,0,73,,,,,,,8.033,105.26,730.06175203652,23.622048,6,P-GPS,
158500,2023-10-01 21:00:20,40.0688891313411,-88.2096505569678,23.293964,,,729.73366803652,6.889764,0,0.42107612896,1.7492782712,29,10,22.973,731.37408803652,24.934384,0.223694,0.68338584864,0,0,1.342164,276.5, 2.4, 1.4,0,0,1024,1024,1024,1024,0,0,0,0,0,0,0,73,,,,,,,8.033,105.26,729.73366803652,23.293964,6,P-GPS,
158600,2023-10-01 21:00:20,40.0688891119286,-88.2096505640431,23.293964,,,729.73366803652,6.889764,0,0.42264765132,1.75663391448,29,10,22.973,731.37408803652,24.934384,0.223694,0.68338584864,0,0,1.565858,276.7, 3.3, 1.1,0,0,1024,1024,1024,1024,0,0,0,0,0,0,0,73,,,,,,,8.033,105.26,729.73366803652,23.293964,6,P-GPS,
158700,2023-10-01 21:00:20,40.0688891035652,-88.2096505367208,22.96588,,,729.40558403652,6.889764,0,0.41489174556,1.76484913784,29,10,22.973,731.37408803652,24.934384,0.223694,0.68338584864,0,0,1.11847,276.6, 3.6, 0.9,0,0,1024,1024,1024,1024,0,0,0,0,0,0,0,73,,,,,,,8.033,105.26,729.40558403652,22.96588,6,P-GPS,
158800,2023-10-01 21:00:20,40.0688890962915,-88.2096504525355,22.637796,,,729.07750003652,6.889764,0,0.39129922512,1.78850399424,29,10,22.973,731.37408803652,24.934384,0.223694,0.68338584864,0,0,0.894776,276.5, 3.3, 0.5,0,0,1024,1024,874,1024,0,0,-23,0,0,0,0,73,,,,,,,8.033,105.26,729.07750003652,22.637796,6,P-GPS,
158900,2023-10-01 21:00:20,40.0688890760212,-88.2096504070625,22.637796,,,729.07750003652,6.889764,0,0.37839896224,1.80319559576,29,10,22.973,731.37408803652,24.934384,0.223694,0.68338584864,0,0,0.671082,276.4, 3.1, 0.4,0,0,1024,1024,394,1253,0,0,-95,35,0,0,0,73,,,,,,,8.033,105.26,729.07750003652,22.637796,6,P-GPS,
159000,2023-10-01 21:00:20,40.0688890368928,-88.2096503788396,22.637796,,,729.07750003652,6.889764,0,0.37051838456,1.8195046514,29,10,22.973,731.37408803652,24.934384,0.223694,0.68338584864,0,0,0.894776,276.7, 2.8, 0.5,0,0,1024,1024,1024,1024,0,0,0,0,0,0,0,73,,,,,,,8.033,105.26,729.07750003652,22.637796,6,P-GPS,
159100,2023-10-01 21:00:20,40.0688890317124,-88.2096503713843,22.309712,,,728.74941603652,6.889764,0,0.36847770208,1.82231305044,29,10,22.973,731.37408803652,24.934384,0.223694,0.68338584864,0,0,1.342164,278.1, 2.8, 0.4,0,0,1024,1024,1024,1024,0,0,0,0,0,0,0,73,,,,,,,8.033,105.26,728.74941603652,22.309712,6,P-GPS,
159200,2023-10-01 21:00:20,40.0688890354884,-88.2096503905193,21.981628,,,728.42133203652,0.656168,0,0.37378938204,1.82783142332,29,10,22.973,731.37408803652,24.934384,0.223694,0.68338584864,0,0,1.789552,279.1, 3.9, 1,0,0,1024,1024,1024,1024,0,0,0,0,0,0,0,73,,,,,,,8.033,105.26,728.42133203652,21.981628,6,P-GPS,
159300,2023-10-01 21:00:20,40.0688890204229,-88.2096503748276,21.981628,,,728.42133203652,0.328084,0,0.36956366012,1.83486226344,29,10,22.973,731.37408803652,24.934384,0.223694,0.68338584864,0,0,1.342164,279.1, 4.1, 1.8,0,0,1024,1024,522,1035,0,0,-76,2,0,0,0,73,,,,,,,8.033,105.26,728.42133203652,21.981628,6,P-GPS,
159400,2023-10-01 21:00:20,40.0688890114365,-88.2096503282886,21.653544,,,728.09324803652,0.328084,0,0.35671260984,1.848261214,29,10,22.973,731.37408803652,24.934384,0.223694,0.68338584864,0,0,1.11847,279, 3.2, 1.2,0,0,1024,1024,1024,1024,0,0,0,0,0,0,0,73,,,,,,,8.033,105.26,728.09324803652,21.653544,6,P-GPS,
159500,2023-10-01 21:00:20,40.0688890599601,-88.209650295229,21.653544,,,728.09324803652,0,0,0.34710959116,1.86822840624,29,10,22.973,731.37408803652,24.934384,0.223694,0.68338584864,0,0,0.894776,279.3, 2.5, 0.1,0,0,1024,1024,1024,1024,0,0,0,0,0,0,0,73,,,,,,,8.033,105.26,728.09324803652,21.653544,6,P-GPS,
159600,2023-10-01 21:00:21,40.0688890988941,-88.2096502606718,21.32546,,,727.76516403652,0,0,0.33781497144,1.8854003228,29,10,23.052,731.37408803652,24.934384,0.223694,0.68338584864,0,0,0.447388,279.7, 2.6, -0.1,0,0,1024,1024,1024,1266,0,0,0,37,0,0,0,72,,,,,,,7.147,105.44,727.76516403652,21.32546,6,P-GPS,
159700,2023-10-01 21:00:21,40.0688891043779,-88.209650227776,21.32546,,,727.76516403652,2.624672,0,0.328740168,1.8947999294,29,10,23.052,731.37408803652,24.934384,0.223694,0.68338584864,0,0,0.223694,279.7, 2.8, 0.5,0,0,1024,1024,1024,1266,0,0,0,37,0,0,0,72,,,,,,,7.147,105.44,727.76516403652,21.32546,6,P-GPS,
159800,2023-10-01 21:00:21,40.0688890890554,-88.209650188378,21.32546,,,727.76516403652,1.968504,0,0.317497057404,1.90713916864,29,10,23.052,731.37408803652,24.934384,0.223694,0.68338584864,0,0,0.223694,280.3, 2.9, 1.3,0,0,1024,1024,1024,1024,0,0,0,0,0,0,0,73,,,,,,,7.147,105.44,727.76516403652,21.32546,6,P-GPS,
159900,2023-10-01 21:00:21,40.0688890739033,-88.2096501564579,21.32546,,,727.76516403652,1.64042,0,0.30842684714,1.91762801412,29,10,23.052,731.37408803652,24.934384,0.223694,0.68338584864,0,0,0,281.3, 2.9, 1.2,0,0,1024,1024,966,559,0,0,-9,-70,0,0,0,73,,,,,,,7.147,105.44,727.76516403652,21.32546,6,P-GPS,
160000,2023-10-01 21:00:21,40.0688890553717,-88.2096501603519,21.32546,,,727.76516403652,1.64042,0,0.309447516464,1.9244751272,29,10,23.052,731.37408803652,24.934384,0.223694,0.68338584864,0,0,0,281.7, 3.2, 1.4,0,0,1024,1024,993,480,0,0,-5,-82,0,0,0,73,,,,,,,7.147,105.44,727.76516403652,21.32546,6,P-GPS,
160100,2023-10-01 21:00:21,40.0688890428392,-88.2096501414486,21.32546,,,727.76516403652,1.968504,0,0.304208999236,1.93146003556,29,10,23.052,731.37408803652,24.934384,0.223694,0.68338584864,0,0,0,280.9, 3.3, 1.7,0,0,1024,1024,993,480,0,0,-5,-82,0,0,0,73,,,,,,,7.147,105.44,727.76516403652,21.32546,6,P-GPS,
160200,2023-10-01 21:00:21,40.0688889874089,-88.2096500909305,21.32546,,,727.76516403652,1.968504,0,0.291151912204,1.95611554816,29,10,23.052,731.37408803652,24.934384,0.223694,0.68338584864,0,0,0,276, 3.5, 2.4,0,0,1024,1024,1024,1029,0,0,0,1,0,0,0,73,,,,,,,7.147,105.44,727.76516403652,21.32546,6,P-GPS,
160300,2023-10-01 21:00:21,40.0688889963668,-88.2096500505701,21.32546,,,727.76516403652,1.968504,0,0.279651911836,1.967847832,29,10,23.052,731.37408803652,24.934384,0.223694,0.68338584864,0,0,0,273.6, 3.1, 2.2,0,0,1024,1024,1024,1024,0,0,0,0,0,0,0,73,,,,,,,7.147,105.44,727.76516403652,21.32546,6,P-GPS,
160400,2023-10-01 21:00:21,40.0688890732821,-88.2096500233911,21.32546,,,727.76516403652,1.64042,0,0.271277239652,1.99691935524,29,10,23.052,731.37408803652,24.934384,0.223694,0.68338584864,0,0,0,273.1, 2.8, -0.1,0,0,1024,1024,1024,1024,0,0,0,0,0,0,0,73,,,,,,,7.147,105.44,727.76516403652,21.32546,6,P-GPS,
160500,2023-10-01 21:00:21,40.068889131919,-88.2096500245189,21.32546,,,727.76516403652,1.968504,0,0.272918971988,2.01831371288,29,10,23.052,731.37408803652,24.934384,0.223694,0.68338584864,0,0,0,273, 2.9, -1.2,0,0,1024,1024,1024,1024,0,0,0,0,0,0,0,73,,,,,,,7.147,105.44,727.76516403652,21.32546,6,P-GPS,
160600,2023-10-01 21:00:22,40.0688891193873,-88.2096500623829,21.32546,,,727.76516403652,2.624672,0,0.283030520868,2.02983274212,29,10,23.052,731.37408803652,24.934384,0.223694,0.68338584864,0,0,0,272.9, 3.4, -0.7,0,0,1024,1024,1024,1024,0,0,0,0,0,0,0,73,,,,,,,7.147,105.44,727.76516403652,21.32546,6,P-GPS,
160700,2023-10-01 21:00:22,40.0688891220267,-88.2096501145079,21.32546,,,727.76516403652,2.296588,0,0.297614182752,2.04441935676,29,10,23.052,731.37408803652,24.934384,0.223694,0.68338584864,0,0,0,273, 3.7, 0,0,0,1024,1024,1024,1024,0,0,0,0,0,0,0,73,,,,,,,7.147,105.44,727.76516403652,21.32546,6,P-GPS,
160800,2023-10-01 21:00:22,40.0688891329283,-88.2096501763026,21.32546,,,727.76516403652,2.624672,0,0.31514272662,2.06212605024,29,10,23.052,731.37408803652,24.934384,0.223694,0.68338584864,0,0,0,273.1, 3.9, 1,0,0,1024,1024,1024,1024,0,0,0,0,0,0,0,73,,,,,,,7.147,105.44,727.76516403652,21.32546,6,P-GPS,
160900,2023-10-01 21:00:22,40.0688891408259,-88.2096502612219,21.32546,,,727.76516403652,2.624672,0,0.33901575888,2.08601056544,29,10,23.052,731.37408803652,24.934384,0.223694,0.68338584864,0,0,0,273.2, 3.8, 1.5,0,0,1024,1024,1024,1024,0,0,0,0,0,0,0,73,,,,,,,7.147,105.44,727.76516403652,21.32546,6,P-GPS,
161000,2023-10-01 21:00:22,40.0688891379271,-88.2096502989807,21.32546,,,727.76516403652,2.624672,0,0.3494258642,2.0966043978,29,10,23.052,731.37408803652,24.934384,0.223694,0.68338584864,0,0,0,273.3, 3.6, 1.2,0,0,1024,1024,1024,1024,0,0,0,0,0,0,0,73,,,,,,,7.147,105.44,727.76516403652,21.32546,6,P-GPS,
161100,2023-10-01 21:00:22,40.0688891463037,-88.2096503274968,21.32546,,,727.76516403652,2.952756,0,0.35762468336,2.1051345818,29,10,23.052,731.37408803652,24.934384,0.223694,0.68338584864,0,0,0,273.4, 3.6, 0.7,0,0,1024,1024,1024,1024,0,0,0,0,0,0,0,73,,,,,,,7.147,105.44,727.76516403652,21.32546,6,P-GPS,
161200,2023-10-01 21:00:22,40.0688891528428,-88.2096503506004,21.32546,,,727.76516403652,2.952756,0,0.3642716652,2.11201122244,29,10,23.052,731.37408803652,24.934384,0.223694,0.68338584864,0,0,0,273.4, 3.7, 0.5,0,0,1024,1024,1024,1024,0,0,0,0,0,0,0,73,,,,,,,7.147,105.44,727.76516403652,21.32546,6,P-GPS,
161300,2023-10-01 21:00:22,40.0688891452734,-88.2096503866624,21.32546,,,727.76516403652,2.952756,0,0.37404528756,2.12245085532,29,10,23.052,731.37408803652,24.934384,0.223694,0.68338584864,0,0,0,273.2, 3.8, 0.9,0,0,1024,1024,1024,1024,0,0,0,0,0,0,0,73,,,,,,,7.147,105.44,727.76516403652,21.32546,6,P-GPS,
161400,2023-10-01 21:00:22,40.0688891526216,-88.2096504040472,21.32546,,,727.76516403652,3.28084,0,0.37912074704,2.12799875576,29,10,23.052,731.37408803652,24.934384,0.223694,0.68338584864,0,0,0,273.1, 3.7, 1.1,0,0,1024,1024,1024,1024,0,0,0,0,0,0,0,73,,,,,,,7.147,105.44,727.76516403652,21.32546,6,P-GPS,
161500,2023-10-01 21:00:22,40.0688891736089,-88.2096504091566,21.32546,,,727.76516403652,3.608924,0,0.38132547152,2.13578746992,29,10,23.052,731.37408803652,24.934384,0.223694,0.68338584864,0,0,0,273.1, 3.7, 0.8,0,0,1024,1024,1024,1024,0,0,0,0,0,0,0,73,,,,,,,7.147,105.44,727.76516403652,21.32546,6,P-GPS,
161600,2023-10-01 21:00:23,40.06888923145,-88.2096504128672,21.32546,,,727.76516403652,3.937008,0,0.3852854454,2.15691607952,29,10,22.936,731.37408803652,24.934384,0.223694,0.68338584864,0,0,0,273.1, 3.8, 0.4,0,0,1024,1024,1024,1024,0,0,0,0,0,0,0,72,,,,,,,8.138,105.44,727.76516403652,21.32546,6,P-GPS,
161700,2023-10-01 21:00:23,40.068889261949,-88.2096503999975,21.32546,,,727.76516403652,4.265092,0,0.38376313564,2.16860899328,29,10,22.936,731.37408803652,24.934384,0.223694,0.68338584864,0,0,0,273.1, 3.9, 0.2,0,0,1024,1024,1024,1024,0,0,0,0,0,0,0,72,,,,,,,8.138,105.44,727.76516403652,21.32546,6,P-GPS,
161800,2023-10-01 21:00:23,40.0688892836331,-88.2096503748944,21.32546,,,727.76516403652,4.265092,0,0.37854660004,2.17917657892,29,10,22.936,731.37408803652,24.934384,0.223694,0.68338584864,0,0,0,273.1, 3.8, 0.1,0,0,1024,1024,1024,1024,0,0,0,0,0,0,0,73,,,,,,,8.138,105.44,727.76516403652,21.32546,6,P-GPS,
161900,2023-10-01 21:00:23,40.0688892945456,-88.2096503461611,21.32546,,,727.76516403652,2.296588,0,0.37163387016,2.18813327212,29,10,22.936,731.37408803652,24.934384,0.223694,0.68338584864,0,0,0,273.1, 3.5, 0.4,0,0,1024,1024,972,1024,0,0,-8,0,0,0,0,73,,,,,,,8.138,105.44,727.76516403652,21.32546,6,P-GPS,
162000,2023-10-01 21:00:23,40.0688893034159,-88.2096503113116,21.32546,,,727.76516403652,2.624672,0,0.36296917172,2.19838917796,29,10,22.936,731.37408803652,24.934384,0.223694,0.68338584864,0,0,0,273, 3.5, 0.5,0,0,1024,1024,1024,1024,0,0,0,0,0,0,0,73,,,,,,,8.138,105.44,727.76516403652,21.32546,6,P-GPS,
162100,2023-10-01 21:00:23,40.0688893109081,-88.2096502820557,21.32546,,,727.76516403652,2.624672,0,0.35576772792,2.20700138296,29,10,22.936,731.37408803652,24.934384,0.223694,0.68338584864,0,0,0,273, 3.4, 0.3,0,0,1024,1024,1024,1024,0,0,0,0,0,0,0,73,,,,,,,8.138,105.44,727.76516403652,21.32546,6,P-GPS,
162200,2023-10-01 21:00:23,40.0688893177844,-88.209650250247,21.32546,,,727.76516403652,2.296588,0,0.34788058856,2.21623038588,29,10,22.936,731.37408803652,24.934384,0.223694,0.68338584864,0,0,0,273, 3.4, 0.2,0,0,1024,1024,1024,1024,0,0,0,0,0,0,0,73,,,,,,,8.138,105.44,727.76516403652,21.32546,6,P-GPS,
162300,2023-10-01 21:00:23,40.0688893284893,-88.2096502068538,21.32546,,,727.76516403652,2.624672,0,0.33737533888,2.22896004508,29,10,22.936,731.37408803652,24.934384,0.223694,0.68338584864,0,0,0,273, 3.4, 0.2,0,0,1024,1024,1024,1024,0,0,0,0,0,0,0,73,,,,,,,8.138,105.44,727.76516403652,21.32546,6,P-GPS,
162400,2023-10-01 21:00:23,40.068889339954,-88.2096501676125,21.32546,,,727.76516403652,2.296588,0,0.3282152336,2.24068904808,29,10,22.936,731.37408803652,24.934384,0.223694,0.68338584864,0,0,0,273, 3.4, 0.2,0,0,1024,1024,721,1024,0,0,-46,0,0,0,0,73,,,,,,,8.138,105.44,727.76516403652,21.32546,6,P-GPS,
162500,2023-10-01 21:00:23,40.0688893485594,-88.2096501313011,21.32546,,,727.76516403652,2.296588,0,0.319643382932,2.25130256548,29,10,22.936,731.37408803652,24.934384,0.223694,0.68338584864,0,0,0,273, 3.4, 0.2,0,0,1024,1024,824,1024,0,0,-30,0,0,0,0,73,,,,,,,8.138,105.44,727.76516403652,21.32546,6,P-GPS,
162600,2023-10-01 21:00:24,40.0688893574127,-88.2096500907114,21.32546,,,727.76516403652,2.296588,0,0.310112214648,2.26308734276,29,10,22.92,731.37408803652,24.934384,0.223694,0.68338584864,0,0,0,273, 3.4, 0.1,0,0,1024,1024,824,1024,0,0,-30,0,0,0,0,72,,,,,,,8.243,105.44,727.76516403652,21.32546,6,P-GPS,
162700,2023-10-01 21:00:24,40.0688893647554,-88.2096500388205,21.32546,,,727.76516403652,2.624672,0,0.297610245744,2.2778215952,29,10,22.92,731.37408803652,24.934384,0.223694,0.68338584864,0,0,0,273, 3.3, 0.1,0,0,1024,1024,1010,1024,0,0,-2,0,0,0,0,72,,,,,,,8.243,105.44,727.76516403652,21.32546,6,P-GPS,
