time(millisecond),datetime(utc),latitude,longitude,height_above_takeoff(feet),height_above_ground_at_drone_location(feet),ground_elevation_at_drone_location(feet),altitude_above_seaLevel(feet),height_sonar(feet),speed(mph),distance(feet),mileage(feet),satellites,gpslevel,voltage(v),max_altitude(feet),max_ascent(feet),max_speed(mph),max_distance(feet), xSpeed(mph), ySpeed(mph), zSpeed(mph), compass_heading(degrees), pitch(degrees), roll(degrees),isPhoto,isVideo,rc_elevator,rc_aileron,rc_throttle,rc_rudder,rc_elevator(percent),rc_aileron(percent),rc_throttle(percent),rc_rudder(percent),gimbal_heading(degrees),gimbal_pitch(degrees),gimbal_roll(degrees),battery_percent,voltageCell1,voltageCell2,voltageCell3,voltageCell4,voltageCell5,voltageCell6,current(A),battery_temperature(f),altitude(feet),ascent(feet),flycStateRaw,flycState,message
0,2023-10-01 22:01:21,40.0688809143012,-88.2097512659215,0,Available with any HD 360 subscription,Available with any HD 360 subscription,706.25202292815,0.656168,0,0,0,27,10,0,706.25202292815,0,0,0,0,0,0,270, -1.9, -0.4,0,0,364,364,364,1684,-100,-100,-100,100,0,0,0,100,,,,,,,0,102.2,706.25202292815,0,6,P-GPS,"Your aircraft is flying in an Altitude Zone (500m). Please fly with caution."
100,2023-10-01 22:01:21,40.068880921043,-88.2097512514463,0,,,706.25202292815,0.656168,0,0.0047312665556,0.0047312665556,27,10,0,706.25202292815,0,0,0.0047312665556,0,0,0,270, -1.9, -0.4,0,0,364,364,364,1684,-100,-100,-100,100,0,0,0,100,,,,,,,0,102.2,706.25202292815,0,41,Motors_Started,"Setting new Return-To-Home altitude to 100m (328 ft). Data Recorder File Index is 29. Setting new Maximum Flight Altitude to 120m (394 ft)"
200,2023-10-01 22:01:21,40.0688808876963,-88.2097512936258,0,,,706.25202292815,0.656168,0,0.0124119426544,0.021664042688,27,10,0,706.25202292815,0,0,0.0124119426544,0,0,0,270, -1.9, -0.4,0,0,364,364,364,1684,-100,-100,-100,100,0,0,0,100,,,,,,,0,102.2,706.25202292815,0,41,Motors_Started,
300,2023-10-01 22:01:21,40.0688808984961,-88.209751283021,0,,,706.25202292815,0.656168,0,0.0074864175624,0.02659284862,27,10,0,706.25202292815,0,0,0.0124119426544,0,0,0,270, -1.9, -0.4,0,0,364,364,364,1684,-100,-100,-100,100,0,0,0,100,,,,,,,0,102.2,706.25202292815,0,41,Motors_Started,
400,2023-10-01 22:01:22,40.0688809112427,-88.2097512702747,0,,,706.25202292815,0.656168,0,0.00164999677196,0.0324489511696,27,10,0,706.25202292815,0,0,0.0124119426544,0,0,0,270, -1.9, -0.4,0,0,427,413,429,1684,-90,-93,-90,100,0,0,0,100,,,,,,,0,102.2,706.25202292815,0,41,Motors_Started,
500,2023-10-01 22:01:22,40.0688808951512,-88.2097513052488,0,,,706.25202292815,0.656168,0,0.0130148954296,0.043843177256,27,10,0,706.25202292815,0,0,0.0130148954296,0,0,0,270, -1.9, -0.4,0,0,1024,1024,1024,1024,0,0,0,0,0,0,0,100,,,,,,,0,102.2,706.25202292815,0,41,Motors_Started,
600,2023-10-01 22:01:22,40.0688809051484,-88.2097512840496,0,,,706.25202292815,0.656168,0,0.0060638781468,0.0507956053,27,10,0,706.25202292815,0,0,0.0130148954296,0,0,0,270, -1.9, -0.4,0,0,1024,1024,1024,1024,0,0,0,0,0,0,0,100,,,,,,,0,102.2,706.25202292815,0,41,Motors_Started,
700,2023-10-01 22:01:22,40.0688809102287,-88.2097512678802,0,,,706.25202292815,0.656168,0,0.00158327760972,0.0556758548,27,10,0,706.25202292815,0,0,0.0130148954296,0,0,0,270, -1.9, -0.4,0,0,1024,1024,1024,1024,0,0,0,0,0,0,0,100,,,,,,,0,102.2,706.25202292815,0,41,Motors_Started,
800,2023-10-01 22:01:22,40.0688809159569,-88.2097512487433,0,,,706.25202292815,0.656168,0,0.0048341865064,0.061413387792,27,10,0,706.25202292815,0,0,0.0130148954296,0,0,0,270, -1.9, -0.4,0,0,1024,1024,1024,1024,0,0,0,0,0,0,0,100,,,,,,,0,102.2,706.25202292815,0,41,Motors_Started,
900,2023-10-01 22:01:22,40.068880889524,-88.209751276696,0,,,706.25202292815,0.656168,0,0.0095273625096,0.073819884252,27,10,0,706.25202292815,0,0,0.0130148954296,0,0,0,270, -1.9, -0.4,0,0,1024,1024,1024,1024,0,0,0,0,0,0,0,100,,,,,,,0,102.2,706.25202292815,0,41,Motors_Started,
1000,2023-10-01 22:01:22,40.0688808983723,-88.2097512558439,0,,,706.25202292815,0.656168,0,0.0064569555872,0.080477036696,27,10,0,706.25202292815,0,0,0.0130148954296,0,0,0,269.9, -1.9, -0.4,0,0,1024,1024,1024,1024,0,0,0,0,0,0,0,100,,,,,,,0,102.2,706.25202292815,0,41,Motors_Started,
1100,2023-10-01 22:01:22,40.0688809100442,-88.2097512382412,0,,,706.25202292815,0.656168,0,0.0078831039268,0.08697998966,27,10,0,706.25202292815,0,0,0.0130148954296,0,0,0,270, -1.9, -0.4,0,0,1024,1024,1024,1024,0,0,0,0,0,0,0,100,,,,,,,0,102.2,706.25202292815,0,41,Motors_Started,
1200,2023-10-01 22:01:22,40.0688809121394,-88.2097512488197,0,,,706.25202292815,0.656168,0,0.0048396983176,0.090030842776,27,10,0,706.25202292815,0,0,0.0130148954296,0,0,0,270.1, -1.9, -0.4,0,0,1024,1024,1024,1024,0,0,0,0,0,0,0,100,,,,,,,0,102.2,706.25202292815,0,41,Motors_Started,
1300,2023-10-01 22:01:22,40.0688809208729,-88.2097512344635,0,,,706.25202292815,0.656168,0,0.0091047247008,0.095151577848,27,10,0,706.25202292815,0,0,0.0130148954296,0,0,-0.223694,270.1, -1.9, -0.4,0,0,1024,1024,1024,1024,0,0,0,0,0,0,0,100,,,,,,,0,102.2,706.25202292815,0,41,Motors_Started,
1400,2023-10-01 22:01:23,40.0688809235527,-88.2097512264427,0,,,706.25202292815,0.656168,0,0.0115280843584,0.09759514748,27,10,0,706.25202292815,0,0,0.0130148954296,0,0,-0.223694,270.2, -1.9, -0.4,0,0,1024,1024,1024,1024,0,0,0,0,0,0,0,100,,,,,,,0,102.2,706.25202292815,0,41,Motors_Started,
1500,2023-10-01 22:01:23,40.0688809395742,-88.2097512237244,0,,,706.25202292815,0.656168,0,0.014961122526,0.103489504624,27,10,24.874,706.25202292815,0,0,0.014961122526,0,0,-0.223694,270.1, -1.9, -0.4,0,0,1024,1024,1024,1024,0,0,0,0,0,0,0,100,,,,,,,1.636,102.2,706.25202292815,0,41,Motors_Started,
1600,2023-10-01 22:01:23,40.0688809257091,-88.2097512928991,0,,,706.25202292815,0.656168,0,0.0086058401704,0.123455384528,27,10,24.874,706.25202292815,0,0,0.014961122526,0,0,-0.223694,270.1, -1.9, -0.4,0,0,1024,1024,1024,1024,0,0,0,0,0,0,0,100,,,,,,,1.636,102.2,706.25202292815,0,41,Motors_Started,
1700,2023-10-01 22:01:23,40.0688809463372,-88.2097512785571,0,,,706.25202292815,0.656168,0,0.012209153934,0.131980319184,27,10,24.874,706.25202292815,0,0,0.014961122526,0,0,-0.223694,270.1, -1.9, -0.4,0,0,1024,1024,1024,1024,0,0,0,0,0,0,0,100,,,,,,,1.636,102.2,706.25202292815,0,41,Motors_Started,
1800,2023-10-01 22:01:23,40.06888096831,-88.2097512607676,0,,,706.25202292815,0.656168,0,0.0197575793724,0.141411093764,27,10,24.874,706.25202292815,0,0,0.0197575793724,0,0,-0.223694,270.1, -1.9, -0.4,0,0,1024,1024,1024,1024,0,0,0,0,0,0,0,100,,,,,,,1.636,102.2,706.25202292815,0,41,Motors_Started,
1900,2023-10-01 22:01:23,40.0688809595158,-88.20975130894,0,,,706.25202292815,0.656168,0,0.0204059389732,0.155238850112,27,10,24.874,706.25202292815,0,0,0.0204059389732,0,0,-0.223694,270.1, -1.9, -0.4,0,0,1024,1024,1024,1024,0,0,0,0,0,0,0,100,,,,,,,1.636,102.2,706.25202292815,0,41,Motors_Started,
2000,2023-10-01 22:01:23,40.0688809804526,-88.2097512987282,0.328084,,,706.58010692815,0.656168,0,0.0258150598812,0.16339239368,27,10,24.874,706.58010692815,0.328084,0,0.0258150598812,0,0,-0.223694,270.1, -1.9, -0.4,0,0,1024,1024,1024,1024,0,0,0,0,0,0,0,100,,,,,,,1.636,102.2,706.58010692815,0.328084,41,Motors_Started,
2100,2023-10-01 22:01:23,40.0688810026061,-88.2097513002086,0.328084,,,706.58010692815,0.656168,0,0.033610237296,0.171485569792,27,10,24.874,706.58010692815,0.328084,0,0.033610237296,0,0,-0.223694,270.1, -1.9, -0.4,0,0,1024,1024,1024,1024,0,0,0,0,0,0,0,100,,,,,,,1.636,102.2,706.58010692815,0.328084,10,Assisted_Takeoff,
2200,2023-10-01 22:01:23,40.0688810250361,-88.2097512990715,0.328084,,,706.58010692815,0.656168,0,0.041448164056,0.1796752026,27,10,24.874,706.58010692815,0.328084,0,0.041448164056,0,0,-0.223694,270.1, -1.9, -0.4,0,0,1024,1024,1024,1024,0,0,0,0,0,0,0,100,,,,,,,1.636,102.2,706.58010692815,0.328084,10,Assisted_Takeoff,
2300,2023-10-01 22:01:23,40.068880994511,-88.2097513527032,0.328084,,,706.58010692815,0.656168,0,0.037993439536,0.198337276688,27,10,24.874,706.58010692815,0.328084,0,0.041448164056,0,0,-0.223694,270.1, -1.9, -0.4,0,0,1024,1024,1139,1024,0,0,17,0,0,0,0,100,,,,,,,1.636,102.2,706.58010692815,0.328084,10,Assisted_Takeoff,
2400,2023-10-01 22:01:24,40.0688810066604,-88.2097513386302,0.328084,,,706.58010692815,0.656168,0,0.039339896272,0.204260833308,27,10,24.874,706.58010692815,0.328084,0,0.041448164056,0,0,-0.223694,270.2, -1.9, -0.4,0,0,1024,1024,1684,1024,0,0,100,0,0,0,0,100,,,,,,,1.636,102.2,706.58010692815,0.328084,10,Assisted_Takeoff,
2500,2023-10-01 22:01:24,40.0688810053461,-88.2097513277321,0.328084,,,706.58010692815,0.656168,0,0.037433400148,0.207341213984,27,10,24.8935,706.58010692815,0.328084,0,0.041448164056,0,0,-0.223694,270.1, -1.9, -0.4,0,0,1024,1024,1684,1024,0,0,100,0,0,0,0,100,,,,,,,0.454,102.2,706.58010692815,0.328084,10,Assisted_Takeoff,
2600,2023-10-01 22:01:24,40.0688809694333,-88.2097513447413,0.328084,,,706.58010692815,0.656168,0,0.0298148631588,0.22127789422,27,10,24.8935,706.58010692815,0.328084,0,0.041448164056,0,0,-0.223694,270.1, -1.8, -0.4,0,0,1024,1024,1684,1024,0,0,100,0,0,0,0,100,,,,,,,0.454,102.2,706.58010692815,0.328084,10,Assisted_Takeoff,
2700,2023-10-01 22:01:24,40.0688809734221,-88.2097513229007,0.328084,,,706.58010692815,0.656168,0,0.026802494296,0.227547251376,27,10,24.8935,706.58010692815,0.328084,0,0.041448164056,0,0,-0.223694,270.1, -1.8, -0.4,0,0,1024,1024,1684,1024,0,0,100,0,0,0,0,100,,,,,,,0.454,102.2,706.58010692815,0.328084,10,Assisted_Takeoff,
2800,2023-10-01 22:01:24,40.0688809810241,-88.2097512985479,0.328084,,,706.58010692815,0.656168,0,0.0259924220916,0.234890755548,27,10,24.8935,706.58010692815,0.328084,0,0.041448164056,0,0,-0.223694,270.2, -1.8, -0.4,0,0,1024,1024,1684,1024,0,0,100,0,0,0,0,100,,,,,,,0.454,102.2,706.58010692815,0.328084,10,Assisted_Takeoff,
2900,2023-10-01 22:01:24,40.0688809875076,-88.2097512806037,0.328084,,,706.58010692815,0.656168,0,0.0270220481088,0.24043143814,27,10,24.8935,706.58010692815,0.328084,0,0.041448164056,0,0,-0.223694,270.2, -1.7, -0.3,0,0,1024,1024,1684,1024,0,0,100,0,0,0,0,100,,,,,,,0.454,102.2,706.58010692815,0.328084,10,Assisted_Takeoff,
3000,2023-10-01 22:01:24,40.068880945661,-88.209751303502,0.328084,,,706.58010692815,0.656168,0,0.0155244755624,0.256983604024,27,10,24.8935,706.58010692815,0.328084,0,0.041448164056,0,0,-0.447388,270.2, -1, -0.1,0,0,1024,1024,1684,1024,0,0,100,0,0,0,0,100,,,,,,,0.454,102.2,706.58010692815,0.328084,10,Assisted_Takeoff,
3100,2023-10-01 22:01:24,40.068880979943,-88.2097512786331,0.328084,,,706.58010692815,0.656168,0,0.0242109259716,0.27128937876,27,10,24.8935,706.58010692815,0.328084,0,0.041448164056,0,0,-0.671082,270.1, 0.4, 0,0,0,1024,1024,1684,1024,0,0,100,0,0,0,0,100,,,,,,,0.454,102.2,706.58010692815,0.328084,6,P-GPS,
3200,2023-10-01 22:01:24,40.0688810386143,-88.2097512445717,0.328084,,,706.58010692815,0.984252,0,0.045745736372,0.294713264024,27,10,24.8935,706.58010692815,0.328084,0,0.045745736372,0,0,-1.342164,270, 1.4, -0.1,0,0,1024,1024,1684,1024,0,0,100,0,0,0,0,100,,,,,,,0.454,102.2,706.58010692815,0.328084,6,P-GPS,
3300,2023-10-01 22:01:24,40.0688810808091,-88.2097512399025,0.656168,,,706.90819092815,1.312336,0,0.061183072824,0.310163067668,27,10,24.8935,706.90819092815,0.656168,0,0.061183072824,0.223694,0,-2.23694,269.7, 2.1, -1,0,0,1024,1024,1581,1083,0,0,84,9,0,0,0,100,,,,,,,0.454,102.2,706.90819092815,0.656168,6,P-GPS,
3400,2023-10-01 22:01:25,40.0688811674827,-88.2097511389906,0.984252,,,707.23627492815,1.312336,0.3131716,0.098938323376,0.35251641548,27,10,24.8935,707.23627492815,0.984252,0.3131716,0.098938323376,0.223694,0.223694,-2.908022,269.7, 1.7, -1.4,0,0,1024,1024,1581,1083,0,0,84,9,0,0,0,100,,,,,,,0.454,102.2,707.23627492815,0.984252,6,P-GPS,
3500,2023-10-01 22:01:25,40.0688812542571,-88.2097509965333,1.312336,,,707.56435892815,1.968504,0.3131716,0.145056763172,0.40335303128,27,10,24.5765,707.56435892815,1.312336,0.3131716,0.145056763172,0.223694,0.223694,-3.579104,269.6, -0.2, -1.8,0,0,1024,1024,1024,1024,0,0,0,0,0,0,0,100,,,,,,,12.756,102.2,707.56435892815,1.312336,6,P-GPS,
3600,2023-10-01 22:01:25,40.0688813299756,-88.2097508666528,1.968504,,,708.22052692815,2.296588,0.223694,0.188223103136,0.44894030308,27,10,24.5765,708.22052692815,1.968504,0.3131716,0.188223103136,0,0.223694,-4.026492,269.4, -1.8, -2.3,0,0,1024,1024,1024,1024,0,0,0,0,0,0,0,100,,,,,,,12.756,102.2,708.22052692815,1.968504,6,P-GPS,
3700,2023-10-01 22:01:25,40.0688813182956,-88.2097509132863,2.624672,,,708.87669492815,2.952756,0,0.177256895436,0.46264109092,27,10,24.5765,708.87669492815,2.624672,0.3131716,0.188223103136,0,0,-4.026492,269.4, -2.3, -2.3,0,0,1024,1024,1024,1024,0,0,0,0,0,0,0,100,,,,,,,12.756,102.2,708.87669492815,2.624672,6,P-GPS,
3800,2023-10-01 22:01:25,40.0688813500134,-88.2097509113112,3.28084,,,709.53286292815,3.608924,0,0.187281173972,0.47422573696,27,10,24.5765,709.53286292815,3.28084,0.3131716,0.188223103136,0,0,-4.026492,269.3, -1.9, -2.3,0,0,1024,1024,1024,1024,0,0,0,0,0,0,0,100,,,,,,,12.756,102.2,709.53286292815,3.28084,6,P-GPS,
3900,2023-10-01 22:01:25,40.0688813840934,-88.2097509530081,3.608924,,,709.86094692815,3.937008,0,0.192385832928,0.49125985824,27,10,24.5765,709.86094692815,3.608924,0.3131716,0.192385832928,0,0,-3.579104,269.3, -0.8, -2.1,0,0,1024,1024,1024,1024,0,0,0,0,0,0,0,100,,,,,,,12.756,102.2,709.86094692815,3.608924,6,P-GPS,
4000,2023-10-01 22:01:25,40.0688813973256,-88.2097510395013,4.265092,,,710.51711492815,4.265092,0,0.187227040112,0.51588912412,27,10,24.5765,710.51711492815,4.265092,0.3131716,0.192385832928,0,0,-3.131716,269.3, 0, -1.9,0,0,1024,1024,1024,1024,0,0,0,0,0,0,0,100,,,,,,,12.756,102.2,710.51711492815,4.265092,6,P-GPS,
4100,2023-10-01 22:01:25,40.0688813889809,-88.209751122014,4.593176,,,710.84519892815,4.593176,0,0.177786423012,0.53912731384,27,10,24.5765,710.84519892815,4.593176,0.3131716,0.192385832928,0,0,-2.684328,269.3, 0.5, -1.6,0,0,1024,1024,1024,1024,0,0,0,0,0,0,0,100,,,,,,,12.756,102.2,710.84519892815,4.593176,6,P-GPS,
4200,2023-10-01 22:01:25,40.0688813765938,-88.2097512028295,4.92126,,,711.17328292815,4.593176,0,0.169584651096,0.5621391256,27,10,24.5765,711.17328292815,4.92126,0.3131716,0.192385832928,0,0,-2.013246,269.3, 0.7, -1.4,0,0,1024,1024,1024,1024,0,0,0,0,0,0,0,100,,,,,,,12.756,102.2,711.17328292815,4.92126,6,P-GPS,
4300,2023-10-01 22:01:25,40.0688814020308,-88.2097512984534,4.92126,,,711.17328292815,4.92126,0,0.178179467644,0.59040684304,27,10,24.5765,711.17328292815,4.92126,0.3131716,0.192385832928,0,0,-1.342164,269.3, 0.8, -1.4,0,0,1024,1024,1024,1024,0,0,0,0,0,0,0,100,,,,,,,12.756,102.2,711.17328292815,4.92126,6,P-GPS,
4400,2023-10-01 22:01:26,40.0688813836201,-88.2097514722045,5.249344,,,711.50136692815,4.92126,0,0.18065781418,0.63937994172,27,10,24.5765,711.50136692815,5.249344,0.3131716,0.192385832928,0,0,-0.894776,269.2, 0.7, -1.4,0,0,1024,1024,1024,1024,0,0,0,0,0,0,0,100,,,,,,,12.756,102.2,711.50136692815,5.249344,6,P-GPS,
4500,2023-10-01 22:01:26,40.0688813737102,-88.209751570058,5.249344,,,711.50136692815,4.92126,0,0.187898299976,0.66694227856,27,10,24.5765,711.50136692815,5.249344,0.3131716,0.192385832928,0,0,-0.447388,269.2, 0.7, -1.4,0,0,1024,1024,1024,1024,0,0,0,0,0,0,0,100,,,,,,,12.756,102.2,711.50136692815,5.249344,6,P-GPS,
4600,2023-10-01 22:01:26,40.0688813661817,-88.2097516585587,5.249344,,,711.50136692815,4.593176,0,0.197989507648,0.69180448408,27,10,24.7185,711.50136692815,5.249344,0.3131716,0.197989507648,0,0,0,269.2, 0.8, -1.4,0,0,1024,1024,1024,1024,0,0,0,0,0,0,0,100,,,,,,,4.59,102.2,711.50136692815,5.249344,6,P-GPS,
4700,2023-10-01 22:01:26,40.0688813226717,-88.2097517899221,5.249344,,,711.50136692815,4.265092,0,0.208816607732,0.73176839612,27,10,24.7185,711.50136692815,5.249344,0.3131716,0.208816607732,0,0,0,269.1, 1, -1.5,0,0,1024,1024,1024,1024,0,0,0,0,0,0,0,100,,,,,,,4.59,102.2,711.50136692815,5.249344,6,P-GPS,
4800,2023-10-01 22:01:26,40.0688813359069,-88.2097518379224,5.249344,,,711.50136692815,3.937008,0,0.221738524156,0.7460138034,27,10,24.7185,711.50136692815,5.249344,0.3131716,0.221738524156,0,0,0.223694,269.2, 1.1, -1.6,0,0,1024,1024,1024,1024,0,0,0,0,0,0,0,100,,,,,,,4.59,102.2,711.50136692815,5.249344,6,P-GPS,
4900,2023-10-01 22:01:26,40.068881371366,-88.2097518642634,4.92126,,,711.17328292815,3.937008,0,0.236047907816,0.76089569364,27,10,24.7185,711.50136692815,5.249344,0.3131716,0.236047907816,0,0,0.223694,269.2, 1, -1.6,0,0,1024,1024,1024,1024,0,0,0,0,0,0,0,100,,,,,,,4.59,102.2,711.17328292815,4.92126,6,P-GPS,
5000,2023-10-01 22:01:26,40.0688814063157,-88.2097518752664,4.92126,,,711.17328292815,3.937008,0,0.247325795316,0.77401249196,27,10,24.7185,711.50136692815,5.249344,0.3131716,0.247325795316,0,0,0.223694,269.2, 1, -1.6,0,0,1024,1024,1024,1024,0,0,0,0,0,0,0,100,,,,,,,4.59,102.2,711.17328292815,4.92126,6,P-GPS,
5100,2023-10-01 22:01:26,40.0688814174039,-88.2097519407781,4.92126,,,711.17328292815,4.265092,0,0.263053814192,0.79274608836,27,10,24.7185,711.50136692815,5.249344,0.3131716,0.263053814192,0,0,0.223694,269.3, 0.9, -1.6,0,0,1024,1024,1024,1024,0,0,0,0,0,0,0,100,,,,,,,4.59,102.2,711.17328292815,4.92126,6,P-GPS,
5200,2023-10-01 22:01:26,40.0688814385156,-88.2097519555869,4.593176,,,710.84519892815,4.265092,0,0.271403223908,0.80148952696,27,10,24.7185,711.50136692815,5.249344,0.3131716,0.271403223908,0,0,0.223694,269.4, 0.9, -1.8,0,0,1024,1024,1024,1024,0,0,0,0,0,0,0,100,,,,,,,4.59,102.2,710.84519892815,4.593176,6,P-GPS,
5300,2023-10-01 22:01:26,40.0688814645215,-88.2097519814568,4.593176,,,710.84519892815,4.593176,0,0.283219169168,0.81341209952,27,10,24.7185,711.50136692815,5.249344,0.3131716,0.283219169168,0,0,0.223694,269.5, 0.8, -1.9,0,0,1024,1024,1608,1024,0,0,88,0,0,0,0,100,,,,,,,4.59,102.2,710.84519892815,4.593176,6,P-GPS,
5400,2023-10-01 22:01:27,40.0688814775706,-88.2097520485737,4.593176,,,710.84519892815,4.265092,0,0.29997704372,0.83274937048,27,10,24.7185,711.50136692815,5.249344,0.3131716,0.29997704372,0,0,0.223694,269.6, 0.7, -1.7,0,0,1024,1024,1608,1024,0,0,88,0,0,0,0,100,,,,,,,4.59,102.2,710.84519892815,4.593176,6,P-GPS,
5500,2023-10-01 22:01:27,40.0688814780123,-88.2097520589135,4.265092,,,710.51711492815,4.265092,0,0.302196203896,0.83563979052,27,10,24.7185,711.50136692815,5.249344,0.3131716,0.302196203896,0,0,0,269.5, 0.7, -1.7,0,0,1024,1024,1684,1024,0,0,100,0,0,0,0,100,,,,,,,4.59,102.2,710.51711492815,4.265092,6,P-GPS,
5600,2023-10-01 22:01:27,40.0688814737405,-88.2097520614348,4.265092,,,710.51711492815,4.265092,0,0.301655521464,0.83734910816,27,10,24.629,711.50136692815,5.249344,0.3131716,0.302196203896,0,0,-0.447388,269.5, 0.6, -1.6,0,0,1024,1024,1684,1024,0,0,100,0,0,0,0,100,,,,,,,8.818,102.2,710.51711492815,4.265092,6,P-GPS,
5700,2023-10-01 22:01:27,40.0688814660853,-88.2097520811984,4.265092,,,710.51711492815,4.265092,0,0.303883867992,0.84353349156,27,10,24.629,711.50136692815,5.249344,0.3131716,0.303883867992,0,0,-1.11847,269.4, 0.4, -1.4,0,0,1024,1024,1635,1024,0,0,93,0,0,0,0,100,,,,,,,8.818,102.2,710.51711492815,4.265092,6,P-GPS,
5800,2023-10-01 22:01:27,40.0688814202191,-88.2097521834083,4.593176,,,710.84519892815,4.593176,0,0.315744104592,0.87661748212,27,10,24.629,711.50136692815,5.249344,0.3131716,0.315744104592,0,0,-2.013246,269.4, 0.4, -1.2,0,0,1024,1024,1635,1024,0,0,93,0,0,0,0,100,,,,,,,8.818,102.2,710.84519892815,4.593176,6,P-GPS,
5900,2023-10-01 22:01:27,40.0688814017064,-88.209752177668,4.92126,,,711.17328292815,4.593176,0,0.310528553244,0.88355973956,27,10,24.629,711.50136692815,5.249344,0.3131716,0.315744104592,0,0,-2.908022,269.5, 0.2, -1,0,0,1024,1024,1024,1024,0,0,0,0,0,0,0,100,,,,,,,8.818,102.2,711.17328292815,4.92126,6,P-GPS,
6000,2023-10-01 22:01:27,40.068881388948,-88.2097521769388,5.249344,,,711.50136692815,5.249344,0,0.3077181857,0.88821853236,27,10,24.629,711.50136692815,5.249344,0.3131716,0.315744104592,0,0,-3.131716,269.6, 0, -0.9,0,0,1024,1024,1024,1024,0,0,0,0,0,0,0,100,,,,,,,8.818,102.2,711.50136692815,5.249344,6,P-GPS,
6100,2023-10-01 22:01:27,40.0688813102657,-88.2097522586492,5.905512,,,712.15753492815,5.577428,0,0.312567595304,0.9248852002,27,10,24.629,712.15753492815,5.905512,0.3131716,0.315744104592,0,0,-2.908022,269.8, -0.1, -1,0,0,1024,1024,1024,1024,0,0,0,0,0,0,0,100,,,,,,,8.818,102.2,712.15753492815,5.905512,6,P-GPS,
6200,2023-10-01 22:01:27,40.0688812929725,-88.2097522988588,6.233596,,,712.48561892815,5.905512,0,0.319789052228,0.93776577804,27,10,24.629,712.48561892815,6.233596,0.3131716,0.319789052228,0,0,-2.23694,270, 0, -1,0,0,1024,1024,1024,1024,0,0,0,0,0,0,0,100,,,,,,,8.818,102.2,712.48561892815,6.233596,6,P-GPS,
6300,2023-10-01 22:01:27,40.0688812865564,-88.2097523500324,6.233596,,,712.48561892815,5.905512,0,0.33176838332,0.95224412496,27,10,24.629,712.48561892815,6.233596,0.3131716,0.33176838332,0,0,-1.789552,270.1, 0.5, -1,0,0,1024,1024,1024,1024,0,0,0,0,0,0,0,100,,,,,,,8.818,102.2,712.48561892815,6.233596,6,P-GPS,
6400,2023-10-01 22:01:28,40.0688812726232,-88.2097524161544,6.56168,,,712.81370292815,5.905512,0,0.34674541792,0.9713911072,27,10,24.629,712.81370292815,6.56168,0.3131716,0.34674541792,0,0,-1.11847,270.1, 1, -0.8,0,0,1024,1024,1024,1024,0,0,0,0,0,0,0,100,,,,,,,8.818,102.2,712.81370292815,6.56168,6,P-GPS,
6500,2023-10-01 22:01:28,40.0688812698553,-88.2097525657786,6.56168,,,712.81370292815,5.905512,0,0.38541995984,1.01318244712,27,10,24.629,712.81370292815,6.56168,0.3131716,0.38541995984,0,0,-0.671082,270, 1.3, -0.5,0,0,1024,1024,1037,1024,0,0,2,0,0,0,0,100,,,,,,,8.818,102.2,712.81370292815,6.56168,6,P-GPS,
6600,2023-10-01 22:01:28,40.0688812934656,-88.2097526305448,6.889764,,,713.14178692815,4.593176,0,0.40535106284,1.03321197532,27,10,24.629,713.14178692815,6.889764,0.3131716,0.40535106284,0,0,-0.447388,269.9, 1.4, -0.4,0,0,1024,1024,1037,1024,0,0,2,0,0,0,0,100,,,,,,,8.818,102.2,713.14178692815,6.889764,6,P-GPS,
6700,2023-10-01 22:01:28,40.0688812997363,-88.2097526867879,6.56168,,,712.81370292815,5.249344,0,0.42090552528,1.0490813984,27,10,24.629,713.14178692815,6.889764,0.3131716,0.42090552528,0,0,-0.223694,269.8, 1.5, -0.6,0,0,1024,1024,1684,1024,0,0,100,0,0,0,0,100,,,,,,,8.818,102.2,712.81370292815,6.56168,6,P-GPS,
6800,2023-10-01 22:01:28,40.0688812879841,-88.2097527679368,6.889764,,,713.14178692815,5.905512,0,0.44098098524,1.07213914192,27,10,24.629,713.14178692815,6.889764,0.3131716,0.44098098524,0,0,-0.447388,269.6, 1.8, -0.9,0,0,1024,1024,1432,1024,0,0,62,0,0,0,0,100,,,,,,,8.818,102.2,713.14178692815,6.889764,6,P-GPS,
6900,2023-10-01 22:01:28,40.06888129921,-88.209752800436,6.889764,,,713.14178692815,6.233596,0,0.45087927952,1.08209649132,27,10,24.629,713.14178692815,6.889764,0.3131716,0.45087927952,0,0,-0.894776,269.3, 1.5, -1.1,0,0,1024,1024,1024,1024,0,0,0,0,0,0,0,100,,,,,,,8.818,102.2,713.14178692815,6.889764,6,P-GPS,
7000,2023-10-01 22:01:28,40.0688813178907,-88.2097528068333,6.889764,,,713.14178692815,6.233596,0,0.45473754736,1.0891404548,27,10,24.629,713.14178692815,6.889764,0.3131716,0.45473754736,0,0,-1.789552,269.2, 0.9, -1.2,0,0,1024,1024,1024,1024,0,0,0,0,0,0,0,100,,,,,,,8.818,102.2,713.14178692815,6.889764,6,P-GPS,
7100,2023-10-01 22:01:28,40.0688813501098,-88.2097528060111,7.217848,,,713.46987092815,6.233596,0,0.45846130076,1.10089898536,27,10,24.629,713.46987092815,7.217848,0.3131716,0.45846130076,0,0,-1.565858,269.2, -0.1, -1.6,0,0,1024,1024,1024,1024,0,0,0,0,0,0,0,100,,,,,,,8.818,102.2,713.46987092815,7.217848,6,P-GPS,
7200,2023-10-01 22:01:28,40.0688813236021,-88.2097529148012,7.217848,,,713.46987092815,6.56168,0,0.48399607848,1.1327756268,27,10,24.629,713.46987092815,7.217848,0.3131716,0.48399607848,0,0,-1.11847,269.5, 0.3, -1.9,0,0,1024,1024,1072,1024,0,0,7,0,0,0,0,100,,,,,,,8.818,102.2,713.46987092815,7.217848,6,P-GPS,
7300,2023-10-01 22:01:28,40.0688813406835,-88.2097529607046,7.545932,,,713.79795492815,6.56168,0,0.498113533,1.14702759576,27,10,24.629,713.79795492815,7.545932,0.3131716,0.498113533,0,0,-0.894776,269.7, 1.2, -1.8,0,0,1024,1024,1229,1024,0,0,31,0,0,0,0,100,,,,,,,8.818,102.2,713.79795492815,7.545932,6,P-GPS,
7400,2023-10-01 22:01:29,40.0688813521824,-88.2097530005648,7.545932,,,713.79795492815,6.56168,0,0.50999673548,1.15892064076,27,10,24.629,713.79795492815,7.545932,0.3131716,0.50999673548,0,0,-0.447388,269.7, 1.9, -1.6,0,0,1024,1024,1684,1024,0,0,100,0,0,0,0,100,,,,,,,8.818,102.2,713.79795492815,7.545932,6,P-GPS,
7500,2023-10-01 22:01:29,40.0688812567891,-88.2097531270739,7.545932,,,713.79795492815,6.56168,0,0.53446195936,1.20851053736,27,10,24.629,713.79795492815,7.545932,0.3131716,0.53446195936,0,0,-0.447388,269.7, 2.2, -1.4,0,0,1024,1024,1684,1024,0,0,100,0,0,0,0,100,,,,,,,8.818,102.2,713.79795492815,7.545932,6,P-GPS,
7600,2023-10-01 22:01:29,40.0688812438094,-88.2097531307864,7.545932,,,713.79795492815,6.56168,0,0.53438650004,1.21335961888,27,10,24.629,713.79795492815,7.545932,0.3131716,0.53446195936,0,0,-0.894776,269.4, 2.1, -1.2,0,0,1024,1024,1684,1024,0,0,100,0,0,0,0,100,,,,,,,8.818,102.2,713.79795492815,7.545932,6,P-GPS,
7700,2023-10-01 22:01:29,40.0688812656859,-88.2097530944502,7.545932,,,713.79795492815,6.56168,0,0.52639109296,1.22626644344,27,10,24.629,713.79795492815,7.545932,0.3131716,0.53446195936,0,0,-1.565858,269.3, 1.3, -1.8,0,0,1024,1024,1173,1024,0,0,23,0,0,0,0,100,,,,,,,8.818,102.2,713.79795492815,7.545932,6,P-GPS,
7800,2023-10-01 22:01:29,40.0688812864867,-88.2097530404312,7.874016,,,714.12603892815,6.889764,0,0.5137303314,1.24314964608,27,10,24.629,714.12603892815,7.874016,0.3131716,0.53446195936,0,0,-2.460634,269.2, 0.6, -2.6,0,0,1024,1024,1094,1024,0,0,11,0,0,0,0,100,,,,,,,8.818,102.2,714.12603892815,7.874016,6,P-GPS,
7900,2023-10-01 22:01:29,40.0688812921948,-88.2097530384683,8.2021,,,714.45412292815,7.217848,0,0.51375657812,1.24530515796,27,10,24.545,714.45412292815,8.2021,0.3131716,0.53446195936,0,0,-2.684328,269.3, -0.6, -2.9,0,0,1024,1024,1436,1024,0,0,62,0,0,0,0,100,,,,,,,7,102.2,714.45412292815,8.2021,6,P-GPS,
8000,2023-10-01 22:01:29,40.0688812985778,-88.2097529996516,8.530184,,,714.78220692815,7.217848,0,0.50396655156,1.25639111632,27,10,24.545,714.78220692815,8.530184,0.3131716,0.53446195936,0,0,-2.23694,269.4, -0.7, -2.2,0,0,1024,1024,1684,1024,0,0,100,0,0,0,0,100,,,,,,,7,102.2,714.78220692815,8.530184,6,P-GPS,
8100,2023-10-01 22:01:29,40.0688812906351,-88.2097530054242,8.858268,,,715.11029092815,7.545932,0,0.50472114476,1.25970476472,27,10,24.545,715.11029092815,8.858268,0.3131716,0.53446195936,0,0,-2.013246,269.4, 0.9, -0.8,0,0,1024,1024,1684,1024,0,0,100,0,0,0,0,100,,,,,,,7,102.2,715.11029092815,8.858268,6,P-GPS,
8200,2023-10-01 22:01:29,40.0688812919174,-88.2097530302524,9.186352,,,715.43837492815,7.545932,0,0.51151904524,1.26665358384,27,10,24.545,715.43837492815,9.186352,0.3131716,0.53446195936,0,0,-2.460634,269.4, 2.2, -0.2,0,0,1024,1024,1684,1024,0,0,100,0,0,0,0,100,,,,,,,7,102.2,715.43837492815,9.186352,6,P-GPS,
8300,2023-10-01 22:01:29,40.0688812808946,-88.2097530301635,9.514436,,,715.76645892815,7.545932,0,0.51042652552,1.27067589368,27,10,24.545,715.76645892815,9.514436,0.3131716,0.53446195936,0,0,-3.131716,269.3, 1.9, -0.5,0,0,1024,1024,1204,1024,0,0,27,0,0,0,0,100,,,,,,,7,102.2,715.76645892815,9.514436,6,P-GPS,
8400,2023-10-01 22:01:30,40.0688812880282,-88.2097530064256,10.170604,,,716.42262692815,7.874016,0,0.50473098728,1.27779531648,27,10,24.545,716.42262692815,10.170604,0.3131716,0.53446195936,0,0,-3.35541,269.4, 0.4, -0.9,0,0,1024,1024,1684,1024,0,0,100,0,0,0,0,100,,,,,,,7,102.2,716.42262692815,10.170604,6,P-GPS,
8500,2023-10-01 22:01:30,40.0688813081829,-88.2097530244148,10.498688,,,716.75071092815,8.2021,0,0.51158466204,1.28670279708,27,10,24.545,716.75071092815,10.498688,0.3131716,0.53446195936,0,0,-2.684328,269.6, 0, -1.6,0,0,1024,1024,1677,1024,0,0,99,0,0,0,0,100,,,,,,,7,102.2,716.75071092815,10.498688,6,P-GPS,
8600,2023-10-01 22:01:30,40.0688812413789,-88.2097531845463,10.826772,,,717.07879492815,8.2021,0,0.54882875772,1.33762471472,27,10,24.545,717.07879492815,10.826772,0.3131716,0.54882875772,0,0,-2.908022,269.7, 1, -2,0,0,1024,1024,1202,1024,0,0,27,0,0,0,0,100,,,,,,,7,102.2,717.07879492815,10.826772,6,P-GPS,
8700,2023-10-01 22:01:30,40.0688812785239,-88.209753218522,11.154856,,,717.40687892815,8.2021,0,0.56114503108,1.35416671,27,10,24.545,717.40687892815,11.154856,0.3131716,0.56114503108,0,0,-3.579104,269.7, 1.5, -1.9,0,0,1024,1024,1239,1024,0,0,33,0,0,0,0,100,,,,,,,7,102.2,717.40687892815,11.154856,6,P-GPS,
8800,2023-10-01 22:01:30,40.0688813043238,-88.209753241115,11.811024,,,718.06304692815,8.2021,0,0.569553824,1.36549873136,27,10,24.545,718.06304692815,11.811024,0.3131716,0.569553824,0,0,-3.579104,269.7, 1, -1.5,0,0,1024,1024,1684,1024,0,0,100,0,0,0,0,100,,,,,,,7,102.2,718.06304692815,11.811024,6,P-GPS,
8900,2023-10-01 22:01:30,40.0688812739012,-88.2097533581747,12.139108,,,718.39113092815,8.2021,0,0.59872705328,1.40001316816,27,10,24.765,718.39113092815,12.139108,0.3131716,0.59872705328,0,0,-2.908022,269.8, 1, -1.1,0,0,1024,1024,1410,1024,0,0,58,0,0,0,0,100,,,,,,,13.212,102.2,718.39113092815,12.139108,6,P-GPS,
9000,2023-10-01 22:01:30,40.0688812631298,-88.2097533946015,12.795276,,,719.04729892815,8.2021,0,0.60781826092,1.41091868032,27,10,24.765,719.04729892815,12.795276,0.3131716,0.60781826092,0,0,-3.131716,269.7, 1.6, -0.8,0,0,1024,1024,1410,1024,0,0,58,0,0,0,0,100,,,,,,,13.212,102.2,719.04729892815,12.795276,6,P-GPS,
9100,2023-10-01 22:01:30,40.0688812631485,-88.2097534176499,13.12336,,,719.37538292815,8.2021,0,0.61411419288,1.41735240756,27,10,24.765,719.37538292815,13.12336,0.3131716,0.61411419288,0,0,-3.579104,269.5, 1.7, -0.7,0,0,1024,1024,1024,1024,0,0,0,0,0,0,0,100,,,,,,,13.212,102.2,719.37538292815,13.12336,6,P-GPS,
9200,2023-10-01 22:01:30,40.0688812766105,-88.2097534347882,13.451444,,,719.70346692815,8.530184,0,0.61982613532,1.42420936316,27,10,24.765,719.70346692815,13.451444,0.3131716,0.61982613532,0,0,-3.35541,269.5, 1.1, -1.4,0,0,1024,1024,1024,1024,0,0,0,0,0,0,0,100,,,,,,,13.212,102.2,719.70346692815,13.451444,6,P-GPS,
9300,2023-10-01 22:01:30,40.0688812412022,-88.2097535786632,14.107612,,,720.35963492815,8.530184,0,0.656660126,1.46640752724,27,10,24.765,720.35963492815,14.107612,0.3131716,0.656660126,0,0,-2.684328,269.6, 1.2, -1.9,0,0,1024,1024,1024,1024,0,0,0,0,0,0,0,100,,,,,,,13.212,102.2,720.35963492815,14.107612,6,P-GPS,
9400,2023-10-01 22:01:30,40.068881240769,-88.2097536441377,14.435696,,,720.68771892815,7.874016,0,0.67461616332,1.48468836772,27,10,24.765,720.68771892815,14.435696,0.3131716,0.67461616332,0,0,-2.013246,269.7, 1.5, -1.7,0,0,1024,1024,1024,1024,0,0,0,0,0,0,0,100,,,,,,,13.212,102.2,720.68771892815,14.435696,6,P-GPS,
9500,2023-10-01 22:01:31,40.0688812213272,-88.2097537249524,14.435696,,,720.68771892815,7.874016,0,0.69565947108,1.50834322412,27,10,24.765,720.68771892815,14.435696,0.3131716,0.69565947108,0,0,-1.342164,269.7, 2, -1.1,0,0,1024,1024,1570,1024,0,0,83,0,0,0,0,100,,,,,,,13.212,102.2,720.68771892815,14.435696,6,P-GPS,
9600,2023-10-01 22:01:31,40.0688811750954,-88.2097538499707,14.76378,,,721.01580292815,7.545932,0,0.72773624376,1.54710962956,27,10,24.765,721.01580292815,14.76378,0.3131716,0.72773624376,0,0,-0.894776,269.7, 2.3, -0.6,0,0,1024,1024,1684,1024,0,0,100,0,0,0,0,100,,,,,,,13.212,102.2,721.01580292815,14.76378,6,P-GPS,
9700,2023-10-01 22:01:31,40.0688811687521,-88.209753923221,14.76378,,,721.01580292815,7.217848,0,0.74772640188,1.56769361972,27,10,24.765,721.01580292815,14.76378,0.3131716,0.74772640188,0,0,-0.447388,269.7, 2.5, -0.7,0,0,1024,1024,1127,1024,0,0,16,0,0,0,0,100,,,,,,,13.212,102.2,721.01580292815,14.76378,6,P-GPS,
9800,2023-10-01 22:01:31,40.0688811776328,-88.2097539664401,14.76378,,,721.01580292815,7.217848,0,0.7601050112,1.58018705844,27,10,24.765,721.01580292815,14.76378,0.3131716,0.7601050112,0,0,-1.11847,269.7, 2.6, -1,0,0,1024,1024,1024,1024,0,0,0,0,0,0,0,100,,,,,,,13.212,102.2,721.01580292815,14.76378,6,P-GPS,
9900,2023-10-01 22:01:31,40.0688812075679,-88.2097539850183,14.76378,,,721.01580292815,7.545932,0,0.7666994996,1.59228023468,27,10,24.765,721.01580292815,14.76378,0.3131716,0.7666994996,0,0,-1.342164,269.6, 1.9, -1.6,0,0,1024,1024,1024,1024,0,0,0,0,0,0,0,100,,,,,,,13.212,102.2,721.01580292815,14.76378,6,P-GPS,
10000,2023-10-01 22:01:31,40.0688812006284,-88.2097540994605,15.091864,,,721.34388692815,7.545932,0,0.7980151174,1.62433076064,27,10,24.4695,721.34388692815,15.091864,0.3131716,0.7980151174,0,0,-0.671082,269.6, 1.5, -2.1,0,0,1024,1024,1024,1024,0,0,0,0,0,0,0,99,,,,,,,8.408,102.2,721.34388692815,15.091864,6,P-GPS,
10100,2023-10-01 22:01:31,40.0688812351464,-88.2097541487122,15.091864,,,721.34388692815,7.545932,0,0.8133694486,1.6429790552,27,10,24.4695,721.34388692815,15.091864,0.3131716,0.8133694486,0,0,-0.447388,269.7, 2.2, -2,0,0,1024,1024,1024,1024,0,0,0,0,0,0,0,100,,,,,,,8.408,102.2,721.34388692815,15.091864,6,P-GPS,
10200,2023-10-01 22:01:31,40.0688812683448,-88.2097541894957,15.091864,,,721.34388692815,7.217848,0,0.826443596,1.65960307148,27,10,24.4695,721.34388692815,15.091864,0.3131716,0.826443596,0,0,-0.223694,269.7, 2.7, -2.1,0,0,1024,1024,1024,1024,0,0,0,0,0,0,0,100,,,,,,,8.408,102.2,721.34388692815,15.091864,6,P-GPS,
10300,2023-10-01 22:01:31,40.0688812653597,-88.2097543542615,15.091864,,,721.34388692815,7.217848,0,0.8717519964,1.70562013332,27,10,24.4695,721.34388692815,15.091864,0.3131716,0.8717519964,0,0,0,269.8, 2.8, -2.2,0,0,1024,1024,1024,1024,0,0,0,0,0,0,0,100,,,,,,,8.408,102.2,721.34388692815,15.091864,6,P-GPS,
10400,2023-10-01 22:01:31,40.0688812772344,-88.2097543854349,15.091864,,,721.34388692815,7.217848,0,0.8810039652,1.71534454308,27,10,24.4695,721.34388692815,15.091864,0.3131716,0.8810039652,0,0,0,269.7, 2.5, -2.1,0,0,1024,1024,1024,1024,0,0,0,0,0,0,0,100,,,,,,,8.408,102.2,721.34388692815,15.091864,6,P-GPS,
10500,2023-10-01 22:01:32,40.0688812663112,-88.2097543933928,15.091864,,,721.34388692815,7.217848,0,0.8826115768,1.71990491068,27,10,24.4695,721.34388692815,15.091864,0.3131716,0.8826115768,0,0,0,269.6, 2.4, -1.7,0,0,1024,1024,1024,1024,0,0,0,0,0,0,0,100,,,,,,,8.408,102.2,721.34388692815,15.091864,6,P-GPS,
10600,2023-10-01 22:01:32,40.0688812520858,-88.2097543867646,15.091864,,,721.34388692815,7.217848,0,0.88003939824,1.72541672188,27,10,24.4695,721.34388692815,15.091864,0.3131716,0.8826115768,0,0,0,269.5, 2.2, -1.3,0,0,1024,1024,1674,1024,0,0,98,0,0,0,0,100,,,,,,,8.408,102.2,721.34388692815,15.091864,6,P-GPS,
10700,2023-10-01 22:01:32,40.0688812339094,-88.2097544561187,14.76378,,,721.01580292815,7.217848,0,0.89833008124,1.74588588264,27,10,24.4695,721.34388692815,15.091864,0.3131716,0.89833008124,0,0,0,269.6, 1.9, -1.1,0,0,1024,1024,1465,1024,0,0,67,0,0,0,0,100,,,,,,,8.408,102.2,721.01580292815,14.76378,6,P-GPS,
10800,2023-10-01 22:01:32,40.0688812433757,-88.2097544277014,14.76378,,,721.01580292815,7.545932,0,0.89092194452,1.75453745772,27,10,24.4695,721.34388692815,15.091864,0.3131716,0.89833008124,0,0,0,269.8, 1.9, -1.6,0,0,1024,1024,1465,1024,0,0,67,0,0,0,0,100,,,,,,,8.408,102.2,721.01580292815,14.76378,6,P-GPS,
10900,2023-10-01 22:01:32,40.0688812312887,-88.2097543974569,14.76378,,,721.01580292815,7.545932,0,0.88196853216,1.76406501708,27,10,24.4695,721.34388692815,15.091864,0.3131716,0.89833008124,0,0,-0.671082,269.8, 2.1, -1.6,0,0,1024,1024,1024,1024,0,0,0,0,0,0,0,100,,,,,,,8.408,102.2,721.01580292815,14.76378,6,P-GPS,
11000,2023-10-01 22:01:32,40.068881190997,-88.2097544096185,14.76378,,,721.01580292815,7.545932,0,0.88353349284,1.77915360024,27,10,24.4695,721.34388692815,15.091864,0.3131716,0.89833008124,0,0,-0.447388,269.8, 1.3, -0.8,0,0,1024,1024,1035,1024,0,0,2,0,0,0,0,100,,,,,,,8.408,102.2,721.01580292815,14.76378,6,P-GPS,
11100,2023-10-01 22:01:32,40.0688811853993,-88.2097543743621,14.76378,,,721.01580292815,7.874016,0,0.87352036916,1.789206094,27,10,24.4695,721.34388692815,15.091864,0.3131716,0.89833008124,0,0,0,269.9, 1.4, -0.5,0,0,1024,1024,1024,1024,0,0,0,0,0,0,0,100,,,,,,,8.408,102.2,721.01580292815,14.76378,6,P-GPS,
11200,2023-10-01 22:01:32,40.068881184888,-88.2097543374512,14.76378,,,721.01580292815,7.545932,0,0.86326118248,1.79951449328,27,10,24.4695,721.34388692815,15.091864,0.3131716,0.89833008124,0,0,0,269.9, 1.9, -0.6,0,0,1024,1024,1024,1024,0,0,0,0,0,0,0,100,,,,,,,8.408,102.2,721.01580292815,14.76378,6,P-GPS,
11300,2023-10-01 22:01:32,40.0688811760832,-88.2097543221633,14.76378,,,721.01580292815,7.874016,0,0.85865816396,1.8048557008,27,10,24.4695,721.34388692815,15.091864,0.3131716,0.89833008124,0,0,0,270, 2.4, -0.9,0,0,1024,1024,1684,1024,0,0,100,0,0,0,0,100,,,,,,,8.408,102.2,721.01580292815,14.76378,6,P-GPS,
11400,2023-10-01 22:01:33,40.0688811569619,-88.2097544161888,14.76378,,,721.01580292815,7.874016,0,0.88402561884,1.832021056,27,10,24.4695,721.34388692815,15.091864,0.3131716,0.89833008124,0,0,0,270.1, 2.5, -0.9,0,0,1024,1024,1684,1024,0,0,100,0,0,0,0,100,,,,,,,8.408,102.2,721.01580292815,14.76378,6,P-GPS,
11500,2023-10-01 22:01:33,40.0688811228595,-88.209754361926,14.76378,,,721.01580292815,7.874016,0,0.86777561832,1.851624075,27,10,24.748,721.34388692815,15.091864,0.3131716,0.89833008124,0,0,-0.223694,270.1, 2.5, -0.7,0,0,1024,1024,1024,1024,0,0,0,0,0,0,0,99,,,,,,,7.166,102.2,721.01580292815,14.76378,6,P-GPS,
11600,2023-10-01 22:01:33,40.068881089276,-88.2097542798704,14.76378,,,721.01580292815,7.874016,0,0.84394031572,1.87760504696,27,10,24.748,721.34388692815,15.091864,0.3131716,0.89833008124,0,0,-0.671082,269.8, 1.5, -0.7,0,0,1024,1024,1024,1024,0,0,0,0,0,0,0,99,,,,,,,7.166,102.2,721.01580292815,14.76378,6,P-GPS,
11700,2023-10-01 22:01:33,40.0688810008554,-88.2097543279627,14.76378,,,721.01580292815,7.874016,0,0.85553152344,1.9125492738,27,10,24.748,721.34388692815,15.091864,0.3131716,0.89833008124,0,0,-0.447388,269.7, 0.6, -0.3,0,0,1024,1024,1024,1024,0,0,0,0,0,0,0,99,,,,,,,7.166,102.2,721.01580292815,14.76378,6,P-GPS,
11800,2023-10-01 22:01:33,40.0688809748229,-88.209754286366,14.76378,,,721.01580292815,7.874016,0,0.84362207424,1.92755255512,27,10,24.748,721.34388692815,15.091864,0.3131716,0.89833008124,0,0,-0.223694,269.6, 1.3, -0.2,0,0,1024,1024,1024,1024,0,0,0,0,0,0,0,99,,,,,,,7.166,102.2,721.01580292815,14.76378,6,P-GPS,
11900,2023-10-01 22:01:33,40.068880962505,-88.2097542458237,14.76378,,,721.01580292815,7.874016,0,0.8322014702,1.9397310332,27,10,24.748,721.34388692815,15.091864,0.3131716,0.89833008124,0,0,0,269.7, 1.9, -0.5,0,0,1024,1024,1684,1024,0,0,100,0,0,0,0,99,,,,,,,7.166,102.2,721.01580292815,14.76378,6,P-GPS,
12000,2023-10-01 22:01:33,40.0688809612565,-88.2097541898809,14.76378,,,721.01580292815,7.874016,0,0.81657482928,1.95535767412,27,10,24.748,721.34388692815,15.091864,0.3131716,0.89833008124,0,0,0,269.7, 1.8, -1,0,0,1024,1024,1366,1024,0,0,52,0,0,0,0,99,,,,,,,7.166,102.2,721.01580292815,14.76378,6,P-GPS,
12100,2023-10-01 22:01:33,40.068880903639,-88.2097542249559,14.76378,,,721.01580292815,7.874016,0,0.826197533,1.97854993208,27,10,24.748,721.34388692815,15.091864,0.3131716,0.89833008124,0,0,-0.447388,269.6, 1.7, -1.2,0,0,1024,1024,1029,1024,0,0,1,0,0,0,0,100,,,,,,,7.166,102.2,721.01580292815,14.76378,6,P-GPS,
12200,2023-10-01 22:01:33,40.0688809038516,-88.2097541400622,14.76378,,,721.01580292815,8.2021,0.223694,0.802493464,2.00225072024,27,10,24.748,721.34388692815,15.091864,0.3131716,0.89833008124,0,0.223694,-1.11847,269.5, 1.1, -1.1,0,0,1024,1024,1029,1024,0,0,1,0,0,0,0,100,,,,,,,7.166,102.2,721.01580292815,14.76378,6,P-GPS,
12300,2023-10-01 22:01:33,40.0688809091634,-88.2097540560856,14.76378,,,721.01580292815,8.2021,0,0.77904201968,2.02577762388,27,10,24.748,721.34388692815,15.091864,0.3131716,0.89833008124,0,0,-0.894776,269.5, 0.2, -1.1,0,0,1024,1024,1024,1024,0,0,0,0,0,0,0,100,,,,,,,7.166,102.2,721.01580292815,14.76378,6,P-GPS,
12400,2023-10-01 22:01:34,40.0688808971962,-88.2097540558714,15.091864,,,721.34388692815,8.2021,0,0.7790026496,2.03014442192,27,10,24.748,721.34388692815,15.091864,0.3131716,0.89833008124,0,0,-0.447388,269.6, 0.5, -1.3,0,0,1024,1024,1024,1024,0,0,0,0,0,0,0,100,,,,,,,7.166,102.2,721.34388692815,15.091864,6,P-GPS,
12500,2023-10-01 22:01:34,40.0688809037438,-88.2097539970085,15.091864,,,721.34388692815,8.2021,0,0.76255251784,2.046752034,27,10,24.636,721.34388692815,15.091864,0.3131716,0.89833008124,0,0,-0.223694,269.6, 1, -1.4,0,0,1024,1024,1024,1024,0,0,0,0,0,0,0,99,,,,,,,6.242,102.2,721.34388692815,15.091864,6,P-GPS,
12600,2023-10-01 22:01:34,40.0688809145794,-88.209753941281,15.091864,,,721.34388692815,8.2021,0,0.74698493204,2.06280846496,27,10,24.636,721.34388692815,15.091864,0.3131716,0.89833008124,0,0,-0.223694,269.7, 1.5, -1.4,0,0,1024,1024,1024,1024,0,0,0,0,0,0,0,99,,,,,,,6.242,102.2,721.34388692815,15.091864,6,P-GPS,
12700,2023-10-01 22:01:34,40.0688809183123,-88.2097538804798,15.091864,,,721.34388692815,7.874016,0,0.73000986588,2.0798393054,27,10,24.636,721.34388692815,15.091864,0.3131716,0.89833008124,0,0,0,269.7, 1.6, -1.3,0,0,1024,1024,1684,1024,0,0,100,0,0,0,0,99,,,,,,,6.242,102.2,721.34388692815,15.091864,6,P-GPS,
12800,2023-10-01 22:01:34,40.0688808628934,-88.2097538687386,14.76378,,,721.01580292815,7.545932,0,0.72697180804,2.10032158952,27,10,24.636,721.34388692815,15.091864,0.3131716,0.89833008124,0,0,0,269.7, 1.5, -1.3,0,0,1024,1024,1684,1024,0,0,100,0,0,0,0,99,,,,,,,6.242,102.2,721.01580292815,14.76378,6,P-GPS,
12900,2023-10-01 22:01:34,40.0688808815451,-88.2097538164913,14.76378,,,721.01580292815,7.545932,0,0.71224083644,2.11641739056,27,10,24.636,721.34388692815,15.091864,0.3131716,0.89833008124,0,0,0,269.6, 1.7, -1.2,0,0,1024,1024,1119,1024,0,0,14,0,0,0,0,99,,,,,,,6.242,102.2,721.01580292815,14.76378,6,P-GPS,
13000,2023-10-01 22:01:34,40.0688809067678,-88.2097537592828,14.76378,,,721.01580292815,7.874016,0,0.69617456296,2.13485243052,27,10,24.636,721.34388692815,15.091864,0.3131716,0.89833008124,0,0,-0.671082,269.5, 1.9, -1.4,0,0,1024,1024,1058,1024,0,0,5,0,0,0,0,99,,,,,,,6.242,102.2,721.01580292815,14.76378,6,P-GPS,
13100,2023-10-01 22:01:34,40.0688808844335,-88.2097538170481,15.091864,,,721.34388692815,7.874016,0,0.71237863172,2.15292329724,27,10,24.636,721.34388692815,15.091864,0.3131716,0.89833008124,0,0,-0.894776,269.5, 1.3, -1.7,0,0,1024,1024,1051,1024,0,0,4,0,0,0,0,99,,,,,,,6.242,102.2,721.34388692815,15.091864,6,P-GPS,
13200,2023-10-01 22:01:34,40.0688809108655,-88.2097537904149,15.091864,,,721.34388692815,7.874016,0,0.70486222728,2.16510177532,27,10,24.636,721.34388692815,15.091864,0.3131716,0.89833008124,0,0,-0.447388,269.6, 1.2, -2.1,0,0,1024,1024,1024,1024,0,0,0,0,0,0,0,99,,,,,,,6.242,102.2,721.34388692815,15.091864,6,P-GPS,
13300,2023-10-01 22:01:34,40.0688809421183,-88.2097537750026,15.091864,,,721.34388692815,7.874016,0,0.70062994368,2.17729009592,27,10,24.636,721.34388692815,15.091864,0.3131716,0.89833008124,0,0,-0.223694,269.7, 2.1, -1.9,0,0,1024,1024,1024,1024,0,0,0,0,0,0,0,99,,,,,,,6.242,102.2,721.34388692815,15.091864,6,P-GPS,
13400,2023-10-01 22:01:35,40.068880970878,-88.2097537583511,15.091864,,,721.34388692815,7.874016,0,0.69621393304,2.18876647424,27,10,24.636,721.34388692815,15.091864,0.3131716,0.89833008124,0,0,0,269.8, 2.7, -1.6,0,0,1024,1024,1024,1024,0,0,0,0,0,0,0,99,,,,,,,6.242,102.2,721.34388692815,15.091864,6,P-GPS,
13500,2023-10-01 22:01:35,40.0688809522346,-88.2097539021113,15.091864,,,721.34388692815,7.874016,0,0.73617784508,2.2294784178,27,10,24.7015,721.34388692815,15.091864,0.3131716,0.89833008124,0,0,0,269.8, 2.9, -1.4,0,0,1024,1024,1584,1024,0,0,85,0,0,0,0,99,,,,,,,10.136,102.2,721.34388692815,15.091864,6,P-GPS,
13600,2023-10-01 22:01:35,40.0688809747302,-88.2097539073153,15.091864,,,721.34388692815,7.545932,0,0.7378281076,2.2378117514,27,10,24.7015,721.34388692815,15.091864,0.3131716,0.89833008124,0,0,0,269.8, 2.9, -1.4,0,0,1024,1024,1684,1024,0,0,100,0,0,0,0,99,,,,,,,10.136,102.2,721.34388692815,15.091864,6,P-GPS,
13700,2023-10-01 22:01:35,40.0688810138273,-88.2097539153721,14.76378,,,721.01580292815,7.874016,0,0.74063978748,2.25225400908,27,10,24.7015,721.34388692815,15.091864,0.3131716,0.89833008124,0,0,0,269.8, 2.9, -1.5,0,0,1024,1024,1256,1024,0,0,35,0,0,0,0,99,,,,,,,10.136,102.2,721.01580292815,14.76378,6,P-GPS,
13800,2023-10-01 22:01:35,40.0688810407337,-88.2097539922995,14.76378,,,721.01580292815,7.874016,0,0.76262469632,2.2758694954,27,10,24.7015,721.34388692815,15.091864,0.3131716,0.89833008124,0,0,-0.671082,269.7, 2.9, -1.7,0,0,1024,1024,1024,1024,0,0,0,0,0,0,0,99,,,,,,,10.136,102.2,721.01580292815,14.76378,6,P-GPS,
13900,2023-10-01 22:01:35,40.0688810745422,-88.2097539513479,15.091864,,,721.34388692815,7.874016,0,0.75207023404,2.29268708124,27,10,24.7015,721.34388692815,15.091864,0.3131716,0.89833008124,0,0,-1.11847,269.7, 2.5, -1.8,0,0,1024,1024,1024,1024,0,0,0,0,0,0,0,99,,,,,,,10.136,102.2,721.34388692815,15.091864,6,P-GPS,
14000,2023-10-01 22:01:35,40.0688811063594,-88.2097539123526,15.091864,,,721.34388692815,7.874016,0,0.74222115236,2.30860243608,27,10,24.7015,721.34388692815,15.091864,0.3131716,0.89833008124,0,0,-0.671082,269.7, 1.9, -1.9,0,0,1024,1024,1024,1024,0,0,0,0,0,0,0,99,,,,,,,10.136,102.2,721.34388692815,15.091864,6,P-GPS,
14100,2023-10-01 22:01:35,40.0688811287402,-88.2097538743806,15.091864,,,721.34388692815,7.874016,0,0.73249346176,2.32198498244,27,10,24.7015,721.34388692815,15.091864,0.3131716,0.89833008124,0,0,-0.223694,269.7, 2.2, -2,0,0,1024,1024,1024,1024,0,0,0,0,0,0,0,99,,,,,,,10.136,102.2,721.34388692815,15.091864,6,P-GPS,
14200,2023-10-01 22:01:35,40.0688811073996,-88.2097539412413,15.091864,,,721.34388692815,7.874016,0,0.75028873792,2.34221136104,27,10,24.7015,721.34388692815,15.091864,0.3131716,0.89833008124,0,0,-0.223694,269.7, 2.6, -1.8,0,0,1024,1024,1024,1024,0,0,0,0,0,0,0,99,,,,,,,10.136,102.2,721.34388692815,15.091864,6,P-GPS,
14300,2023-10-01 22:01:35,40.0688811139613,-88.2097539089712,15.091864,,,721.34388692815,7.545932,0,0.74154858016,2.35153550832,27,10,24.7015,721.34388692815,15.091864,0.3131716,0.89833008124,0,0,0,269.7, 2.5, -1.5,0,0,1024,1024,1475,1024,0,0,68,0,0,0,0,99,,,,,,,10.136,102.2,721.34388692815,15.091864,6,P-GPS,
14400,2023-10-01 22:01:36,40.0688811221442,-88.2097538674207,15.091864,,,721.34388692815,7.545932,0,0.73030842232,2.36351385516,27,10,24.7015,721.34388692815,15.091864,0.3131716,0.89833008124,0,0,-0.447388,269.7, 2.8, -1.5,0,0,1024,1024,1044,1024,0,0,3,0,0,0,0,99,,,,,,,10.136,102.2,721.34388692815,15.091864,6,P-GPS,
14500,2023-10-01 22:01:36,40.0688810820218,-88.2097539456134,15.091864,,,721.34388692815,7.874016,0,0.75069228124,2.38979994524,27,10,24.731,721.34388692815,15.091864,0.3131716,0.89833008124,0,0,-1.11847,269.6, 2.6, -1.2,0,0,1024,1024,1044,1024,0,0,3,0,0,0,0,99,,,,,,,8.802,102.2,721.34388692815,15.091864,6,P-GPS,
14600,2023-10-01 22:01:36,40.0688810965862,-88.2097539155295,15.419948,,,721.67197092815,7.874016,0,0.74277561432,2.39974089044,27,10,24.731,721.67197092815,15.419948,0.3131716,0.89833008124,0,0,-0.894776,269.5, 2, -1.2,0,0,1024,1024,1156,1024,0,0,20,0,0,0,0,99,,,,,,,8.802,102.2,721.67197092815,15.419948,6,P-GPS,
14700,2023-10-01 22:01:36,40.068881123882,-88.2097538874303,15.419948,,,721.67197092815,7.874016,0,0.73593178208,2.4124180562,27,10,24.731,721.67197092815,15.419948,0.3131716,0.89833008124,0,0,-0.447388,269.4, 2.3, -2.1,0,0,1024,1024,1684,1024,0,0,100,0,0,0,0,99,,,,,,,8.802,102.2,721.67197092815,15.419948,6,P-GPS,
14800,2023-10-01 22:01:36,40.0688811560319,-88.209753861046,15.419948,,,721.67197092815,7.874016,0,0.72992784488,2.42626976268,27,10,24.731,721.67197092815,15.419948,0.3131716,0.89833008124,0,0,-0.223694,269.4, 2.8, -2.5,0,0,1024,1024,1545,1024,0,0,79,0,0,0,0,99,,,,,,,8.802,102.2,721.67197092815,15.419948,6,P-GPS,
14900,2023-10-01 22:01:36,40.0688811246516,-88.2097539145234,15.419948,,,721.67197092815,7.545932,0,0.74348427576,2.44508538008,27,10,24.731,721.67197092815,15.419948,0.3131716,0.89833008124,0,0,-0.671082,269.2, 3, -2.4,0,0,1024,1024,1084,1024,0,0,9,0,0,0,0,99,,,,,,,8.802,102.2,721.67197092815,15.419948,6,P-GPS,
15000,2023-10-01 22:01:36,40.068881151862,-88.2097538340268,15.419948,,,721.67197092815,7.545932,0.223694,0.72225724096,2.46965559084,27,10,24.731,721.67197092815,15.419948,0.3131716,0.89833008124,0,0.223694,-1.342164,269.1, 2.4, -2.2,0,0,1024,1024,1024,1024,0,0,0,0,0,0,0,99,,,,,,,8.802,102.2,721.67197092815,15.419948,6,P-GPS,
15100,2023-10-01 22:01:36,40.0688811881182,-88.2097537260111,15.748032,,,722.00005492815,7.545932,0.223694,0.69410435292,2.50258538192,27,10,24.731,722.00005492815,15.748032,0.3131716,0.89833008124,0,0.223694,-1.11847,269.2, 1.2, -2.3,0,0,1024,1024,1024,1024,0,0,0,0,0,0,0,99,,,,,,,8.802,102.2,722.00005492815,15.748032,6,P-GPS,
15200,2023-10-01 22:01:36,40.0688812091421,-88.209753677812,15.748032,,,722.00005492815,7.545932,0,0.68195868324,2.5180775084,27,10,24.731,722.00005492815,15.748032,0.3131716,0.89833008124,0,0,-0.671082,269.4, 1, -3,0,0,1024,1024,1024,1024,0,0,0,0,0,0,0,99,,,,,,,8.802,102.2,722.00005492815,15.748032,6,P-GPS,
15300,2023-10-01 22:01:36,40.0688812611766,-88.2097536031777,15.748032,,,722.00005492815,7.545932,0,0.66474083492,2.54626648568,27,10,24.731,722.00005492815,15.748032,0.3131716,0.89833008124,0,0,-0.447388,269.6, 1.4, -3.3,0,0,1024,1024,1024,1024,0,0,0,0,0,0,0,99,,,,,,,8.802,102.2,722.00005492815,15.748032,6,P-GPS,
15400,2023-10-01 22:01:37,40.0688813018657,-88.2097535383288,15.748032,,,722.00005492815,7.545932,0,0.65004267172,2.56968184076,27,10,24.731,722.00005492815,15.748032,0.3131716,0.89833008124,0,0,-0.223694,269.9, 1.9, -3.3,0,0,1024,1024,1024,1024,0,0,0,0,0,0,0,99,,,,,,,8.802,102.2,722.00005492815,15.748032,6,P-GPS,
15500,2023-10-01 22:01:37,40.0688813193448,-88.2097534913649,15.748032,,,722.00005492815,7.217848,0,0.63869424616,2.58426189372,27,10,24.6465,722.00005492815,15.748032,0.3131716,0.89833008124,0,0,0,269.9, 2, -3,0,0,1024,1024,1024,1024,0,0,0,0,0,0,0,99,,,,,,,4.742,102.2,722.00005492815,15.748032,6,P-GPS,
15600,2023-10-01 22:01:37,40.0688812792683,-88.2097535083934,15.748032,,,722.00005492815,7.217848,0,0.64012141156,2.5996391908,27,10,24.6465,722.00005492815,15.748032,0.3131716,0.89833008124,0,0,0,269.9, 1.7, -2.4,0,0,1024,1024,1684,1024,0,0,100,0,0,0,0,99,,,,,,,4.742,102.2,722.00005492815,15.748032,6,P-GPS,
15700,2023-10-01 22:01:37,40.068881289513,-88.2097534608266,15.748032,,,722.00005492815,7.217848,0,0.62793965264,2.613435123,27,10,24.6465,722.00005492815,15.748032,0.3131716,0.89833008124,0,0,0,269.9, 1.8, -2,0,0,1024,1024,1636,1024,0,0,93,0,0,0,0,99,,,,,,,4.742,102.2,722.00005492815,15.748032,6,P-GPS,
15800,2023-10-01 22:01:37,40.0688812937199,-88.2097534134503,15.748032,,,722.00005492815,7.217848,0,0.61538059712,2.62675205256,27,10,24.6465,722.00005492815,15.748032,0.3131716,0.89833008124,0,0,-0.447388,269.8, 2.2, -1.7,0,0,1024,1024,1112,1024,0,0,13,0,0,0,0,99,,,,,,,4.742,102.2,722.00005492815,15.748032,6,P-GPS,
15900,2023-10-01 22:01:37,40.0688812476486,-88.2097534345925,15.748032,,,722.00005492815,7.545932,0,0.61760500664,2.64456701376,27,10,24.6465,722.00005492815,15.748032,0.3131716,0.89833008124,0,0,-1.11847,269.7, 2.1, -1.4,0,0,1024,1024,1024,1024,0,0,0,0,0,0,0,99,,,,,,,4.742,102.2,722.00005492815,15.748032,6,P-GPS,
16000,2023-10-01 22:01:37,40.0688812306185,-88.209753374333,16.076116,,,722.32813892815,7.545932,0,0.59989175148,2.66250336604,27,10,24.6465,722.32813892815,16.076116,0.3131716,0.89833008124,0,0,-1.11847,269.5, 1.3, -1.5,0,0,1024,1024,1024,1024,0,0,0,0,0,0,0,99,,,,,,,4.742,102.2,722.32813892815,16.076116,6,P-GPS,
16100,2023-10-01 22:01:37,40.0688812223465,-88.2097533168331,16.076116,,,722.32813892815,7.545932,0,0.58355644912,2.6788386684,27,10,24.6465,722.32813892815,16.076116,0.3131716,0.89833008124,0,0,-0.447388,269.6, 1.3, -1.8,0,0,1024,1024,1024,1024,0,0,0,0,0,0,0,99,,,,,,,4.742,102.2,722.32813892815,16.076116,6,P-GPS,
16200,2023-10-01 22:01:37,40.0688812114519,-88.2097532711896,16.076116,,,722.32813892815,7.545932,0,0.57028873216,2.69218840636,27,10,24.6465,722.32813892815,16.076116,0.3131716,0.89833008124,0,0,-0.223694,269.6, 2, -1.6,0,0,1024,1024,1024,1024,0,0,0,0,0,0,0,99,,,,,,,4.742,102.2,722.32813892815,16.076116,6,P-GPS,
16300,2023-10-01 22:01:37,40.0688811502528,-88.209753299914,16.076116,,,722.32813892815,7.217848,0,0.57439634384,2.7159121604,27,10,24.6465,722.32813892815,16.076116,0.3131716,0.89833008124,0,0,0,269.6, 2.3, -1.3,0,0,1024,1024,1684,1024,0,0,100,0,0,0,0,99,,,,,,,4.742,102.2,722.32813892815,16.076116,6,P-GPS,
16400,2023-10-01 22:01:37,40.0688811363022,-88.2097532694744,16.076116,,,722.32813892815,7.217848,0,0.56524280024,2.7258202972,27,10,24.6465,722.32813892815,16.076116,0.3131716,0.89833008124,0,0,0,269.6, 2.2, -1.2,0,0,1024,1024,1684,1024,0,0,100,0,0,0,0,99,,,,,,,4.742,102.2,722.32813892815,16.076116,6,P-GPS,
16500,2023-10-01 22:01:38,40.0688811010493,-88.209753221717,16.076116,,,722.32813892815,7.217848,0,0.55030841656,2.74434720068,27,10,24.578,722.32813892815,16.076116,0.3131716,0.89833008124,0,0,-0.447388,269.6, 2.1, -1.3,0,0,1024,1024,1094,1024,0,0,11,0,0,0,0,99,,,,,,,12.06,102.2,722.32813892815,16.076116,6,P-GPS,
16600,2023-10-01 22:01:38,40.0688810271932,-88.2097531990313,16.076116,,,722.32813892815,7.217848,0,0.54130907244,2.77202764776,27,10,24.578,722.32813892815,16.076116,0.3131716,0.89833008124,0,0,-1.11847,269.6, 1.7, -1.6,0,0,1024,1024,1030,1024,0,0,1,0,0,0,0,99,,,,,,,12.06,102.2,722.32813892815,16.076116,6,P-GPS,
16700,2023-10-01 22:01:38,40.0688810260492,-88.2097531374059,16.4042,,,722.65622292815,7.545932,0,0.52412403252,2.7892389344,27,10,24.578,722.65622292815,16.4042,0.3131716,0.89833008124,0,0,-1.11847,269.6, 1, -1.7,0,0,1024,1024,1024,1024,0,0,0,0,0,0,0,99,,,,,,,12.06,102.2,722.65622292815,16.4042,6,P-GPS,
16800,2023-10-01 22:01:38,40.0688810344054,-88.2097530971479,16.4042,,,722.65622292815,7.545932,0,0.51316930776,2.8008859164,27,10,24.578,722.65622292815,16.4042,0.3131716,0.89833008124,0,0,-0.671082,269.7, 1.3, -2.1,0,0,1024,1024,1024,1024,0,0,0,0,0,0,0,99,,,,,,,12.06,102.2,722.65622292815,16.4042,6,P-GPS,
16900,2023-10-01 22:01:38,40.0688810340525,-88.2097531139145,16.4042,,,722.65622292815,7.545932,0,0.51782153888,2.80556767508,27,10,24.578,722.65622292815,16.4042,0.3131716,0.89833008124,0,0,-0.447388,269.8, 2.1, -2.3,0,0,1024,1024,1024,1024,0,0,0,0,0,0,0,99,,,,,,,12.06,102.2,722.65622292815,16.4042,6,P-GPS,
17000,2023-10-01 22:01:38,40.0688809735334,-88.209753219981,16.4042,,,722.65622292815,7.217848,0,0.54601707784,2.84250665264,27,10,24.578,722.65622292815,16.4042,0.3131716,0.89833008124,0,0,-0.223694,269.9, 2.5, -2.2,0,0,1024,1024,1039,1024,0,0,2,0,0,0,0,99,,,,,,,12.06,102.2,722.65622292815,16.4042,6,P-GPS,
17100,2023-10-01 22:01:38,40.068880990375,-88.209753218299,16.4042,,,722.65622292815,7.217848,0,0.54582678912,2.848671351,27,10,24.578,722.65622292815,16.4042,0.3131716,0.89833008124,0,0,0,269.8, 2.7, -1.8,0,0,1024,1024,1054,1024,0,0,5,0,0,0,0,99,,,,,,,12.06,102.2,722.65622292815,16.4042,6,P-GPS,
17200,2023-10-01 22:01:38,40.0688810120879,-88.2097532054681,16.4042,,,722.65622292815,6.889764,0,0.54271327196,2.857365577,27,10,24.578,722.65622292815,16.4042,0.3131716,0.89833008124,0,0,0,269.8, 2.6, -1.5,0,0,1024,1024,1054,1024,0,0,5,0,0,0,0,99,,,,,,,12.06,102.2,722.65622292815,16.4042,6,P-GPS,
17300,2023-10-01 22:01:38,40.0688809942249,-88.2097533027687,16.4042,,,722.65622292815,7.217848,0,0.56945211796,2.8853019296,27,10,24.578,722.65622292815,16.4042,0.3131716,0.89833008124,0,0,0,269.8, 2.5, -1.6,0,0,1024,1024,1024,1024,0,0,0,0,0,0,0,99,,,,,,,12.06,102.2,722.65622292815,16.4042,6,P-GPS,
17400,2023-10-01 22:01:39,40.0688810097514,-88.2097532972481,16.4042,,,722.65622292815,6.889764,0,0.56823164548,2.8911746332,27,10,24.578,722.65622292815,16.4042,0.3131716,0.89833008124,0,0,0,269.9, 2.3, -2,0,0,1024,1024,1024,1024,0,0,0,0,0,0,0,99,,,,,,,12.06,102.2,722.65622292815,16.4042,6,P-GPS,
17500,2023-10-01 22:01:39,40.0688810320481,-88.2097532967013,16.076116,,,722.32813892815,7.217848,0,0.5686351888,2.8993111164,27,10,24.578,722.65622292815,16.4042,0.3131716,0.89833008124,0,0,0,269.9, 2.1, -2.1,0,0,1024,1024,1024,1024,0,0,0,0,0,0,0,99,,,,,,,12.06,102.2,722.32813892815,16.076116,6,P-GPS,
17600,2023-10-01 22:01:39,40.0688810481005,-88.2097532968079,16.076116,,,722.32813892815,6.889764,0,0.56913715732,2.9051674158,27,10,24.578,722.65622292815,16.4042,0.3131716,0.89833008124,0,0,0,269.9, 2.2, -1.8,0,0,1024,1024,1024,1024,0,0,0,0,0,0,0,99,,,,,,,12.06,102.2,722.32813892815,16.076116,6,P-GPS,
17700,2023-10-01 22:01:39,40.0688810365655,-88.2097534372377,16.076116,,,722.32813892815,7.217848,0,0.6078904394,2.94459983176,27,10,24.578,722.65622292815,16.4042,0.3131716,0.89833008124,0,0,0,269.8, 2.5, -1.7,0,0,1024,1024,1024,1024,0,0,0,0,0,0,0,99,,,,,,,12.06,102.2,722.32813892815,16.076116,6,P-GPS,
17800,2023-10-01 22:01:39,40.068881060524,-88.2097534477396,16.076116,,,722.32813892815,7.217848,0,0.6115157676,2.953822273,27,10,24.578,722.65622292815,16.4042,0.3131716,0.89833008124,0,0,0,269.8, 2.6, -1.9,0,0,1024,1024,1024,1024,0,0,0,0,0,0,0,99,,,,,,,12.06,102.2,722.32813892815,16.076116,6,P-GPS,
17900,2023-10-01 22:01:39,40.0688810842375,-88.2097534381709,16.076116,,,722.32813892815,7.217848,0,0.60967193552,2.9628773914,27,10,24.5765,722.65622292815,16.4042,0.3131716,0.89833008124,0,0,0,269.8, 2.5, -1.9,0,0,1024,1024,1027,1024,0,0,0,0,0,0,0,99,,,,,,,6.818,102.2,722.32813892815,16.076116,6,P-GPS,
18000,2023-10-01 22:01:39,40.0688810908606,-88.209753466633,15.748032,,,722.00005492815,7.217848,0,0.61782482292,2.97118119744,27,10,24.5765,722.65622292815,16.4042,0.3131716,0.89833008124,0,0,0,269.7, 2.5, -2,0,0,1024,1024,1024,1024,0,0,0,0,0,0,0,99,,,,,,,6.818,102.2,722.00005492815,15.748032,6,P-GPS,
18100,2023-10-01 22:01:39,40.0688810912831,-88.2097534328923,15.748032,,,722.00005492815,6.889764,0,0.60847442892,2.98060376992,27,10,24.5765,722.65622292815,16.4042,0.3131716,0.89833008124,0,0,0,269.7, 2.4, -2,0,0,1024,1024,1024,1024,0,0,0,0,0,0,0,99,,,,,,,6.818,102.2,722.00005492815,15.748032,6,P-GPS,
18200,2023-10-01 22:01:39,40.0688810918837,-88.2097533891747,15.748032,,,722.00005492815,7.217848,0,0.59636156764,2.99281177556,27,10,24.5765,722.65622292815,16.4042,0.3131716,0.89833008124,0,0,0,269.7, 2.4, -1.8,0,0,1024,1024,1024,1024,0,0,0,0,0,0,0,99,,,,,,,6.818,102.2,722.00005492815,15.748032,6,P-GPS,
18300,2023-10-01 22:01:39,40.0688810844855,-88.2097533930807,15.748032,,,722.00005492815,7.545932,0,0.59715881176,2.99572516148,27,10,24.5765,722.65622292815,16.4042,0.3131716,0.89833008124,0,0,0,269.6, 2.5, -1.8,0,0,1024,1024,1024,1024,0,0,0,0,0,0,0,99,,,,,,,6.818,102.2,722.00005492815,15.748032,6,P-GPS,
18400,2023-10-01 22:01:40,40.0688810131667,-88.2097535075036,15.748032,,,722.00005492815,7.545932,0,0.62690946888,3.0369259502,27,10,24.5765,722.65622292815,16.4042,0.3131716,0.89833008124,0,0,0,269.7, 2.4, -1.8,0,0,1024,1024,1024,1024,0,0,0,0,0,0,0,99,,,,,,,6.818,102.2,722.00005492815,15.748032,6,P-GPS,
18500,2023-10-01 22:01:40,40.0688810436135,-88.2097534802795,15.419948,,,721.67197092815,7.545932,0,0.62006563664,3.05038723672,27,10,24.5765,722.65622292815,16.4042,0.3131716,0.89833008124,0,0,0,269.8, 2.2, -1.9,0,0,1024,1024,1024,1024,0,0,0,0,0,0,0,99,,,,,,,6.818,102.2,721.67197092815,15.419948,6,P-GPS,
18600,2023-10-01 22:01:40,40.0688810713539,-88.209753444764,15.419948,,,721.67197092815,7.545932,0,0.61104332664,3.06455718468,27,10,24.5765,722.65622292815,16.4042,0.3131716,0.89833008124,0,0,0,269.8, 2.1, -2,0,0,1024,1024,1024,1024,0,0,0,0,0,0,0,99,,,,,,,6.818,102.2,721.67197092815,15.419948,6,P-GPS,
18700,2023-10-01 22:01:40,40.0688810529527,-88.2097534694638,15.419948,,,721.67197092815,7.545932,0,0.6173228544,3.07418316924,27,10,24.5765,722.65622292815,16.4042,0.3131716,0.89833008124,0,0,0,269.9, 2, -1.7,0,0,1024,1024,1024,1024,0,0,0,0,0,0,0,99,,,,,,,6.818,102.2,721.67197092815,15.419948,6,P-GPS,
18800,2023-10-01 22:01:40,40.06888105263,-88.2097534034281,15.419948,,,721.67197092815,7.545932,0,0.59894030788,3.0926182092,27,10,24.5765,722.65622292815,16.4042,0.3131716,0.89833008124,0,0,0,269.9, 2, -1.5,0,0,1024,1024,1024,1024,0,0,0,0,0,0,0,99,,,,,,,6.818,102.2,721.67197092815,15.419948,6,P-GPS,
18900,2023-10-01 22:01:40,40.0688810493359,-88.2097533733031,15.419948,,,721.67197092815,7.545932,0,0.59045933648,3.1011155848,27,10,24.5605,722.65622292815,16.4042,0.3131716,0.89833008124,0,0,0,269.9, 2, -1.5,0,0,1024,1024,1024,1024,0,0,0,0,0,0,0,99,,,,,,,7.742,102.2,721.67197092815,15.419948,6,P-GPS,
