time(millisecond),datetime(utc),latitude,longitude,height_above_takeoff(feet),height_above_ground_at_drone_location(feet),ground_elevation_at_drone_location(feet),altitude_above_seaLevel(feet),height_sonar(feet),speed(mph),distance(feet),mileage(feet),satellites,gpslevel,voltage(v),max_altitude(feet),max_ascent(feet),max_speed(mph),max_distance(feet), xSpeed(mph), ySpeed(mph), zSpeed(mph), compass_heading(degrees), pitch(degrees), roll(degrees),isPhoto,isVideo,rc_elevator,rc_aileron,rc_throttle,rc_rudder,rc_elevator(percent),rc_aileron(percent),rc_throttle(percent),rc_rudder(percent),gimbal_heading(degrees),gimbal_pitch(degrees),gimbal_roll(degrees),battery_percent,voltageCell1,voltageCell2,voltageCell3,voltageCell4,voltageCell5,voltageCell6,current(A),battery_temperature(f),altitude(feet),ascent(feet),flycStateRaw,flycState,message
0,2023-10-01 20:27:23,40.0688897200285,-88.2095722136247,0,Available with any HD 360 subscription,Available with any HD 360 subscription,706.5195025955,0.656168,0,0,0,27,10,0,706.5195025955,0,0,0,0,0,0,1.2, -1.4, -0.3,0,0,1024,1024,1024,1024,0,0,0,0,0,0,0,92,,,,,,,0,98.24,706.5195025955,0,41,Motors_Started,"Your aircraft is flying in an Altitude Zone (500m). Please fly with caution."
100,2023-10-01 20:27:23,40.0688897031368,-88.2095721991857,0,,,706.5195025955,0.656168,0,0.0073644031228,0.0073644031228,27,10,0,706.5195025955,0,0,0.0073644031228,0,0,0,1.2, -1.4, -0.3,0,0,364,364,364,1684,-100,-100,-100,100,0,0,0,92,,,,,,,0,98.24,706.5195025955,0,41,Motors_Started,
200,2023-10-01 20:27:23,40.0688896901141,-88.209572183505,0,,,706.5195025955,0.656168,0,0.0137783468976,0.0138253285264,27,10,0,706.5195025955,0,0,0.0137783468976,0,0,0,1.2, -1.4, -0.3,0,0,364,364,364,1684,-100,-100,-100,100,0,0,0,92,,,,,,,0,98.24,706.5195025955,0,41,Motors_Started,
300,2023-10-01 20:27:24,40.0688897135886,-88.2095722251588,0,,,706.5195025955,0.656168,0,0.0039864502588,0.0282687345004,27,10,0,706.5195025955,0,0,0.0137783468976,0,0,0,1.3, -1.4, -0.3,0,0,364,364,364,1684,-100,-100,-100,100,0,0,0,92,,,,,,,0,98.24,706.5195025955,0,41,Motors_Started,
400,2023-10-01 20:27:24,40.0688896972453,-88.2095722121177,0,,,706.5195025955,0.656168,0,0.0083230973792,0.035255250472,27,10,0,706.5195025955,0,0,0.0137783468976,0,0,0,1.3, -1.4, -0.3,0,0,364,364,364,1684,-100,-100,-100,100,0,0,0,92,,,,,,,0,98.24,706.5195025955,0,41,Motors_Started,
500,2023-10-01 20:27:24,40.0688896756841,-88.2095721947435,0,,,706.5195025955,0.656168,0,0.0170162735104,0.044497376752,27,10,0,706.5195025955,0,0,0.0170162735104,0,0,0,1.2, -1.4, -0.3,0,0,1024,1024,1024,1024,0,0,0,0,0,0,0,92,,,,,,,0,98.24,706.5195025955,0,41,Motors_Started,
600,2023-10-01 20:27:24,40.0688896634425,-88.2095721823064,0,,,706.5195025955,0.656168,0,0.0224208668592,0.050154857248,27,10,0,706.5195025955,0,0,0.0224208668592,0,0,0,1.2, -1.4, -0.3,0,0,1024,1024,1024,1024,0,0,0,0,0,0,0,92,,,,,,,0,98.24,706.5195025955,0,41,Motors_Started,
700,2023-10-01 20:27:24,40.0688896893642,-88.2095722309124,0,,,706.5195025955,0.656168,0,0.0121846788676,0.066696524444,27,10,0,706.5195025955,0,0,0.0224208668592,0,0,0,1.3, -1.4, -0.3,0,0,1024,1024,1024,1024,0,0,0,0,0,0,0,92,,,,,,,0,98.24,706.5195025955,0,41,Motors_Started,
800,2023-10-01 20:27:24,40.0688896809568,-88.2095722154152,0,,,706.5195025955,0.656168,0,0.0142640424512,0.072000330388,27,10,0,706.5195025955,0,0,0.0224208668592,0,0,0,1.2, -1.5, -0.3,0,0,1024,1024,1024,1024,0,0,0,0,0,0,0,92,,,,,,,0,98.24,706.5195025955,0,41,Motors_Started,"Setting new Return-To-Home altitude to 100m (328 ft). Data Recorder File Index is 24. Setting new Maximum Flight Altitude to 120m (394 ft)"
900,2023-10-01 20:27:24,40.068889663234,-88.2095721940211,0,,,706.5195025955,0.656168,0,0.0214321529168,0.080803480276,27,10,0,706.5195025955,0,0,0.0224208668592,0,0,0,1.2, -1.4, -0.3,0,0,1024,1024,1024,1024,0,0,0,0,0,0,0,92,,,,,,,0,98.24,706.5195025955,0,41,Motors_Started,
1000,2023-10-01 20:27:24,40.068889704958,-88.2095722473322,0,,,706.5195025955,0.656168,0,0.0108999019236,0.102094163372,27,10,0,706.5195025955,0,0,0.0224208668592,0,0,0,1.2, -1.4, -0.3,0,0,1024,1024,1024,1024,0,0,0,0,0,0,0,92,,,,,,,0,98.24,706.5195025955,0,41,Motors_Started,
1100,2023-10-01 20:27:24,40.0688896898268,-88.209572239101,0,,,706.5195025955,0.656168,0,0.0131155516008,0.10807415044,27,10,0,706.5195025955,0,0,0.0224208668592,0,0,0,1.1, -1.6, -0.3,0,0,1024,1024,1024,1024,0,0,0,0,0,0,0,92,,,,,,,0,98.24,706.5195025955,0,41,Motors_Started,
1200,2023-10-01 20:27:24,40.0688896838191,-88.2095722267037,0,,,706.5195025955,0.656168,0,0.0137063980764,0.112171263432,27,10,0,706.5195025955,0,0,0.0224208668592,0,0,0,1.2, -1.5, -0.4,0,0,1024,1024,1024,1024,0,0,0,0,0,0,0,92,,,,,,,0,98.24,706.5195025955,0,41,Motors_Started,
1300,2023-10-01 20:27:25,40.0688896728506,-88.2095722061609,0,,,706.5195025955,0.656168,0,0.0173385176152,0.11916503006,27,10,24.3485,706.5195025955,0,0,0.0224208668592,0,0,0,1.3, -1.5, -0.4,0,0,1024,1024,1024,1024,0,0,0,0,0,0,0,91,,,,,,,0.406,98.24,706.5195025955,0,41,Motors_Started,
1400,2023-10-01 20:27:25,40.0688897015158,-88.2095722249211,0,,,706.5195025955,0.656168,0,0.0074544621808,0.130861880828,27,10,24.3485,706.5195025955,0,0,0.0224208668592,0,0,0,1.3, -1.5, -0.4,0,0,1024,1024,1024,1024,0,0,0,0,0,0,0,91,,,,,,,0.406,98.24,706.5195025955,0,41,Motors_Started,
1500,2023-10-01 20:27:25,40.0688896932136,-88.2095722122869,0,,,706.5195025955,0.656168,0,0.009790518686,0.135511487276,27,10,24.3485,706.5195025955,0,0,0.0224208668592,0,0,0,1.2, -1.5, -0.4,0,0,1024,1024,1024,1024,0,0,0,0,0,0,0,91,,,,,,,0.406,98.24,706.5195025955,0,41,Motors_Started,
1600,2023-10-01 20:27:25,40.0688896844252,-88.2095721942025,0,,,706.5195025955,0.656168,0,0.0140763127864,0.14149278668,27,10,24.3485,706.5195025955,0,0,0.0224208668592,0,0,0,1.2, -1.5, -0.4,0,0,1024,1024,1024,1024,0,0,0,0,0,0,0,91,,,,,,,0.406,98.24,706.5195025955,0,41,Motors_Started,
1700,2023-10-01 20:27:25,40.0688897216333,-88.2095722267053,0,,,706.5195025955,0.656168,0,0.0036988518244,0.157822183528,27,10,24.3485,706.5195025955,0,0,0.0224208668592,0,0,0,1.2, -1.5, -0.4,0,0,1024,1024,1024,1024,0,0,0,0,0,0,0,91,,,,,,,0.406,98.24,706.5195025955,0,41,Motors_Started,
1800,2023-10-01 20:27:25,40.0688897141374,-88.2095722089036,0,,,706.5195025955,0.656168,0,0.00252136819092,0.163495412056,27,10,24.3485,706.5195025955,0,0,0.0224208668592,0,0,0,1.2, -1.5, -0.4,0,0,1024,1024,1024,1024,0,0,0,0,0,0,0,92,,,,,,,0.406,98.24,706.5195025955,0,41,Motors_Started,
1900,2023-10-01 20:27:25,40.0688897043838,-88.2095721840469,0,,,706.5195025955,0.656168,0,0.0100389766992,0.171294624904,27,10,24.3485,706.5195025955,0,0,0.0224208668592,0,0,0,1.3, -1.5, -0.4,0,0,1024,1024,1024,1024,0,0,0,0,0,0,0,92,,,,,,,0.406,98.24,706.5195025955,0,41,Motors_Started,
2000,2023-10-01 20:27:25,40.0688896907105,-88.209572171813,0,,,706.5195025955,0.656168,0,0.015833661924,0.17734088494,27,10,24.3485,706.5195025955,0,0,0.0224208668592,0,0,0,1.2, -1.5, -0.4,0,0,1024,1024,1024,1024,0,0,0,0,0,0,0,92,,,,,,,0.406,98.24,706.5195025955,0,10,Assisted_Takeoff,
2100,2023-10-01 20:27:25,40.0688897096699,-88.2095722409059,0,,,706.5195025955,0.656168,0,0.0085031826868,0.197834652,27,10,24.3485,706.5195025955,0,0,0.0224208668592,0,0,0,1.2, -1.5, -0.4,0,0,1024,1024,1024,1024,0,0,0,0,0,0,0,92,,,,,,,0.406,98.24,706.5195025955,0,10,Assisted_Takeoff,
2200,2023-10-01 20:27:25,40.0688896977829,-88.209572220197,0,,,706.5195025955,0.656168,0,0.0083211288752,0.205062670604,27,10,24.3485,706.5195025955,0,0,0.0224208668592,0,0,0,1.2, -1.5, -0.4,0,0,1024,1024,1024,1024,0,0,0,0,0,0,0,92,,,,,,,0.406,98.24,706.5195025955,0,10,Assisted_Takeoff,
2300,2023-10-01 20:27:26,40.0688896825218,-88.2095721918592,0,,,706.5195025955,0.656168,0,0.0149730319752,0.21473753968,27,10,24.3485,706.5195025955,0,0,0.0224208668592,0,0,0,1.2, -1.5, -0.4,0,0,1024,1024,1024,1024,0,0,0,0,0,0,0,92,,,,,,,0.406,98.24,706.5195025955,0,10,Assisted_Takeoff,
2400,2023-10-01 20:27:26,40.068889717224,-88.2095722288969,0,,,706.5195025955,0.656168,0,0.004385170744,0.231085309232,27,10,24.414,706.5195025955,0,0,0.0224208668592,0,0,0,1.2, -1.5, -0.4,0,0,1024,1024,1024,1024,0,0,0,0,0,0,0,91,,,,,,,2.192,98.24,706.5195025955,0,10,Assisted_Takeoff,
2500,2023-10-01 20:27:26,40.0688897135229,-88.2095722028122,0,,,706.5195025955,0.656168,0,0.0038402560284,0.2384924617,27,10,24.414,706.5195025955,0,0,0.0224208668592,0,0,0,1.2, -1.5, -0.4,0,0,1024,1024,1024,1024,0,0,0,0,0,0,0,91,,,,,,,2.192,98.24,706.5195025955,0,10,Assisted_Takeoff,
2600,2023-10-01 20:27:26,40.0688897074678,-88.2095721851254,0,,,706.5195025955,0.656168,0,0.009182579034,0.24390256686,27,10,24.414,706.5195025955,0,0,0.0224208668592,0,0,0,1.2, -1.5, -0.4,0,0,1024,1024,1024,1024,0,0,0,0,0,0,0,91,,,,,,,2.192,98.24,706.5195025955,0,10,Assisted_Takeoff,
2700,2023-10-01 20:27:26,40.0688896977817,-88.2095721598021,0,,,706.5195025955,0.656168,0,0.0170796265308,0.251806766588,27,10,24.414,706.5195025955,0,0,0.0224208668592,0,0,0,1.2, -1.5, -0.4,0,0,1024,1024,1024,1024,0,0,0,0,0,0,0,91,,,,,,,2.192,98.24,706.5195025955,0,10,Assisted_Takeoff,
2800,2023-10-01 20:27:26,40.0688897112003,-88.2095721850822,0,,,706.5195025955,0.656168,0,0.0085956039496,0.26039698996,27,10,24.414,706.5195025955,0,0,0.0224208668592,0,0,0,1.2, -1.5, -0.4,0,0,1024,1024,1024,1024,0,0,0,0,0,0,0,92,,,,,,,2.192,98.24,706.5195025955,0,10,Assisted_Takeoff,
2900,2023-10-01 20:27:26,40.0688897027509,-88.2095721675962,0,,,706.5195025955,0.656168,0,0.0143142721116,0.266170940276,27,10,24.414,706.5195025955,0,0,0.0224208668592,0,0,0,1.2, -1.5, -0.4,0,0,1024,1024,1024,1024,0,0,0,0,0,0,0,92,,,,,,,2.192,98.24,706.5195025955,0,10,Assisted_Takeoff,
3000,2023-10-01 20:27:26,40.0688897068867,-88.2095721499338,0,,,706.5195025955,0.656168,0,0.0184181108256,0.271328092672,27,10,24.414,706.5195025955,0,0,0.0224208668592,0,0,0,1.2, -1.5, -0.4,0,0,1024,1024,1024,1024,0,0,0,0,0,0,0,92,,,,,,,2.192,98.24,706.5195025955,0,10,Assisted_Takeoff,
3100,2023-10-01 20:27:26,40.0688897549893,-88.20957219989,0,,,706.5195025955,0.656168,0,0.0133194229984,0.293746072392,27,10,24.414,706.5195025955,0,0,0.0224208668592,0,0,0,1.2, -1.5, -0.4,0,0,1024,1024,1024,1024,0,0,0,0,0,0,0,92,,,,,,,2.192,98.24,706.5195025955,0,10,Assisted_Takeoff,
3200,2023-10-01 20:27:26,40.0688897579484,-88.2095721737536,0,,,706.5195025955,0.656168,0,0.0177577761588,0.301123041132,27,10,24.414,706.5195025955,0,0,0.0224208668592,0,0,0,1.2, -1.5, -0.4,0,0,1024,1024,1024,1024,0,0,0,0,0,0,0,92,,,,,,,2.192,98.24,706.5195025955,0,10,Assisted_Takeoff,
3300,2023-10-01 20:27:27,40.0688897576398,-88.2095721353739,0,,,706.5195025955,0.656168,0,0.0258002632928,0.311839576908,27,10,24.4315,706.5195025955,0,0,0.0258002632928,0,0,0,1.2, -1.5, -0.4,0,0,1024,1024,1024,1024,0,0,0,0,0,0,0,91,,,,,,,1.141,98.24,706.5195025955,0,10,Assisted_Takeoff,
3400,2023-10-01 20:27:27,40.0688897514494,-88.2095721065748,0,,,706.5195025955,0.656168,0,0.0320123369824,0.320191611296,27,10,24.4315,706.5195025955,0,0,0.0320123369824,0,0,0,1.2, -1.5, -0.3,0,0,1024,1024,1024,1024,0,0,0,0,0,0,0,91,,,,,,,1.141,98.24,706.5195025955,0,10,Assisted_Takeoff,
3500,2023-10-01 20:27:27,40.068889774756,-88.2095721397204,0,,,706.5195025955,0.656168,0,0.0287138460632,0.332759197,27,10,24.4315,706.5195025955,0,0,0.0320123369824,0,0,0,1.2, -1.5, -0.3,0,0,1024,1024,1024,1024,0,0,0,0,0,0,0,91,,,,,,,1.141,98.24,706.5195025955,0,10,Assisted_Takeoff,
3600,2023-10-01 20:27:27,40.0688897657406,-88.209572117125,0,,,706.5195025955,0.656168,0,0.0316877306728,0.33987533896,27,10,24.4315,706.5195025955,0,0,0.0320123369824,0,0,0,1.2, -1.5, -0.3,0,0,1024,1024,1024,1024,0,0,0,0,0,0,0,91,,,,,,,1.141,98.24,706.5195025955,0,10,Assisted_Takeoff,
3700,2023-10-01 20:27:27,40.0688897542826,-88.20957209092,0,,,706.5195025955,0.656168,0,0.036468505104,0.34830053608,27,10,24.4315,706.5195025955,0,0,0.036468505104,0,0,0,1.2, -1.5, -0.4,0,0,1024,1024,1024,1024,0,0,0,0,0,0,0,91,,,,,,,1.141,98.24,706.5195025955,0,10,Assisted_Takeoff,
3800,2023-10-01 20:27:27,40.0688897657456,-88.2095721574026,0,,,706.5195025955,0.656168,0,0.0229049219928,0.36732940808,27,10,24.4315,706.5195025955,0,0,0.036468505104,0,0,0,1.2, -1.5, -0.4,0,0,1024,1024,1024,1024,0,0,0,0,0,0,0,92,,,,,,,1.141,98.24,706.5195025955,0,10,Assisted_Takeoff,
3900,2023-10-01 20:27:27,40.0688897536344,-88.2095721391781,0,,,706.5195025955,0.656168,0,0.0241329075964,0.37406825344,27,10,24.4315,706.5195025955,0,0,0.036468505104,0,0,0,1.2, -1.5, -0.4,0,0,1024,1024,1024,1024,0,0,0,0,0,0,0,92,,,,,,,1.141,98.24,706.5195025955,0,10,Assisted_Takeoff,
4000,2023-10-01 20:27:27,40.0688897450392,-88.2095721361139,0,,,706.5195025955,0.656168,0,0.0234868117752,0.37731956588,27,10,24.4315,706.5195025955,0,0,0.036468505104,0,0,0,1.2, -1.5, -0.4,0,0,1024,1024,1024,1024,0,0,0,0,0,0,0,92,,,,,,,1.141,98.24,706.5195025955,0,10,Assisted_Takeoff,
4100,2023-10-01 20:27:27,40.0688897354355,-88.2095721321225,0,,,706.5195025955,0.656168,0,0.0234400926136,0.38099410668,27,10,24.4315,706.5195025955,0,0,0.036468505104,0,0,0,1.2, -1.5, -0.4,0,0,1024,1024,1024,1024,0,0,0,0,0,0,0,92,,,,,,,1.141,98.24,706.5195025955,0,10,Assisted_Takeoff,
4200,2023-10-01 20:27:27,40.0688897436434,-88.2095721919194,0,,,706.5195025955,0.656168,0,0.0105337601796,0.39795933032,27,10,24.4315,706.5195025955,0,0,0.036468505104,0,0,0,1.2, -1.5, -0.4,0,0,1024,1024,1024,1024,0,0,0,0,0,0,0,92,,,,,,,1.141,98.24,706.5195025955,0,10,Assisted_Takeoff,
4300,2023-10-01 20:27:28,40.0688897311955,-88.2095721970256,0,,,706.5195025955,0.656168,0,0.0061708335308,0.40271654832,27,10,24.4335,706.5195025955,0,0,0.036468505104,0,0,0,1.2, -1.5, -0.4,0,0,1024,1024,1024,1024,0,0,0,0,0,0,0,91,,,,,,,0.931,98.24,706.5195025955,0,10,Assisted_Takeoff,
4400,2023-10-01 20:27:28,40.0688897268993,-88.2095722077847,0,,,706.5195025955,0.656168,0,0.0029904528516,0.40610565604,27,10,24.4335,706.5195025955,0,0,0.036468505104,0,0,0,1.2, -1.5, -0.4,0,0,1024,1024,1024,1024,0,0,0,0,0,0,0,91,,,,,,,0.931,98.24,706.5195025955,0,10,Assisted_Takeoff,
4500,2023-10-01 20:27:28,40.0688897531207,-88.2095723019503,0,,,706.5195025955,0.656168,0,0.0274582029784,0.43408465956,27,10,24.4335,706.5195025955,0,0,0.036468505104,0,0,0,1.2, -1.5, -0.3,0,0,1024,1024,1024,1024,0,0,0,0,0,0,0,91,,,,,,,0.931,98.24,706.5195025955,0,10,Assisted_Takeoff,
4600,2023-10-01 20:27:28,40.0688897490174,-88.2095723121399,0,,,706.5195025955,0.656168,0,0.029469653174,0.43729988276,27,10,24.4335,706.5195025955,0,0,0.036468505104,0,0,0,1.2, -1.5, -0.4,0,0,1024,1024,1024,1024,0,0,0,0,0,0,0,91,,,,,,,0.931,98.24,706.5195025955,0,10,Assisted_Takeoff,
4700,2023-10-01 20:27:28,40.0688897425275,-88.209572320253,0,,,706.5195025955,0.656168,0,0.0308824813032,0.44057744192,27,10,24.4335,706.5195025955,0,0,0.036468505104,0,0,0,1.2, -1.5, -0.4,0,0,1024,1024,1024,1024,0,0,0,0,0,0,0,91,,,,,,,0.931,98.24,706.5195025955,0,10,Assisted_Takeoff,
4800,2023-10-01 20:27:28,40.0688897325632,-88.2095723241203,0,,,706.5195025955,0.656168,0,0.03118848525,0.44437009296,27,10,24.4335,706.5195025955,0,0,0.036468505104,0,0,0,1.2, -1.5, -0.4,0,0,1024,1024,1024,1024,0,0,0,0,0,0,0,92,,,,,,,0.931,98.24,706.5195025955,0,10,Assisted_Takeoff,
4900,2023-10-01 20:27:28,40.0688897549441,-88.2095723876821,0,,,706.5195025955,0.656168,0,0.050240159088,0.46390421432,27,10,24.4335,706.5195025955,0,0,0.050240159088,0,0,0,1.2, -1.5, -0.4,0,0,1024,1024,1024,1024,0,0,0,0,0,0,0,92,,,,,,,0.931,98.24,706.5195025955,0,10,Assisted_Takeoff,
5000,2023-10-01 20:27:28,40.0688897533725,-88.2095723919733,0,,,706.5195025955,0.656168,0,0.051260828412,0.46523295452,27,10,24.4335,706.5195025955,0,0,0.051260828412,0,0,0,1.2, -1.5, -0.4,0,0,1024,1024,1024,1024,0,0,0,0,0,0,0,92,,,,,,,0.931,98.24,706.5195025955,0,10,Assisted_Takeoff,
5100,2023-10-01 20:27:28,40.0688897474858,-88.2095723885275,0,,,706.5195025955,0.656168,0,0.049851379548,0.4675853168,27,10,24.4335,706.5195025955,0,0,0.051260828412,0,0,-0.223694,1.2, -1.5, -0.4,0,0,1024,1024,1024,1024,0,0,0,0,0,0,0,92,,,,,,,0.931,98.24,706.5195025955,0,10,Assisted_Takeoff,
5200,2023-10-01 20:27:29,40.0688897777104,-88.2095724113053,0,,,706.5195025955,0.656168,0,0.059070211864,0.480314976,27,10,24.4335,706.5195025955,0,0,0.059070211864,0,0,0,1.2, -1.5, -0.4,0,0,1024,1024,1024,1024,0,0,0,0,0,0,0,92,,,,,,,0.931,98.24,706.5195025955,0,10,Assisted_Takeoff,
5300,2023-10-01 20:27:29,40.0688897732842,-88.2095724032107,0,,,706.5195025955,0.656168,0,0.056387468996,0.48309384748,27,10,24.4315,706.5195025955,0,0,0.059070211864,0,0,0,1.2, -1.5, -0.3,0,0,1024,1024,1024,1024,0,0,0,0,0,0,0,91,,,,,,,1.05,98.24,706.5195025955,0,10,Assisted_Takeoff,
5400,2023-10-01 20:27:29,40.0688897723561,-88.2095723892339,0,,,706.5195025955,0.656168,0,0.052617455752,0.48701117044,27,10,24.4315,706.5195025955,0,0,0.059070211864,0,0,0,1.2, -1.5, -0.4,0,0,1024,1024,1024,1024,0,0,0,0,0,0,0,91,,,,,,,1.05,98.24,706.5195025955,0,10,Assisted_Takeoff,
5500,2023-10-01 20:27:29,40.0688897702016,-88.2095723698225,0,,,706.5195025955,0.656168,0,0.047297901776,0.4924868924,27,10,24.4315,706.5195025955,0,0,0.059070211864,0,0,0,1.2, -1.5, -0.4,0,0,1024,1024,1024,1024,0,0,0,0,0,0,0,91,,,,,,,1.05,98.24,706.5195025955,0,10,Assisted_Takeoff,
5600,2023-10-01 20:27:29,40.0688897874776,-88.2095723601292,0,,,706.5195025955,0.656168,0,0.047737206252,0.49934712884,27,10,24.4315,706.5195025955,0,0,0.059070211864,0,0,0,1.2, -1.5, -0.4,0,0,1024,1024,1024,1024,0,0,0,0,0,0,0,91,,,,,,,1.05,98.24,706.5195025955,0,10,Assisted_Takeoff,
5700,2023-10-01 20:27:29,40.0688897804269,-88.209572341949,0,,,706.5195025955,0.656168,0,0.042063321556,0.5050361054,27,10,24.4315,706.5195025955,0,0,0.059070211864,0,0,0,1.2, -1.5, -0.4,0,0,1024,1024,1024,1024,0,0,0,0,0,0,0,91,,,,,,,1.05,98.24,706.5195025955,0,10,Assisted_Takeoff,
5800,2023-10-01 20:27:29,40.0688897734172,-88.2095723285718,0,,,706.5195025955,0.656168,0,0.037542980204,0.5095636646,27,10,24.4315,706.5195025955,0,0,0.059070211864,0,0,0,1.2, -1.5, -0.4,0,0,1024,1024,1024,1024,0,0,0,0,0,0,0,92,,,,,,,1.05,98.24,706.5195025955,0,10,Assisted_Takeoff,
5900,2023-10-01 20:27:29,40.0688897896634,-88.2095723381019,0,,,706.5195025955,0.656168,0,0.04305118248,0.51606300864,27,10,24.4315,706.5195025955,0,0,0.059070211864,0,0,0,1.2, -1.5, -0.3,0,0,1024,1024,1024,1024,0,0,0,0,0,0,0,92,,,,,,,1.05,98.24,706.5195025955,0,10,Assisted_Takeoff,
6000,2023-10-01 20:27:29,40.0688897782284,-88.2095723274205,0,,,706.5195025955,0.656168,0,0.03821522432,0.52119096156,27,10,24.4315,706.5195025955,0,0,0.059070211864,0,0,-0.223694,1.2, -1.5, -0.3,0,0,1024,1024,1024,1024,0,0,0,0,0,0,0,92,,,,,,,1.05,98.24,706.5195025955,0,10,Assisted_Takeoff,
6100,2023-10-01 20:27:29,40.068889763468,-88.2095723126446,0,,,706.5195025955,0.656168,0,0.031867783172,0.52797245784,27,10,24.4315,706.5195025955,0,0,0.059070211864,0,0,-0.223694,1.2, -1.4, -0.3,0,0,1024,1024,1024,1024,0,0,0,0,0,0,0,92,,,,,,,1.05,98.24,706.5195025955,0,10,Assisted_Takeoff,
6200,2023-10-01 20:27:29,40.0688897523849,-88.2095722956837,0,,,706.5195025955,0.656168,0,0.0257740821896,0.534202773,27,10,24.4315,706.5195025955,0,0,0.059070211864,0,0,-0.223694,1.2, -1.5, -0.3,0,0,1024,1024,1024,1024,0,0,0,0,0,0,0,92,,,,,,,1.05,98.24,706.5195025955,0,10,Assisted_Takeoff,
6300,2023-10-01 20:27:30,40.0688897605992,-88.2095723108927,0,,,706.5195025955,0.656168,0,0.0309300206748,0.53939962356,27,10,24.4305,706.5195025955,0,0,0.059070211864,0,0,-0.223694,1.2, -1.5, -0.3,0,0,1024,1024,1024,1024,0,0,0,0,0,0,0,91,,,,,,,1.036,98.42,706.5195025955,0,10,Assisted_Takeoff,
6400,2023-10-01 20:27:30,40.0688897530016,-88.2095722839385,0,,,706.5195025955,0.656168,0,0.0230250007368,0.54741799652,27,10,24.4305,706.5195025955,0,0,0.059070211864,0,0,0,1.2, -1.5, -0.3,0,0,1024,1024,1024,1024,0,0,0,0,0,0,0,91,,,,,,,1.036,98.42,706.5195025955,0,10,Assisted_Takeoff,
6500,2023-10-01 20:27:30,40.0688897437213,-88.209572249882,0,,,706.5195025955,0.656168,0,0.0133119098748,0.5575131412,27,10,24.4305,706.5195025955,0,0,0.059070211864,0,0,0,1.2, -1.5, -0.3,0,0,1024,1024,1024,1024,0,0,0,0,0,0,0,91,,,,,,,1.036,98.42,706.5195025955,0,10,Assisted_Takeoff,
6600,2023-10-01 20:27:30,40.068889774839,-88.2095722645594,0,,,706.5195025955,0.656168,0,0.0245387803128,0.56958335156,27,10,24.4305,706.5195025955,0,0,0.059070211864,0,0,0,1.2, -1.5, -0.4,0,0,1024,1024,1024,1024,0,0,0,0,0,0,0,91,,,,,,,1.036,98.42,706.5195025955,0,10,Assisted_Takeoff,
6700,2023-10-01 20:27:30,40.0688897689916,-88.2095722305762,0,,,706.5195025955,0.656168,0,0.0184805452108,0.57930776132,27,10,24.4305,706.5195025955,0,0,0.059070211864,0,0,0,1.2, -1.5, -0.4,0,0,1024,1024,1024,1024,0,0,0,0,0,0,0,91,,,,,,,1.036,98.42,706.5195025955,0,10,Assisted_Takeoff,
6800,2023-10-01 20:27:30,40.0688897644814,-88.2095721979625,0,,,706.5195025955,0.656168,0,0.0167978023748,0.58856301096,27,10,24.4305,706.5195025955,0,0,0.059070211864,0,0,0,1.2, -1.5, -0.3,0,0,1024,1024,1024,1024,0,0,0,0,0,0,0,92,,,,,,,1.036,98.42,706.5195025955,0,10,Assisted_Takeoff,
6900,2023-10-01 20:27:30,40.0688897559933,-88.2095721550126,0,,,706.5195025955,0.656168,0,0.0209760177316,0.60094818196,27,10,24.4305,706.5195025955,0,0,0.059070211864,0,0,0,1.2, -1.5, -0.3,0,0,1024,1024,1024,1024,0,0,0,0,0,0,0,92,,,,,,,1.036,98.42,706.5195025955,0,10,Assisted_Takeoff,
7000,2023-10-01 20:27:30,40.0688897584095,-88.2095721570162,0,,,706.5195025955,0.656168,0,0.0211165689172,0.60199148908,27,10,24.4305,706.5195025955,0,0,0.059070211864,0,0,0,1.2, -1.4, -0.3,0,0,1024,1024,1024,1024,0,0,0,0,0,0,0,92,,,,,,,1.036,98.42,706.5195025955,0,10,Assisted_Takeoff,
7100,2023-10-01 20:27:30,40.0688897363831,-88.2095721228117,0,,,706.5195025955,0.656168,0,0.026048393222,0.61447180444,27,10,24.4305,706.5195025955,0,0,0.059070211864,0,0,0,1.2, -1.4, -0.3,0,0,1024,1024,1024,1024,0,0,0,0,0,0,0,92,,,,,,,1.036,98.42,706.5195025955,0,10,Assisted_Takeoff,
7200,2023-10-01 20:27:30,40.0688897211033,-88.2095720828895,0,,,706.5195025955,0.656168,0,0.036504594344,0.6269357156,27,10,24.4305,706.5195025955,0,0,0.059070211864,0,0,0,1.2, -1.4, -0.3,0,0,1024,1024,1024,1024,0,0,0,0,0,0,0,92,,,,,,,1.036,98.42,706.5195025955,0,10,Assisted_Takeoff,
7300,2023-10-01 20:27:31,40.0688897298767,-88.2095721263467,0,,,706.5195025955,0.656168,0,0.0246322514444,0.6394849286,27,10,24.4315,706.5195025955,0,0,0.059070211864,0,0,0,1.2, -1.5, -0.3,0,0,1024,1024,1024,1024,0,0,0,0,0,0,0,91,,,,,,,1.05,98.42,706.5195025955,0,10,Assisted_Takeoff,
7400,2023-10-01 20:27:31,40.0688897171547,-88.2095720826272,0,,,706.5195025955,0.656168,0,0.036590552352,0.6525426718,27,10,24.4315,706.5195025955,0,0,0.059070211864,0,0,0,1.2, -1.5, -0.4,0,0,1024,1024,1024,1024,0,0,0,0,0,0,0,91,,,,,,,1.05,98.42,706.5195025955,0,10,Assisted_Takeoff,
7500,2023-10-01 20:27:31,40.0688897031436,-88.2095720322084,0,,,706.5195025955,0.656168,0,0.051026248352,0.6675197064,27,10,24.4315,706.5195025955,0,0,0.059070211864,0,0,0,1.2, -1.5, -0.4,0,0,1024,1024,1024,1024,0,0,0,0,0,0,0,91,,,,,,,1.05,98.42,706.5195025955,0,10,Assisted_Takeoff,
7600,2023-10-01 20:27:31,40.0688896915738,-88.2095719962293,0,,,706.5195025955,0.656168,0,0.061580054464,0.67841865688,27,10,24.4315,706.5195025955,0,0,0.061580054464,0,0,0,1.2, -1.5, -0.4,0,0,1024,1024,1024,1024,0,0,0,0,0,0,0,91,,,,,,,1.05,98.42,706.5195025955,0,10,Assisted_Takeoff,
7700,2023-10-01 20:27:31,40.0688897187782,-88.2095720603036,0,,,706.5195025955,0.656168,0,0.042811024992,0.69887469428,27,10,24.4315,706.5195025955,0,0,0.061580054464,0,0,0,1.2, -1.5, -0.4,0,0,1024,1024,1024,1024,0,0,0,0,0,0,0,91,,,,,,,1.05,98.42,706.5195025955,0,10,Assisted_Takeoff,
7800,2023-10-01 20:27:31,40.0688897186065,-88.2095720309958,0,,,706.5195025955,0.656168,0,0.05099409612,0.70706039008,27,10,24.4315,706.5195025955,0,0,0.061580054464,0,0,0,1.2, -1.5, -0.4,0,0,1024,1024,1024,1024,0,0,0,0,0,0,0,92,,,,,,,1.05,98.42,706.5195025955,0,10,Assisted_Takeoff,
7900,2023-10-01 20:27:31,40.0688897159294,-88.2095719884903,0,,,706.5195025955,0.656168,0,0.0628772986,0.71896655844,27,10,24.4315,706.5195025955,0,0,0.0628772986,0,0,0,1.2, -1.5, -0.4,0,0,1024,1024,1024,1024,0,0,0,0,0,0,0,92,,,,,,,1.05,98.42,706.5195025955,0,10,Assisted_Takeoff,
8000,2023-10-01 20:27:31,40.0688897467052,-88.2095720800877,0,,,706.5195025955,0.656168,0,0.038534121968,0.7468996302,27,10,24.4315,706.5195025955,0,0,0.0628772986,0,0,0,1.2, -1.5, -0.3,0,0,1024,1024,1033,1024,0,0,1,0,0,0,0,92,,,,,,,1.05,98.42,706.5195025955,0,10,Assisted_Takeoff,
8100,2023-10-01 20:27:31,40.0688897318635,-88.2095720531515,0,,,706.5195025955,0.656168,0,0.0450131248,0.75616472236,27,10,24.4315,706.5195025955,0,0,0.0628772986,0,0,0,1.2, -1.5, -0.4,0,0,1024,1024,1277,1024,0,0,38,0,0,0,0,92,,,,,,,1.05,98.42,706.5195025955,0,10,Assisted_Takeoff,
8200,2023-10-01 20:27:31,40.0688897232616,-88.2095720302474,0,,,706.5195025955,0.656168,0,0.051214240484,0.76329070684,27,10,24.4315,706.5195025955,0,0,0.0628772986,0,0,0,1.2, -1.5, -0.4,0,0,1024,1024,1537,1024,0,0,78,0,0,0,0,92,,,,,,,1.05,98.42,706.5195025955,0,10,Assisted_Takeoff,
8300,2023-10-01 20:27:32,40.068889712967,-88.209571998509,0,,,706.5195025955,0.656168,0,0.060117455992,0.77291341056,27,10,24.4295,706.5195025955,0,0,0.0628772986,0,0,0,1.2, -1.5, -0.4,0,0,1024,1024,1676,1024,0,0,99,0,0,0,0,91,,,,,,,1.02,98.42,706.5195025955,0,10,Assisted_Takeoff,
8400,2023-10-01 20:27:32,40.0688897280218,-88.2095720428271,0,,,706.5195025955,0.656168,0,0.0477772325,0.78645343724,27,10,24.4295,706.5195025955,0,0,0.0628772986,0,0,0,1.2, -1.4, -0.4,0,0,1024,1024,1676,1024,0,0,99,0,0,0,0,91,,,,,,,1.02,98.42,706.5195025955,0,10,Assisted_Takeoff,
8500,2023-10-01 20:27:32,40.0688897151757,-88.2095720238769,0,,,706.5195025955,0.656168,0,0.053008859964,0.7935203666,27,10,24.4295,706.5195025955,0,0,0.0628772986,0,0,0,1.2, -1.4, -0.4,0,0,1024,1024,1684,1024,0,0,100,0,0,0,0,91,,,,,,,1.02,98.42,706.5195025955,0,10,Assisted_Takeoff,
8600,2023-10-01 20:27:32,40.0688897055554,-88.2095720192017,0,,,706.5195025955,0.656168,0,0.05454068416,0.79726708588,27,10,24.4295,706.5195025955,0,0,0.0628772986,0,0,0,1.2, -1.4, -0.4,0,0,1024,1024,1684,1024,0,0,100,0,0,0,0,91,,,,,,,1.02,98.42,706.5195025955,0,10,Assisted_Takeoff,
8700,2023-10-01 20:27:32,40.0688897194038,-88.2095721336697,0,,,706.5195025955,0.656168,0,0.02232529599,0.82962272996,27,10,24.4295,706.5195025955,0,0,0.0628772986,0,0,-0.223694,1.2, -0.8, -0.3,0,0,1024,1024,1684,1024,0,0,100,0,0,0,0,91,,,,,,,1.02,98.42,706.5195025955,0,10,Assisted_Takeoff,
8800,2023-10-01 20:27:32,40.0688896866229,-88.2095721162656,0,,,706.5195025955,0.656168,0,0.0297907817932,0.84253283536,27,10,24.4295,706.5195025955,0,0,0.0628772986,0,0,-0.447388,1.1, 1.3, 0.3,0,0,1024,1024,1684,1024,0,0,100,0,0,0,0,92,,,,,,,1.02,98.42,706.5195025955,0,10,Assisted_Takeoff,
8900,2023-10-01 20:27:32,40.0688896148642,-88.2095720775737,0.328084,,,706.8475865955,0.656168,0,0.053992455796,0.87085632708,27,10,24.4295,706.8475865955,0.328084,0,0.0628772986,0,0,-0.894776,1, 2.3, 0,0,0,1024,1024,1684,1024,0,0,100,0,0,0,0,92,,,,,,,1.02,98.42,706.8475865955,0.328084,6,P-GPS,
9000,2023-10-01 20:27:32,40.0688895074715,-88.2095720207803,0.328084,,,706.8475865955,0.984252,0.223694,0.094410436092,0.9131233888,27,10,24.4295,706.8475865955,0.328084,0.223694,0.094410436092,-0.223694,0,-1.565858,0.9, 1.9, -0.6,0,0,1024,1024,1684,1024,0,0,100,0,0,0,0,92,,,,,,,1.02,98.42,706.8475865955,0.328084,6,P-GPS,
9100,2023-10-01 20:27:32,40.0688893875564,-88.2095720458062,0.656168,,,707.1756705955,1.312336,0.223694,0.130037405736,0.957431133,27,10,24.4295,707.1756705955,0.656168,0.223694,0.130037405736,-0.223694,0,-2.23694,0.7, 1, -1.1,0,0,1024,1024,1684,1024,0,0,100,0,0,0,0,92,,,,,,,1.02,98.42,707.1756705955,0.656168,6,P-GPS,
9200,2023-10-01 20:27:32,40.0688892172228,-88.2095720233082,0.984252,,,707.5037545955,1.64042,0.447388,0.190989507424,1.01989176492,27,10,24.4295,707.5037545955,0.984252,0.447388,0.190989507424,-0.447388,0,-2.908022,0.8, -0.6, -1.3,0,0,1024,1024,1684,1024,0,0,100,0,0,0,0,92,,,,,,,1.02,98.42,707.5037545955,0.984252,6,P-GPS,
9300,2023-10-01 20:27:33,40.0688890357494,-88.2095720291711,1.312336,,,707.8318385955,1.968504,0.223694,0.254915362488,1.086122082,27,10,24.1685,707.8318385955,1.312336,0.447388,0.254915362488,-0.223694,0,-3.579104,0.8, -2.4, -1.6,0,0,1024,1024,1684,1024,0,0,100,0,0,0,0,91,,,,,,,7.176,98.42,707.8318385955,1.312336,6,P-GPS,
9400,2023-10-01 20:27:33,40.0688889950113,-88.2095721083852,1.968504,,,708.4880065955,2.624672,0.223694,0.266148958648,1.11277234532,27,10,24.1685,708.4880065955,1.968504,0.447388,0.266148958648,-0.223694,0,-4.250186,0.7, -3.1, -1.2,0,0,1024,1024,1684,1024,0,0,100,0,0,0,0,91,,,,,,,7.176,98.42,708.4880065955,1.968504,6,P-GPS,
9500,2023-10-01 20:27:33,40.0688889252938,-88.2095721610788,2.624672,,,709.1441745955,3.28084,0,0.290329405616,1.14215554836,27,10,24.1685,709.1441745955,2.624672,0.447388,0.290329405616,0,0,-5.144962,0.6, -2.2, 0,0,0,1024,1024,1024,1024,0,0,0,0,0,0,0,91,,,,,,,7.176,98.42,709.1441745955,2.624672,6,P-GPS,
9600,2023-10-01 20:27:33,40.0688888711134,-88.2095722462111,3.28084,,,709.8003425955,4.265092,0,0.309859918052,1.17307090368,27,10,24.1685,709.8003425955,3.28084,0.447388,0.309859918052,0,0,-6.039738,0.5, -1.1, 0.7,0,0,1024,1024,1024,1024,0,0,0,0,0,0,0,91,,,,,,,7.176,98.42,709.8003425955,3.28084,6,P-GPS,
9700,2023-10-01 20:27:33,40.068888810833,-88.2095723158806,4.265092,,,710.7845945955,4.92126,0,0.33294620488,1.20243114084,27,10,24.1685,710.7845945955,4.265092,0.447388,0.33294620488,0,0,-6.487126,0.4, -1.1, 1,0,0,1024,1024,1024,1024,0,0,0,0,0,0,0,91,,,,,,,7.176,98.42,710.7845945955,4.265092,6,P-GPS,
9800,2023-10-01 20:27:33,40.0688887470761,-88.2095723989092,5.249344,,,711.7688465955,5.905512,0,0.35873032644,1.23527234924,27,10,24.1685,711.7688465955,5.249344,0.447388,0.35873032644,0,0,-6.487126,0.5, -1.8, 1,0,0,1024,1024,1024,1024,0,0,0,0,0,0,0,92,,,,,,,7.176,98.42,711.7688465955,5.249344,6,P-GPS,
9900,2023-10-01 20:27:33,40.0688887142217,-88.2095724182407,6.233596,,,712.7530985955,6.56168,0,0.37138780716,1.24841867512,27,10,24.1685,712.7530985955,6.233596,0.447388,0.37138780716,0,0,-6.263432,0.6, -2.4, 0.6,0,0,1024,1024,1024,1024,0,0,0,0,0,0,0,92,,,,,,,7.176,98.42,712.7530985955,6.233596,6,P-GPS,
10000,2023-10-01 20:27:33,40.0688886968601,-88.2095724403796,7.217848,,,713.7373505955,7.217848,0,0.37863190188,1.25727038144,27,10,24.1685,713.7373505955,7.217848,0.447388,0.37863190188,0,0,-6.039738,0.7, -2.7, 0.1,0,0,1024,1024,1024,1024,0,0,0,0,0,0,0,92,,,,,,,7.176,98.42,713.7373505955,7.217848,6,P-GPS,
10100,2023-10-01 20:27:33,40.0688887288949,-88.2095725649745,7.874016,,,714.3935185955,7.545932,0,0.37468505136,1.29396985768,27,10,24.1685,714.3935185955,7.874016,0.447388,0.37863190188,0,0,-5.368656,0.7, -2.4, -0.1,0,0,1024,1024,1024,1024,0,0,0,0,0,0,0,92,,,,,,,7.176,98.42,714.3935185955,7.874016,6,P-GPS,
10200,2023-10-01 20:27:34,40.0688887497376,-88.2095725840528,8.530184,,,715.0496865955,8.2021,0,0.36880906692,1.30325463488,27,10,24.1685,715.0496865955,8.530184,0.447388,0.37863190188,0,0,-4.697574,0.7, -1.6, -0.4,0,0,1024,1024,1024,1024,0,0,0,0,0,0,0,92,,,,,,,7.176,98.42,715.0496865955,8.530184,6,P-GPS,
10300,2023-10-01 20:27:34,40.0688887814799,-88.2095726042986,9.186352,,,715.7058545955,8.2021,0,0.3593832136,1.3161417744,27,10,24.2555,715.7058545955,9.186352,0.447388,0.37863190188,0,0,-4.026492,0.6, -1, -0.3,0,0,1024,1024,1024,1024,0,0,0,0,0,0,0,91,,,,,,,7.16,98.42,715.7058545955,9.186352,6,P-GPS,
10400,2023-10-01 20:27:34,40.0688888079279,-88.2095726558144,9.84252,,,716.3620225955,8.530184,0,0.35494423708,1.33346132876,27,10,24.2555,716.3620225955,9.84252,0.447388,0.37863190188,0,0,-3.35541,0.7, -0.8, -0.3,0,0,1024,1024,1024,1024,0,0,0,0,0,0,0,91,,,,,,,7.16,98.42,716.3620225955,9.84252,6,P-GPS,
10500,2023-10-01 20:27:34,40.0688888325341,-88.2095728321645,10.170604,,,716.6901065955,8.530184,0,0.3669783582,1.38351054296,27,10,24.2555,716.6901065955,10.170604,0.447388,0.37863190188,0,0,-2.460634,0.8, -0.7, 0,0,0,1024,1024,1024,1024,0,0,0,0,0,0,0,91,,,,,,,7.16,98.42,716.6901065955,10.170604,6,P-GPS,
10600,2023-10-01 20:27:34,40.0688888680736,-88.2095728775839,10.498688,,,717.0181905955,8.530184,0,0.36191930292,1.40165030732,27,10,24.2555,717.0181905955,10.498688,0.447388,0.37863190188,0,0,-1.789552,0.8, -0.6, 0.2,0,0,1024,1024,1024,1024,0,0,0,0,0,0,0,91,,,,,,,7.16,98.42,717.0181905955,10.498688,6,P-GPS,
10700,2023-10-01 20:27:34,40.068888909381,-88.2095729162929,10.826772,,,717.3462745955,8.2021,0,0.35491799036,1.420193615,27,10,24.2555,717.3462745955,10.826772,0.447388,0.37863190188,0,0,-1.11847,0.8, -0.4, 0.5,0,0,1024,1024,1024,1024,0,0,0,0,0,0,0,91,,,,,,,7.16,98.42,717.3462745955,10.826772,6,P-GPS,
10800,2023-10-01 20:27:34,40.0688889937408,-88.2095729772936,10.826772,,,717.3462745955,8.2021,0,0.34011812112,1.45537078148,27,10,24.2555,717.3462745955,10.826772,0.447388,0.37863190188,0,0,-0.671082,0.8, 0, 0.7,0,0,1024,1024,1024,1024,0,0,0,0,0,0,0,92,,,,,,,7.16,98.42,717.3462745955,10.826772,6,P-GPS,
10900,2023-10-01 20:27:34,40.0688890465642,-88.2095729683551,10.826772,,,717.3462745955,7.874016,0,0.323698829256,1.4748031968,27,10,24.2555,717.3462745955,10.826772,0.447388,0.37863190188,0,0,-0.223694,0.8, 0.2, 0.8,0,0,1024,1024,1024,1024,0,0,0,0,0,0,0,92,,,,,,,7.16,98.42,717.3462745955,10.826772,6,P-GPS,
11000,2023-10-01 20:27:34,40.0688890683667,-88.2095729673576,10.826772,,,717.3462745955,7.874016,0,0.31751805478,1.48276579548,27,10,24.2555,717.3462745955,10.826772,0.447388,0.37863190188,0,0,0,0.8, 0.2, 0.6,0,0,1024,1024,1024,1024,0,0,0,0,0,0,0,92,,,,,,,7.16,98.42,717.3462745955,10.826772,6,P-GPS,
11100,2023-10-01 20:27:34,40.0688890775225,-88.2095729537556,10.826772,,,717.3462745955,7.874016,0,0.312500338084,1.48782156992,27,10,24.2555,717.3462745955,10.826772,0.447388,0.37863190188,0,0,0,0.8, 0.1, 0.3,0,0,1024,1024,1024,1024,0,0,0,0,0,0,0,92,,,,,,,7.16,98.42,717.3462745955,10.826772,6,P-GPS,
11200,2023-10-01 20:27:34,40.0688890920923,-88.2095729774421,10.826772,,,717.3462745955,7.874016,0,0.313000994268,1.49630582216,27,10,24.2555,717.3462745955,10.826772,0.447388,0.37863190188,0,0,0.223694,0.8, 0.2, 0,0,0,1024,1024,1024,1024,0,0,0,0,0,0,0,92,,,,,,,7.16,98.42,717.3462745955,10.826772,6,P-GPS,
11300,2023-10-01 20:27:35,40.0688891060324,-88.2095729447472,10.826772,,,717.3462745955,7.874016,0,0.303075140932,1.5067585784,27,10,24.248,717.3462745955,10.826772,0.447388,0.37863190188,0,0,0.223694,0.9, 0.2, -0.1,0,0,1024,1024,1024,1024,0,0,0,0,0,0,0,91,,,,,,,6.516,98.42,717.3462745955,10.826772,6,P-GPS,
11400,2023-10-01 20:27:35,40.0688891185747,-88.2095729120735,10.498688,,,717.0181905955,7.874016,0,0.29357120362,1.5169619908,27,10,24.248,717.3462745955,10.826772,0.447388,0.37863190188,0,0,0.223694,1, 0, -0.3,0,0,1024,1024,1024,1024,0,0,0,0,0,0,0,91,,,,,,,6.516,98.42,717.0181905955,10.498688,6,P-GPS,
11500,2023-10-01 20:27:35,40.0688891595902,-88.2095729288127,10.498688,,,717.0181905955,7.874016,0,0.285806111508,1.53264112516,27,10,24.248,717.3462745955,10.826772,0.447388,0.37863190188,0,0,0.223694,1, 0, -0.3,0,0,1024,1024,1024,1024,0,0,0,0,0,0,0,91,,,,,,,6.516,98.42,717.0181905955,10.498688,6,P-GPS,
11600,2023-10-01 20:27:35,40.0688891789514,-88.2095729065233,10.498688,,,717.0181905955,7.874016,0,0.276404536404,1.54205385512,27,10,24.248,717.3462745955,10.826772,0.447388,0.37863190188,0,0,0.223694,1, 0, -0.1,0,0,1024,1024,1024,1024,0,0,0,0,0,0,0,91,,,,,,,6.516,98.42,717.0181905955,10.498688,6,P-GPS,
11700,2023-10-01 20:27:35,40.0688891953911,-88.2095728823672,10.498688,,,717.0181905955,7.874016,0,0.267400599108,1.55107944596,27,10,24.248,717.3462745955,10.826772,0.447388,0.37863190188,0,0,0,1, 0, 0,0,0,1024,1024,1024,1024,0,0,0,0,0,0,0,91,,,,,,,6.516,98.42,717.0181905955,10.498688,6,P-GPS,
11800,2023-10-01 20:27:35,40.0688892238886,-88.20957284651,10.498688,,,717.0181905955,7.874016,0,0.252966871612,1.56551514196,27,10,24.248,717.3462745955,10.826772,0.447388,0.37863190188,0,0,0,1, 0, 0.1,0,0,1024,1024,1024,1024,0,0,0,0,0,0,0,92,,,,,,,6.516,98.42,717.0181905955,10.498688,6,P-GPS,
11900,2023-10-01 20:27:35,40.0688893325329,-88.209572820434,10.170604,,,716.6901065955,7.874016,0,0.220664705224,1.60581698052,27,10,24.248,717.3462745955,10.826772,0.447388,0.37863190188,0,0,0,1.1, -0.1, 0,0,0,1024,1024,1024,1024,0,0,0,0,0,0,0,92,,,,,,,6.516,98.42,716.6901065955,10.170604,6,P-GPS,
12000,2023-10-01 20:27:35,40.0688893505464,-88.2095727701649,10.170604,,,716.6901065955,7.874016,0,0.20571522968,1.62131566868,27,10,24.248,717.3462745955,10.826772,0.447388,0.37863190188,0,0,0,1, -0.5, -0.3,0,0,1024,1024,1024,1024,0,0,0,0,0,0,0,92,,,,,,,6.516,98.42,716.6901065955,10.170604,6,P-GPS,
12100,2023-10-01 20:27:35,40.0688893670781,-88.2095727201272,10.170604,,,716.6901065955,7.874016,0,0.1912647699,1.6365322046,27,10,24.248,717.3462745955,10.826772,0.447388,0.37863190188,0,0,0,1, -0.6, -0.3,0,0,1024,1024,1024,1024,0,0,0,0,0,0,0,92,,,,,,,6.516,98.42,716.6901065955,10.170604,6,P-GPS,
12200,2023-10-01 20:27:35,40.0688894208337,-88.2095727796551,10.170604,,,716.6901065955,8.2021,0,0.192075465464,1.66224086684,27,10,24.248,717.3462745955,10.826772,0.447388,0.37863190188,0,0,0,1, -0.5, 0,0,0,1024,1024,1024,1024,0,0,0,0,0,0,0,92,,,,,,,6.516,98.42,716.6901065955,10.170604,6,P-GPS,
12300,2023-10-01 20:27:36,40.0688894287255,-88.2095727881387,10.170604,,,716.6901065955,8.2021,0,0.192423890672,1.66596790108,27,10,24.2215,717.3462745955,10.826772,0.447388,0.37863190188,0,0,0,0.9, -0.5, 0,0,0,1024,1024,1024,1024,0,0,0,0,0,0,0,91,,,,,,,8.046,98.42,716.6901065955,10.170604,6,P-GPS,
12400,2023-10-01 20:27:36,40.0688894503917,-88.2095727836959,10.170604,,,716.6901065955,8.2021,0,0.187116803888,1.67396986984,27,10,24.2215,717.3462745955,10.826772,0.447388,0.37863190188,0,0,0,0.9, -0.5, 0,0,0,1024,1024,1024,1024,0,0,0,0,0,0,0,91,,,,,,,8.046,98.42,716.6901065955,10.170604,6,P-GPS,
12500,2023-10-01 20:27:36,40.0688894744642,-88.2095727677972,10.170604,,,716.6901065955,8.2021,0,0.178796921732,1.68381238984,27,10,24.2215,717.3462745955,10.826772,0.447388,0.37863190188,0,0,0,0.9, -0.4, 0,0,0,1024,1024,1024,1024,0,0,0,0,0,0,0,91,,,,,,,8.046,98.42,716.6901065955,10.170604,6,P-GPS,
12600,2023-10-01 20:27:36,40.0688895183338,-88.2095727773823,10.170604,,,716.6901065955,8.2021,0,0.17375820766,1.70003942448,27,10,24.2215,717.3462745955,10.826772,0.447388,0.37863190188,0,0,0,0.8, -0.4, 0,0,0,1024,1024,1024,1024,0,0,0,0,0,0,0,91,,,,,,,8.046,98.42,716.6901065955,10.170604,6,P-GPS,
12700,2023-10-01 20:27:36,40.0688895356375,-88.2095727476807,10.170604,,,716.6901065955,8.2021,0,0.163586619408,1.71046265316,27,10,24.2215,717.3462745955,10.826772,0.447388,0.37863190188,0,0,0,0.8, -0.4, 0.1,0,0,1024,1024,1024,1024,0,0,0,0,0,0,0,91,,,,,,,8.046,98.42,716.6901065955,10.170604,6,P-GPS,
12800,2023-10-01 20:27:36,40.0688895446088,-88.20957271732,10.170604,,,716.6901065955,8.2021,0,0.15451444064,1.71954729912,27,10,24.2215,717.3462745955,10.826772,0.447388,0.37863190188,0,0,0,0.8, -0.4, 0,0,0,1024,1024,1024,1024,0,0,0,0,0,0,0,92,,,,,,,8.046,98.42,716.6901065955,10.170604,6,P-GPS,
12900,2023-10-01 20:27:36,40.0688895758654,-88.2095727304214,10.170604,,,716.6901065955,8.2021,0,0.153581697828,1.73152564596,27,10,24.2215,717.3462745955,10.826772,0.447388,0.37863190188,0,0,0,0.8, -0.4, 0,0,0,1024,1024,1024,1024,0,0,0,0,0,0,0,92,,,,,,,8.046,98.42,716.6901065955,10.170604,6,P-GPS,
13000,2023-10-01 20:27:36,40.0688895866045,-88.2095727010178,10.170604,,,716.6901065955,8.2021,0,0.1445292041,1.74062013444,27,10,24.2215,717.3462745955,10.826772,0.447388,0.37863190188,0,0,0,0.8, -0.3, 0,0,0,1024,1024,1261,1024,0,0,36,0,0,0,0,92,,,,,,,8.046,98.42,716.6901065955,10.170604,6,P-GPS,
13100,2023-10-01 20:27:36,40.0688895972132,-88.2095726680199,10.170604,,,716.6901065955,8.2021,0,0.134551513492,1.75061357308,27,10,24.2215,717.3462745955,10.826772,0.447388,0.37863190188,0,0,0,0.7, -0.1, 0,0,0,1024,1024,1336,1024,0,0,47,0,0,0,0,92,,,,,,,8.046,98.42,716.6901065955,10.170604,6,P-GPS,
13200,2023-10-01 20:27:36,40.0688896085181,-88.2095726377039,10.170604,,,716.6901065955,8.2021,0,0.125201119492,1.76002958388,27,10,24.2215,717.3462745955,10.826772,0.447388,0.37863190188,0,0,-0.671082,0.7, 0.2, 0,0,0,1024,1024,1184,1024,0,0,24,0,0,0,0,92,,,,,,,8.046,98.42,716.6901065955,10.170604,6,P-GPS,
13300,2023-10-01 20:27:37,40.0688896365675,-88.2095726587982,10.170604,,,716.6901065955,8.2021,0,0.127971788872,1.77183732704,27,10,24.101,717.3462745955,10.826772,0.447388,0.37863190188,0,0,-1.342164,0.7, 0.1, -0.2,0,0,1024,1024,1024,1024,0,0,0,0,0,0,0,91,,,,,,,10.51,98.24,716.6901065955,10.170604,6,P-GPS,
13400,2023-10-01 20:27:37,40.0688896337169,-88.2095726474476,10.498688,,,717.0181905955,8.530184,0,0.125153547312,1.77517394132,27,10,24.101,717.3462745955,10.826772,0.447388,0.37863190188,0,0,-1.565858,0.7, -0.8, -0.5,0,0,1024,1024,1024,1024,0,0,0,0,0,0,0,91,,,,,,,10.51,98.24,717.0181905955,10.498688,6,P-GPS,
13500,2023-10-01 20:27:37,40.0688896356242,-88.2095726472307,10.498688,,,717.0181905955,8.530184,0,0.124921591924,1.77587276024,27,10,24.101,717.3462745955,10.826772,0.447388,0.37863190188,0,0,-1.11847,0.8, -1.3, -0.4,0,0,1024,1024,1024,1024,0,0,0,0,0,0,0,91,,,,,,,10.51,98.24,717.0181905955,10.498688,6,P-GPS,
13600,2023-10-01 20:27:37,40.0688896981036,-88.2095727373933,10.826772,,,717.3462745955,8.530184,0,0.146459322272,1.80983273508,27,10,24.101,717.3462745955,10.826772,0.447388,0.37863190188,0,0,-0.894776,0.9, -0.8, 0,0,0,1024,1024,1024,1024,0,0,0,0,0,0,0,91,,,,,,,10.51,98.24,717.3462745955,10.826772,6,P-GPS,
13700,2023-10-01 20:27:37,40.0688897209911,-88.20957275464,10.826772,,,717.3462745955,8.530184,0,0.15105643528,1.81947512384,27,10,24.101,717.3462745955,10.826772,0.447388,0.37863190188,0,0,-0.447388,0.9, -0.3, 0.4,0,0,1024,1024,1024,1024,0,0,0,0,0,0,0,91,,,,,,,10.51,98.24,717.3462745955,10.826772,6,P-GPS,
13800,2023-10-01 20:27:37,40.0688897513446,-88.2095727659548,10.826772,,,717.3462745955,8.2021,0,0.154638128308,1.83099087224,27,10,24.101,717.3462745955,10.826772,0.447388,0.37863190188,0,0,-0.223694,0.8, 0.1, 0.6,0,0,1024,1024,1024,1024,0,0,0,0,0,0,0,92,,,,,,,10.51,98.24,717.3462745955,10.826772,6,P-GPS,
13900,2023-10-01 20:27:37,40.0688897740293,-88.2095727635776,10.826772,,,717.3462745955,8.2021,0,0.154810372408,1.83929139744,27,10,24.101,717.3462745955,10.826772,0.447388,0.37863190188,0,0,-0.223694,0.8, 0.1, 0.7,0,0,1024,1024,1024,1024,0,0,0,0,0,0,0,92,,,,,,,10.51,98.24,717.3462745955,10.826772,6,P-GPS,
14000,2023-10-01 20:27:37,40.0688898309211,-88.2095727764143,10.826772,,,717.3462745955,8.2021,0,0.162260831964,1.86035767108,27,10,24.101,717.3462745955,10.826772,0.447388,0.37863190188,0,0,0,0.8, 0.1, 0.5,0,0,1024,1024,1024,1024,0,0,0,0,0,0,0,92,,,,,,,10.51,98.24,717.3462745955,10.826772,6,P-GPS,
14100,2023-10-01 20:27:37,40.0688898515421,-88.209572740923,10.826772,,,717.3462745955,8.2021,0,0.154848102068,1.87279861636,27,10,24.101,717.3462745955,10.826772,0.447388,0.37863190188,0,0,0,0.7, 0.1, 0.2,0,0,1359,1024,1024,1024,51,0,0,0,0,0,0,92,,,,,,,10.51,98.24,717.3462745955,10.826772,6,P-GPS,
14200,2023-10-01 20:27:37,40.0688898451619,-88.2095727263015,10.826772,,,717.3462745955,8.2021,0,0.150248036304,1.87749677924,27,10,24.101,717.3462745955,10.826772,0.447388,0.37863190188,0,0,0,0.7, -0.1, 0,0,0,1345,1024,1024,1024,49,0,0,0,0,0,0,92,,,,,,,10.51,98.24,717.3462745955,10.826772,6,P-GPS,
14300,2023-10-01 20:27:38,40.0688898854601,-88.209572782491,10.826772,,,717.3462745955,8.2021,0,0.169914047432,1.8989994046,27,10,24.214,717.3462745955,10.826772,0.447388,0.37863190188,0,0,0,0.7, -2.9, 0,0,0,1032,1024,1024,1024,1,0,0,0,0,0,0,91,,,,,,,7.16,98.42,717.3462745955,10.826772,6,P-GPS,
14400,2023-10-01 20:27:38,40.0688899106333,-88.2095727751696,10.826772,,,717.3462745955,8.2021,0,0.171518706276,1.90840885372,27,10,24.214,717.3462745955,10.826772,0.447388,0.37863190188,0,0,0,0.7, -7.2, 0,0,0,1032,1024,1024,1024,1,0,0,0,0,0,0,91,,,,,,,7.16,98.42,717.3462745955,10.826772,6,P-GPS,
14500,2023-10-01 20:27:38,40.06889004342,-88.2095727636168,10.826772,,,717.3462745955,8.2021,0.223694,0.193656830344,1.95696200488,27,10,24.214,717.3462745955,10.826772,0.447388,0.37863190188,0.223694,0,0,0.8, -8.2, -0.1,0,0,1024,1024,1024,1024,0,0,0,0,0,0,0,91,,,,,,,7.16,98.42,717.3462745955,10.826772,6,P-GPS,
14600,2023-10-01 20:27:38,40.0688903075753,-88.209572761631,10.498688,,,717.0181905955,8.2021,0.671082,0.26337107142,2.05333996072,27,10,24.214,717.3462745955,10.826772,0.671082,0.37863190188,0.671082,0,0,0.9, -3.6, -0.3,0,0,1024,1024,1024,1024,0,0,0,0,0,0,0,91,,,,,,,7.16,98.42,717.0181905955,10.498688,6,P-GPS,
14700,2023-10-01 20:27:38,40.0688906715618,-88.2095728317123,10.498688,,,717.0181905955,8.2021,0.671082,0.38769358196,2.18757552932,27,10,24.214,717.3462745955,10.826772,0.671082,0.38769358196,0.671082,0,0,1.1, 0.6, -0.5,0,0,1024,1024,1024,1024,0,0,0,0,0,0,0,91,,,,,,,7.16,98.42,717.0181905955,10.498688,6,P-GPS,
14800,2023-10-01 20:27:38,40.06889096094,-88.2095728419652,10.498688,,,717.0181905955,8.2021,0.671082,0.4855479158,2.2931923306,27,10,24.214,717.3462745955,10.826772,0.671082,0.4855479158,0.671082,0,0,1.2, 2.7, -0.6,0,0,1024,1024,1024,1024,0,0,0,0,0,0,0,92,,,,,,,7.16,98.42,717.0181905955,10.498688,6,P-GPS,
14900,2023-10-01 20:27:38,40.0688912185936,-88.2095728724563,10.498688,,,717.0181905955,8.2021,0.447388,0.57686681636,2.3875820974,27,10,24.214,717.3462745955,10.826772,0.671082,0.57686681636,0.447388,0,0,1.2, 5.1, -0.5,0,0,1024,1024,1024,1024,0,0,0,0,0,0,0,92,,,,,,,7.16,98.42,717.0181905955,10.498688,6,P-GPS,
15000,2023-10-01 20:27:38,40.0688913840618,-88.2095730503102,10.498688,,,717.0181905955,8.2021,0.223694,0.65051511268,2.46575467208,27,10,24.214,717.3462745955,10.826772,0.671082,0.65051511268,0.223694,0,0,1.2, 4.7, 0,0,0,1024,1024,1024,1024,0,0,0,0,0,0,0,92,,,,,,,7.16,98.42,717.0181905955,10.498688,6,P-GPS,
15100,2023-10-01 20:27:38,40.0688914481343,-88.2095731457803,10.498688,,,717.0181905955,8.2021,0,0.6821030402,2.50120742912,27,10,24.214,717.3462745955,10.826772,0.671082,0.6821030402,0,0,0,1.1, 2.3, 0.7,0,0,1024,1024,1024,1024,0,0,0,0,0,0,0,92,,,,,,,7.16,98.42,717.0181905955,10.498688,6,P-GPS,
15200,2023-10-01 20:27:38,40.0688914596572,-88.2095731676191,10.498688,,,717.0181905955,8.2021,0,0.68833007452,2.50861556584,27,10,24.214,717.3462745955,10.826772,0.671082,0.68833007452,0,0,0,1, 0.8, 1,0,0,1024,1024,1024,1024,0,0,0,0,0,0,0,92,,,,,,,7.16,98.42,717.0181905955,10.498688,6,P-GPS,
15300,2023-10-01 20:27:39,40.0688914525859,-88.2095731572826,10.498688,,,717.0181905955,8.2021,0,0.68483597992,2.51248695704,27,10,24.214,717.3462745955,10.826772,0.671082,0.68833007452,0,0,0,1, -0.1, 1,0,0,1024,1024,1024,1024,0,0,0,0,0,0,0,92,,,,,,,7.16,98.42,717.0181905955,10.498688,6,P-GPS,
15400,2023-10-01 20:27:39,40.0688915378303,-88.2095731295902,10.498688,,,717.0181905955,8.2021,0,0.71082351356,2.54453420216,27,10,24.2025,717.3462745955,10.826772,0.671082,0.71082351356,0,0,0,0.9, -0.2, 0.5,0,0,1024,1024,1024,1024,0,0,0,0,0,0,0,91,,,,,,,8.498,98.42,717.0181905955,10.498688,6,P-GPS,
15500,2023-10-01 20:27:39,40.0688915535802,-88.2095731117194,10.498688,,,717.0181905955,8.2021,0,0.71442259504,2.55214575096,27,10,24.2025,717.3462745955,10.826772,0.671082,0.71442259504,0,0,0,1, 0, 0.1,0,0,1024,1024,1024,1024,0,0,0,0,0,0,0,91,,,,,,,8.498,98.42,717.0181905955,10.498688,6,P-GPS,
15600,2023-10-01 20:27:39,40.0688915892854,-88.2095731334415,10.170604,,,716.6901065955,8.2021,0,0.72875002332,2.56651254932,27,10,24.2025,717.3462745955,10.826772,0.671082,0.72875002332,0,0,0,0.9, 0.2, 0,0,0,1024,1024,1024,1024,0,0,0,0,0,0,0,91,,,,,,,8.498,98.42,716.6901065955,10.170604,6,P-GPS,
15700,2023-10-01 20:27:39,40.0688916426951,-88.2095732299619,10.170604,,,716.6901065955,8.2021,0,0.75670606096,2.5997704244,27,10,24.2025,717.3462745955,10.826772,0.671082,0.75670606096,0,0,0,0.9, 0.4, 0.3,0,0,1024,1024,1024,1024,0,0,0,0,0,0,0,91,,,,,,,8.498,98.42,716.6901065955,10.170604,6,P-GPS,
15800,2023-10-01 20:27:39,40.0688916726192,-88.2095732780016,10.170604,,,716.6901065955,8.2021,0,0.77190291184,2.61706373204,27,10,24.2025,717.3462745955,10.826772,0.671082,0.77190291184,0,0,0,0.9, 0.4, 0.7,0,0,1024,1024,1024,1024,0,0,0,0,0,0,0,92,,,,,,,8.498,98.42,716.6901065955,10.170604,6,P-GPS,
15900,2023-10-01 20:27:39,40.0688916935091,-88.2095733159389,10.170604,,,716.6901065955,8.2021,0,0.78304464448,2.63011491356,27,10,24.2025,717.3462745955,10.826772,0.671082,0.78304464448,0,0,0,0.9, 0.3, 0.9,0,0,1024,1024,1024,1024,0,0,0,0,0,0,0,92,,,,,,,8.498,98.42,716.6901065955,10.170604,6,P-GPS,
16000,2023-10-01 20:27:39,40.0688917145137,-88.2095733085093,10.170604,,,716.6901065955,8.2021,0,0.78929136384,2.63805454636,27,10,24.2025,717.3462745955,10.826772,0.671082,0.78929136384,0,0,0,1, 0.1, 0.8,0,0,1024,1024,1024,1024,0,0,0,0,0,0,0,92,,,,,,,8.498,98.42,716.6901065955,10.170604,6,P-GPS,
16100,2023-10-01 20:27:39,40.0688918149785,-88.2095733293108,10.170604,,,716.6901065955,8.2021,0,0.82538060384,2.67516740844,27,10,24.2025,717.3462745955,10.826772,0.671082,0.82538060384,0,0,0,1, 0, 0.5,0,0,1024,1024,1024,1024,0,0,0,0,0,0,0,92,,,,,,,8.498,98.42,716.6901065955,10.170604,6,P-GPS,
16200,2023-10-01 20:27:40,40.0688918338015,-88.2095732862222,10.170604,,,716.6901065955,8.2021,0,0.82731629944,2.68901911492,27,10,24.2025,717.3462745955,10.826772,0.671082,0.82731629944,0,0,0,1, 0, 0.2,0,0,1024,1024,1024,1024,0,0,0,0,0,0,0,92,,,,,,,8.498,98.42,716.6901065955,10.170604,6,P-GPS,
16300,2023-10-01 20:27:40,40.0688918476775,-88.2095732331636,10.170604,,,716.6901065955,8.2021,0,0.8268208926,2.7046752834,27,10,24.2025,717.3462745955,10.826772,0.671082,0.82731629944,0,0,0,1, 0, 0,0,0,1024,1024,1024,1024,0,0,0,0,0,0,0,92,,,,,,,8.498,98.42,716.6901065955,10.170604,6,P-GPS,
16400,2023-10-01 20:27:40,40.0688919216072,-88.2095732259936,10.170604,,,716.6901065955,8.2021,0,0.85152889864,2.73172252836,27,10,24.184,717.3462745955,10.826772,0.671082,0.85152889864,0,0,0,1, 0, 0,0,0,1024,1024,1024,1024,0,0,0,0,0,0,0,91,,,,,,,7.957,98.42,716.6901065955,10.170604,6,P-GPS,
16500,2023-10-01 20:27:40,40.0688919205352,-88.2095731818211,10.170604,,,716.6901065955,8.2021,0,0.84714241556,2.7440617676,27,10,24.184,717.3462745955,10.826772,0.671082,0.85152889864,0,0,0,1.1, 0, 0,0,0,1024,1024,1024,1024,0,0,0,0,0,0,0,91,,,,,,,7.957,98.42,716.6901065955,10.170604,6,P-GPS,
16600,2023-10-01 20:27:40,40.0688919202761,-88.2095731476501,10.170604,,,716.6901065955,8.2021,0,0.84405842596,2.75360245032,27,10,24.184,717.3462745955,10.826772,0.671082,0.85152889864,0,0,0,1.1, 0.1, 0,0,0,1024,1024,1024,1024,0,0,0,0,0,0,0,91,,,,,,,7.957,98.42,716.6901065955,10.170604,6,P-GPS,
16700,2023-10-01 20:27:40,40.0688919140561,-88.2095731078544,10.170604,,,716.6901065955,8.2021,0,0.83852364888,2.7649443142,27,10,24.184,717.3462745955,10.826772,0.671082,0.85152889864,0,0,0,1.1, 0.2, 0,0,0,1024,1024,1024,1024,0,0,0,0,0,0,0,91,,,,,,,7.957,98.42,716.6901065955,10.170604,6,P-GPS,
16800,2023-10-01 20:27:40,40.0688919229337,-88.2095731132552,10.170604,,,716.6901065955,8.2021,0,0.84206367524,2.76851714896,27,10,24.184,717.3462745955,10.826772,0.671082,0.85152889864,0,0,0,1.2, 0, 0,0,0,1024,1024,1024,1024,0,0,0,0,0,0,0,92,,,,,,,7.957,98.42,716.6901065955,10.170604,6,P-GPS,
16900,2023-10-01 20:27:40,40.068891898416,-88.2095730928473,10.170604,,,716.6901065955,8.2021,0,0.83183073528,2.77912082384,27,10,24.184,717.3462745955,10.826772,0.671082,0.85152889864,0,0,0,1.3, -0.1, 0,0,0,1002,674,1024,1024,-3,-53,0,0,0,0,0,92,,,,,,,7.957,98.42,716.6901065955,10.170604,6,P-GPS,
17000,2023-10-01 20:27:40,40.0688918558886,-88.2095731137476,10.170604,,,716.6901065955,8.2021,0,0.81879267712,2.79569890836,27,10,24.184,717.3462745955,10.826772,0.671082,0.85152889864,0,0,0,1.3, -0.2, -0.1,0,0,956,422,1024,1024,-10,-91,0,0,0,0,0,92,,,,,,,7.957,98.42,716.6901065955,10.170604,6,P-GPS,
17100,2023-10-01 20:27:40,40.0688918133615,-88.2095732658857,10.170604,,,716.6901065955,8.2021,0,0.81831367448,2.84092200692,27,10,24.184,717.3462745955,10.826772,0.671082,0.85152889864,0,0,0,1.4, 0, -3.6,0,0,1024,559,1024,1024,0,-70,0,0,0,0,0,92,,,,,,,7.957,98.42,716.6901065955,10.170604,6,P-GPS,
17200,2023-10-01 20:27:40,40.0688917743296,-88.2095733452155,9.84252,,,716.3620225955,8.2021,0,0.81338257196,2.86725402876,27,10,24.184,717.3462745955,10.826772,0.671082,0.85152889864,0,0,0,1.5, 0.5, -12.5,0,0,1024,559,1024,1024,0,-70,0,0,0,0,0,92,,,,,,,7.957,98.42,716.3620225955,9.84252,6,P-GPS,
17300,2023-10-01 20:27:41,40.0688917262303,-88.2095736652096,9.84252,,,716.3620225955,8.2021,0.671082,0.8366798168,2.95830718128,27,10,24.184,717.3462745955,10.826772,0.671082,0.85152889864,0,-0.671082,0,1.6, 0.4, -18.3,0,0,1024,538,1024,1024,0,-74,0,0,0,0,0,92,,,,,,,7.957,98.42,716.3620225955,9.84252,6,P-GPS,
17400,2023-10-01 20:27:41,40.0688916892633,-88.2095743345687,9.84252,,,716.3620225955,7.874016,1.342164,0.9310695836,3.14568251536,27,10,24.157,717.3462745955,10.826772,1.342164,0.9310695836,0,-1.342164,0,1.6, 0.2, -19.2,0,0,1024,573,1024,1024,0,-68,0,0,0,0,0,91,,,,,,,8.062,98.42,716.3620225955,9.84252,6,P-GPS,
17500,2023-10-01 20:27:41,40.0688916822396,-88.209575515311,9.84252,,,716.3620225955,7.874016,2.013246,1.16719820008,3.4753610036,27,10,24.157,717.3462745955,10.826772,2.013246,1.16719820008,0,-2.013246,0,1.7, 0.1, -18.3,0,0,1024,573,1024,1024,0,-68,0,0,0,0,0,91,,,,,,,8.062,98.42,716.3620225955,9.84252,6,P-GPS,
17600,2023-10-01 20:27:41,40.0688916571424,-88.2095768964042,9.84252,,,716.3620225955,7.874016,2.684328,1.48626645176,3.8610893624,27,10,24.157,717.3462745955,10.826772,2.684328,1.48626645176,0,-2.684328,0,1.7, 0, -17.5,0,0,1024,687,1024,1024,0,-51,0,0,0,0,0,91,,,,,,,8.062,98.42,716.3620225955,9.84252,6,P-GPS,
17700,2023-10-01 20:27:41,40.0688916336049,-88.2095786784696,9.84252,,,716.3620225955,7.874016,3.35541,1.93535767348,4.3587271736,27,10,24.157,717.3462745955,10.826772,3.35541,1.93535767348,0,-3.35541,0,1.6, -0.1, -15.8,0,0,1024,686,1024,1024,0,-51,0,0,0,0,0,91,,,,,,,8.062,98.42,716.3620225955,9.84252,6,P-GPS,
17800,2023-10-01 20:27:41,40.0688916667922,-88.2095806245862,9.84252,,,716.3620225955,7.874016,3.802798,2.45347448796,4.902231128,27,10,24.157,717.3462745955,10.826772,3.802798,2.45347448796,0,-3.802798,0,1.6, -0.1, -13.9,0,0,1024,773,1024,1024,0,-38,0,0,0,0,0,92,,,,,,,8.062,98.42,716.3620225955,9.84252,6,P-GPS,
17900,2023-10-01 20:27:41,40.0688916572303,-88.2095829480867,9.84252,,,716.3620225955,7.874016,4.250186,3.0793636156,5.5509844296,27,10,24.157,717.3462745955,10.826772,4.250186,3.0793636156,0,-4.250186,0,1.4, -0.1, -12.8,0,0,1024,713,1024,1024,0,-47,0,0,0,0,0,92,,,,,,,8.062,98.42,716.3620225955,9.84252,6,P-GPS,
18000,2023-10-01 20:27:41,40.0688916710334,-88.2095852893779,9.84252,,,716.3620225955,7.874016,4.697574,3.7196195416,6.204724608,27,10,24.157,717.3462745955,10.826772,4.697574,3.7196195416,0,-4.697574,0,1.3, 0, -11.4,0,0,1024,713,1024,1024,0,-47,0,0,0,0,0,92,,,,,,,8.062,98.42,716.3620225955,9.84252,6,P-GPS,
18100,2023-10-01 20:27:41,40.0688916899513,-88.2095879192246,9.84252,,,716.3620225955,7.874016,5.144962,4.4436353128,6.9390422168,27,10,24.157,717.3462745955,10.826772,5.144962,4.4436353128,0,-5.144962,0,1.1, 0, -11,0,0,1024,721,1024,1024,0,-46,0,0,0,0,0,92,,,,,,,8.062,98.42,716.3620225955,9.84252,6,P-GPS,
18200,2023-10-01 20:27:41,40.0688917700156,-88.209590576005,9.84252,,,716.3620225955,7.874016,5.59235,5.1812009532,7.6813978836,27,10,24.157,717.3462745955,10.826772,5.59235,5.1812009532,0,-5.59235,0,1, 0.2, -10.9,0,0,1024,802,1024,1024,0,-34,0,0,0,0,0,92,,,,,,,8.062,98.42,716.3620225955,9.84252,6,P-GPS,
18300,2023-10-01 20:27:42,40.0688918073498,-88.2095935317126,9.84252,,,716.3620225955,7.545932,5.816044,6.0007219768,8.5067588024,27,10,24.157,717.3462745955,10.826772,5.816044,6.0007219768,0,-5.816044,0,0.8, 0, -10.7,0,0,1024,1024,1024,1024,0,0,0,0,0,0,0,92,,,,,,,8.062,98.42,716.3620225955,9.84252,6,P-GPS,
18400,2023-10-01 20:27:42,40.0688918364266,-88.2095965420726,9.84252,,,716.3620225955,7.545932,6.263432,6.83645035,9.3473428188,27,10,24.157,717.3462745955,10.826772,6.263432,6.83645035,0,-6.263432,0,0.6, -0.4, -9.4,0,0,1024,1024,1024,1024,0,0,0,0,0,0,0,92,,,,,,,8.062,98.42,716.3620225955,9.84252,6,P-GPS,
18500,2023-10-01 20:27:42,40.068891954296,-88.2095998197006,9.84252,,,716.3620225955,7.545932,6.263432,7.7508532664,10.2635173888,27,10,24.1715,717.3462745955,10.826772,6.263432,7.7508532664,0,-6.487126,0,0.5, -0.9, -3.1,0,0,1024,1024,1024,1024,0,0,0,0,0,0,0,91,,,,,,,8.197,98.42,716.3620225955,9.84252,6,P-GPS,
18600,2023-10-01 20:27:42,40.068891982742,-88.2096030380541,9.84252,,,716.3620225955,7.545932,6.487126,8.6459648436,11.1621722732,27,10,24.1715,717.3462745955,10.826772,6.487126,8.6459648436,0,-6.487126,0,0.2, -1, 12.7,0,0,1024,1024,1024,1024,0,0,0,0,0,0,0,91,,,,,,,8.197,98.42,716.3620225955,9.84252,6,P-GPS,
18700,2023-10-01 20:27:42,40.0688920084101,-88.2096061156687,9.84252,,,716.3620225955,7.545932,5.59235,9.5024937424,12.0215226944,27,10,24.1715,717.3462745955,10.826772,6.487126,9.5024937424,0,-5.59235,0,0.4, -0.6, 20.7,0,0,1024,1024,1024,1024,0,0,0,0,0,0,0,91,,,,,,,8.197,98.42,716.3620225955,9.84252,6,P-GPS,
18800,2023-10-01 20:27:42,40.0688920286224,-88.2096086055347,9.84252,,,716.3620225955,7.217848,4.697574,10.1958008512,12.7167326904,27,10,24.1715,717.3462745955,10.826772,6.487126,10.1958008512,0,-4.697574,0,0.4, -0.8, 22,0,0,1024,1024,1024,1024,0,0,0,0,0,0,0,92,,,,,,,8.197,98.42,716.3620225955,9.84252,6,P-GPS,
18900,2023-10-01 20:27:42,40.0688921232004,-88.2096108138082,9.84252,,,716.3620225955,7.217848,3.802798,10.8131237056,13.3342852036,27,10,24.1715,717.3462745955,10.826772,6.487126,10.8131237056,0,-3.802798,0,0.7, -0.6, 19,0,0,1024,1024,1024,1024,0,0,0,0,0,0,0,92,,,,,,,8.197,98.42,716.3620225955,9.84252,6,P-GPS,
19000,2023-10-01 20:27:42,40.0688921469734,-88.2096124322427,9.84252,,,716.3620225955,7.217848,3.131716,11.2642392056,13.7862209136,27,10,24.1715,717.3462745955,10.826772,6.487126,11.2642392056,0,-3.131716,0,0.8, -0.5, 14.4,0,0,1024,1024,1024,1024,0,0,0,0,0,0,0,92,,,,,,,8.197,98.42,716.3620225955,9.84252,6,P-GPS,
19100,2023-10-01 20:27:42,40.0688921576624,-88.2096137913279,9.84252,,,716.3620225955,7.217848,2.460634,11.64288095,14.1657156764,27,10,24.1715,717.3462745955,10.826772,6.487126,11.64288095,0,-2.460634,0,0.7, -1, 10.6,0,0,1024,1024,1024,1024,0,0,0,0,0,0,0,92,,,,,,,8.197,98.42,716.3620225955,9.84252,6,P-GPS,
19200,2023-10-01 20:27:42,40.0688922708124,-88.2096152332574,9.84252,,,716.3620225955,7.217848,2.013246,12.0474413304,14.5704400988,27,10,24.1715,717.3462745955,10.826772,6.487126,12.0474413304,0,-2.013246,0,0.8, -1.5, 7.6,0,0,1024,1024,1024,1024,0,0,0,0,0,0,0,92,,,,,,,8.197,98.42,716.3620225955,9.84252,6,P-GPS,
19300,2023-10-01 20:27:43,40.0688922767592,-88.209616211646,9.84252,,,716.3620225955,7.545932,1.565858,12.3199807092,14.8436028372,27,10,24.1715,717.3462745955,10.826772,6.487126,12.3199807092,0,-1.565858,0,0.8, -1.8, 5.5,0,0,1024,1024,1024,1024,0,0,0,0,0,0,0,92,,,,,,,8.197,98.42,716.3620225955,9.84252,6,P-GPS,
19400,2023-10-01 20:27:43,40.0688922876991,-88.20961713104,9.84252,,,716.3620225955,7.545932,1.342164,12.57627993,15.1003613756,27,10,24.1715,717.3462745955,10.826772,6.487126,12.57627993,0,-1.342164,0,1, -1.7, 4.2,0,0,1024,1024,1024,1024,0,0,0,0,0,0,0,92,,,,,,,8.197,98.42,716.3620225955,9.84252,6,P-GPS,
19500,2023-10-01 20:27:43,40.0688923052549,-88.2096179975376,9.84252,,,716.3620225955,7.545932,1.11847,12.8180122212,15.342356134,27,10,24.1715,717.3462745955,10.826772,6.487126,12.8180122212,0,-1.11847,-0.223694,1.1, -1.5, 3.2,0,0,816,364,1024,1024,-32,-100,0,0,0,0,0,92,,,,,,,8.197,98.42,716.3620225955,9.84252,6,P-GPS,
19600,2023-10-01 20:27:43,40.068892342667,-88.2096189244235,9.84252,,,716.3620225955,7.545932,1.11847,13.077100156,15.6015096856,27,10,24.1715,717.3462745955,10.826772,6.487126,13.077100156,0,-1.11847,-0.223694,1.3, -0.7, 0.2,0,0,1024,885,1024,1024,0,-21,0,0,0,0,0,92,,,,,,,8.197,98.42,716.3620225955,9.84252,6,P-GPS,
19700,2023-10-01 20:27:43,40.0688923469957,-88.2096196619112,9.84252,,,716.3620225955,7.545932,0.894776,13.2826119736,15.8074480124,27,10,24.1715,717.3462745955,10.826772,6.487126,13.2826119736,0,-0.894776,-0.223694,1.3, 1.6, -9.6,0,0,1024,1024,1024,1024,0,0,0,0,0,0,0,92,,,,,,,8.197,98.42,716.3620225955,9.84252,6,P-GPS,
