time(millisecond),datetime(utc),latitude,longitude,height_above_takeoff(feet),height_above_ground_at_drone_location(feet),ground_elevation_at_drone_location(feet),altitude_above_seaLevel(feet),height_sonar(feet),speed(mph),distance(feet),mileage(feet),satellites,gpslevel,voltage(v),max_altitude(feet),max_ascent(feet),max_speed(mph),max_distance(feet), xSpeed(mph), ySpeed(mph), zSpeed(mph), compass_heading(degrees), pitch(degrees), roll(degrees),isPhoto,isVideo,rc_elevator,rc_aileron,rc_throttle,rc_rudder,rc_elevator(percent),rc_aileron(percent),rc_throttle(percent),rc_rudder(percent),gimbal_heading(degrees),gimbal_pitch(degrees),gimbal_roll(degrees),battery_percent,voltageCell1,voltageCell2,voltageCell3,voltageCell4,voltageCell5,voltageCell6,current(A),battery_temperature(f),altitude(feet),ascent(feet),flycStateRaw,flycState,message
0,2023-10-01 21:42:38,40.0688820985998,-88.2096329336482,0,Available with any HD 360 subscription,Available with any HD 360 subscription,706.4819061376,0.656168,0,0,0,27,10,0,706.4819061376,0,0,0,0,0,0,274, 0.6, -1,0,0,364,364,364,1684,-100,-100,-100,100,0,0,0,57,,,,,,,0,109.76,706.4819061376,0,41,Motors_Started,"GEO: You are in a Warning Zone (Airport). Fly with caution."
100,2023-10-01 21:42:38,40.0688821168002,-88.2096329103116,0,,,706.4819061376,0.656168,0,0.0093032483292,0.0093032483292,27,10,0,706.4819061376,0,0,0.0093032483292,0,0,0,274, 0.6, -1,0,0,364,364,364,1684,-100,-100,-100,100,0,0,0,57,,,,,,,0,109.76,706.4819061376,0,41,Motors_Started,
200,2023-10-01 21:42:38,40.0688820981179,-88.2096329432105,0,,,706.4819061376,0.656168,0,0.00267566937696,0.0207416673304,27,10,0,706.4819061376,0,0,0.0093032483292,0,0,0,274.1, 0.6, -1,0,0,364,364,364,1684,-100,-100,-100,100,0,0,0,57,,,,,,,0,109.76,706.4819061376,0,41,Motors_Started,
300,2023-10-01 21:42:38,40.0688821065974,-88.2096329091864,0,,,706.4819061376,0.656168,0,0.0074271327836,0.0307325469152,27,10,0,706.4819061376,0,0,0.0093032483292,0,0,0,274, 0.6, -1,0,0,364,364,364,1684,-100,-100,-100,100,0,0,0,57,,,,,,,0,109.76,706.4819061376,0,41,Motors_Started,
400,2023-10-01 21:42:38,40.0688821120359,-88.2096328839674,0,,,706.4819061376,0.656168,0,0.0147120411532,0.038048229564,27,10,0,706.4819061376,0,0,0.0147120411532,0,0,0,274.1, 0.6, -1,0,0,364,364,364,1684,-100,-100,-100,100,0,0,0,57,,,,,,,0,109.76,706.4819061376,0,41,Motors_Started,
500,2023-10-01 21:42:38,40.068882115909,-88.2096328610564,0,,,706.4819061376,0.656168,0,0.021229331388,0.044599410876,27,10,0,706.4819061376,0,0,0.021229331388,0,0,0,274.1, 0.6, -1,0,0,364,364,364,1684,-100,-100,-100,100,0,0,0,57,,,,,,,0,109.76,706.4819061376,0,41,Motors_Started,
600,2023-10-01 21:42:38,40.0688820933623,-88.209632883435,0,,,706.4819061376,0.656168,0,0.0141495739436,0.0549294637,27,10,0,706.4819061376,0,0,0.021229331388,0,0,0,274, 0.6, -1,0,0,364,364,364,1684,-100,-100,-100,100,0,0,0,57,,,,,,,0,109.76,706.4819061376,0,41,Motors_Started,
700,2023-10-01 21:42:38,40.0688820976032,-88.2096328577743,0,,,706.4819061376,0.656168,0,0.0211877631452,0.062259188344,27,10,0,706.4819061376,0,0,0.021229331388,0,0,0,274, 0.6, -1,0,0,1024,1024,1024,1022,0,0,0,-0,0,0,0,57,,,,,,,0,109.76,706.4819061376,0,41,Motors_Started,"Setting new Return-To-Home altitude to 100m (328 ft). Data Recorder File Index is 28. Setting new Maximum Flight Altitude to 120m (394 ft)"
800,2023-10-01 21:42:39,40.0688821074962,-88.2096328421473,0,,,706.4819061376,0.656168,0,0.0257532160472,0.067921918184,27,10,0,706.4819061376,0,0,0.0257532160472,0,0,0,274.1, 0.6, -1,0,0,1024,1024,1024,1024,0,0,0,0,0,0,0,57,,,,,,,0,109.76,706.4819061376,0,41,Motors_Started,
900,2023-10-01 21:42:39,40.0688820926889,-88.2096329037319,0,,,706.4819061376,0.656168,0,0.0086267719296,0.085945540808,27,10,0,706.4819061376,0,0,0.0257532160472,0,0,0,274.1, 0.6, -1,0,0,1024,1024,1024,1024,0,0,0,0,0,0,0,57,,,,,,,0,109.76,706.4819061376,0,41,Motors_Started,
1000,2023-10-01 21:42:39,40.0688821038925,-88.2096328809707,0,,,706.4819061376,0.656168,0,0.0148342196348,0.093501971496,27,10,0,706.4819061376,0,0,0.0257532160472,0,0,0,274.1, 0.7, -1,0,0,1024,1024,1024,1024,0,0,0,0,0,0,0,57,,,,,,,0,109.76,706.4819061376,0,41,Motors_Started,
1100,2023-10-01 21:42:39,40.0688821093404,-88.2096328653297,0,,,706.4819061376,0.656168,0,0.0194734586284,0.098299871912,27,10,0,706.4819061376,0,0,0.0257532160472,0,0,0,274.2, 0.7, -1,0,0,1024,1024,1024,1024,0,0,0,0,0,0,0,57,,,,,,,0,109.76,706.4819061376,0,41,Motors_Started,
1200,2023-10-01 21:42:39,40.0688821212709,-88.2096328516583,0,,,706.4819061376,0.656168,0,0.0243408144272,0.10408957026,27,10,0,706.4819061376,0,0,0.0257532160472,0,0,0,274.1, 0.6, -1,0,0,1024,1024,1024,1024,0,0,0,0,0,0,0,57,,,,,,,0,109.76,706.4819061376,0,41,Motors_Started,
1300,2023-10-01 21:42:39,40.0688821205667,-88.2096329006587,0,,,706.4819061376,0.656168,0,0.01220964606,0.117773297732,27,10,0,706.4819061376,0,0,0.0257532160472,0,0,0,274.1, 0.6, -1,0,0,1024,1024,1024,1024,0,0,0,0,0,0,0,57,,,,,,,0,109.76,706.4819061376,0,41,Motors_Started,
1400,2023-10-01 21:42:39,40.0688821353443,-88.2096328905815,0,,,706.4819061376,0.656168,0,0.0180088260356,0.12385499084,27,10,0,706.4819061376,0,0,0.0257532160472,0,0,0,274.1, 0.6, -1,0,0,1024,1024,1024,1024,0,0,0,0,0,0,0,57,,,,,,,0,109.76,706.4819061376,0,41,Motors_Started,
1500,2023-10-01 21:42:39,40.0688821448276,-88.2096328908202,0,,,706.4819061376,0.656168,0,0.0206751318952,0.127315292788,27,10,0,706.4819061376,0,0,0.0257532160472,0,0,0,274.1, 0.6, -1,0,0,1024,1024,1024,1024,0,0,0,0,0,0,0,57,,,,,,,0,109.76,706.4819061376,0,41,Motors_Started,
1600,2023-10-01 21:42:39,40.0688821284221,-88.2096329936133,0,,,706.4819061376,0.656168,0,0.0199677171744,0.156633535196,27,10,0,706.4819061376,0,0,0.0257532160472,0,0,0,274.1, 0.6, -1,0,0,1024,1024,1024,1024,0,0,0,0,0,0,0,57,,,,,,,0,109.76,706.4819061376,0,41,Motors_Started,
1700,2023-10-01 21:42:39,40.0688821475174,-88.209632989417,0,,,706.4819061376,0.656168,0,0.023685368212,0.163698496052,27,10,22.145,706.4819061376,0,0,0.0257532160472,0,0,0,274.1, 0.6, -1,0,0,1024,1024,1024,1024,0,0,0,0,0,0,0,56,,,,,,,2.523,109.76,706.4819061376,0,41,Motors_Started,
1800,2023-10-01 21:42:40,40.068882157139,-88.209632976389,0,,,706.4819061376,0.656168,0,0.0244657816228,0.168753614324,27,10,22.145,706.4819061376,0,0,0.0257532160472,0,0,0,274.1, 0.6, -1,0,0,1024,1024,1024,1024,0,0,0,0,0,0,0,56,,,,,,,2.523,109.76,706.4819061376,0,41,Motors_Started,
1900,2023-10-01 21:42:40,40.0688821631609,-88.2096329488913,0,,,706.4819061376,0.656168,0,0.0239364837056,0.176739506968,27,10,22.145,706.4819061376,0,0,0.0257532160472,0,0,0,274, 0.6, -1,0,0,1024,1024,1024,1024,0,0,0,0,0,0,0,56,,,,,,,2.523,109.76,706.4819061376,0,41,Motors_Started,
2000,2023-10-01 21:42:40,40.0688821394319,-88.2096329537882,0,,,706.4819061376,0.656168,0,0.0159235241316,0.185504271028,27,10,22.145,706.4819061376,0,0,0.0257532160472,0,0,0,274.1, 0.6, -1,0,0,1024,1024,1024,1024,0,0,0,0,0,0,0,56,,,,,,,2.523,109.76,706.4819061376,0,10,Assisted_Takeoff,
2100,2023-10-01 21:42:40,40.0688821435046,-88.2096329318606,0,,,706.4819061376,0.656168,0,0.01639107664,0.191804139996,27,10,22.145,706.4819061376,0,0,0.0257532160472,0,0,0,274, 0.6, -1,0,0,1024,1024,1024,1024,0,0,0,0,0,0,0,56,,,,,,,2.523,109.76,706.4819061376,0,10,Assisted_Takeoff,
2200,2023-10-01 21:42:40,40.0688821417885,-88.2096329009286,0,,,706.4819061376,0.656168,0,0.0182141081944,0.200463589092,27,10,22.145,706.4819061376,0,0,0.0257532160472,0,0,0,274.1, 0.6, -1,0,0,1024,1024,1024,1024,0,0,0,0,0,0,0,56,,,,,,,2.523,109.76,706.4819061376,0,10,Assisted_Takeoff,
2300,2023-10-01 21:42:40,40.0688820903626,-88.2096328994434,0,,,706.4819061376,0.656168,0,0.0100119425776,0.21923065006,27,10,22.145,706.4819061376,0,0,0.0257532160472,0,0,0,274.1, 0.6, -1,0,0,1024,1024,1024,1024,0,0,0,0,0,0,0,56,,,,,,,2.523,109.76,706.4819061376,0,10,Assisted_Takeoff,
2400,2023-10-01 21:42:40,40.0688821012792,-88.2096328648767,0,,,706.4819061376,0.656168,0,0.0192264441848,0.229671595276,27,10,22.145,706.4819061376,0,0,0.0257532160472,0,0,0,274.1, 0.6, -1,0,0,1024,1024,1024,1024,0,0,0,0,0,0,0,56,,,,,,,2.523,109.76,706.4819061376,0,10,Assisted_Takeoff,
2500,2023-10-01 21:42:40,40.0688821206923,-88.2096328324967,0,,,706.4819061376,0.656168,0,0.02937007968,0.24115650378,27,10,22.145,706.4819061376,0,0,0.02937007968,0,0,0,274.1, 0.6, -1,0,0,1024,1024,1024,1024,0,0,0,0,0,0,0,56,,,,,,,2.523,109.76,706.4819061376,0,10,Assisted_Takeoff,
2600,2023-10-01 21:42:40,40.0688821334867,-88.2096328043055,0,,,706.4819061376,0.656168,0,0.038291011724,0.250307750792,27,10,22.145,706.4819061376,0,0,0.038291011724,0,0,0,274, 0.6, -0.9,0,0,1024,1024,1078,1024,0,0,8,0,0,0,0,56,,,,,,,2.523,109.76,706.4819061376,0,10,Assisted_Takeoff,
2700,2023-10-01 21:42:40,40.0688821131445,-88.2096328384304,0,,,706.4819061376,0.656168,0,0.027110073046,0.262385179,27,10,22.1665,706.4819061376,0,0,0.038291011724,0,0,0,274, 0.6, -0.9,0,0,1024,1024,1078,1024,0,0,8,0,0,0,0,56,,,,,,,1.696,109.76,706.4819061376,0,10,Assisted_Takeoff,
2800,2023-10-01 21:42:41,40.0688821203426,-88.2096328192936,0,,,706.4819061376,0.656168,0,0.032899607352,0.268338919348,27,10,22.1665,706.4819061376,0,0,0.038291011724,0,0,0,274, 0.6, -1,0,0,1024,1024,1024,1024,0,0,0,0,0,0,0,56,,,,,,,1.696,109.76,706.4819061376,0,10,Assisted_Takeoff,
2900,2023-10-01 21:42:41,40.068882128498,-88.2096327976761,0,,,706.4819061376,0.656168,0,0.039500657432,0.275068250272,27,10,22.1665,706.4819061376,0,0,0.039500657432,0,0,0,274, 0.6, -1,0,0,1024,1024,1024,1024,0,0,0,0,0,0,0,56,,,,,,,1.696,109.76,706.4819061376,0,10,Assisted_Takeoff,
3000,2023-10-01 21:42:41,40.0688821043358,-88.2096328521232,0,,,706.4819061376,0.656168,0,0.0228584981068,0.292641741648,27,10,22.1665,706.4819061376,0,0,0.039500657432,0,0,0,274.1, 0.6, -1,0,0,1024,1024,1130,1024,0,0,16,0,0,0,0,56,,,,,,,1.696,109.76,706.4819061376,0,10,Assisted_Takeoff,
3100,2023-10-01 21:42:41,40.0688821238592,-88.209632826036,0,,,706.4819061376,0.656168,0,0.031427822528,0.302829406016,27,10,22.1665,706.4819061376,0,0,0.039500657432,0,0,0,274, 0.6, -1,0,0,1024,1024,1130,1024,0,0,16,0,0,0,0,56,,,,,,,1.696,109.76,706.4819061376,0,10,Assisted_Takeoff,
3200,2023-10-01 21:42:41,40.0688821362639,-88.2096328130397,0,,,706.4819061376,0.656168,0,0.036370736072,0.30863025922,27,10,22.1665,706.4819061376,0,0,0.039500657432,0,0,0,274, 0.6, -0.9,0,0,1024,1024,1684,1024,0,0,100,0,0,0,0,56,,,,,,,1.696,109.76,706.4819061376,0,10,Assisted_Takeoff,
3300,2023-10-01 21:42:41,40.0688821484909,-88.2096327998236,0,,,706.4819061376,0.656168,0,0.041562993456,0.314419629484,27,10,22.1665,706.4819061376,0,0,0.041562993456,0,0,0,274, 0.6, -0.9,0,0,1024,1024,1684,1024,0,0,100,0,0,0,0,56,,,,,,,1.696,109.76,706.4819061376,0,10,Assisted_Takeoff,
3400,2023-10-01 21:42:41,40.0688821335069,-88.2096328383609,0,,,706.4819061376,0.656168,0,0.0294962607864,0.326488855592,27,10,22.1665,706.4819061376,0,0,0.041562993456,0,0,0,274.1, 0.6, -1,0,0,1024,1024,1684,1005,0,0,100,-3,0,0,0,56,,,,,,,1.696,109.76,706.4819061376,0,10,Assisted_Takeoff,
3500,2023-10-01 21:42:41,40.0688821447637,-88.20963281942,0,,,706.4819061376,0.656168,0,0.036067586456,0.3331857062,27,10,22.1665,706.4819061376,0,0,0.041562993456,0,0,0,274, 0.6, -1,0,0,1024,1024,1684,1022,0,0,100,-0,0,0,0,56,,,,,,,1.696,109.76,706.4819061376,0,10,Assisted_Takeoff,
3600,2023-10-01 21:42:41,40.0688821479953,-88.2096328013022,0,,,706.4819061376,0.656168,0,0.041112534124,0.33837927592,27,10,22.1665,706.4819061376,0,0,0.041562993456,0,0,0,274.1, 0.8, -1,0,0,1024,1024,1684,1024,0,0,100,0,0,0,0,56,,,,,,,1.696,109.76,706.4819061376,0,10,Assisted_Takeoff,
3700,2023-10-01 21:42:41,40.0688820991054,-88.2096328639533,0,,,706.4819061376,0.656168,0,0.0194602696516,0.36336287252,27,10,22.1665,706.4819061376,0,0,0.041562993456,0,0,0,274.1, 0.8, -1.1,0,0,1024,1024,1684,1024,0,0,100,0,0,0,0,57,,,,,,,1.696,109.76,706.4819061376,0,10,Assisted_Takeoff,
3800,2023-10-01 21:42:41,40.068882094926,-88.2096328369486,0,,,706.4819061376,0.656168,0,0.0270326124136,0.37105644232,27,10,22.1665,706.4819061376,0,0,0.041562993456,0,0,0,274.1, 1.5, -1.1,0,0,1024,1024,1684,1024,0,0,100,0,0,0,0,57,,,,,,,1.696,109.76,706.4819061376,0,10,Assisted_Takeoff,
3900,2023-10-01 21:42:42,40.0688820847285,-88.2096327699604,0,,,706.4819061376,0.656168,0,0.045982284936,0.3901246844,27,10,22.1665,706.4819061376,0,0,0.045982284936,0,0,-0.223694,273.9, 3.1, -0.9,0,0,1024,1024,1684,1024,0,0,100,0,0,0,0,57,,,,,,,1.696,109.76,706.4819061376,0,10,Assisted_Takeoff,
4000,2023-10-01 21:42:42,40.0688820593191,-88.2096326389731,0,,,706.4819061376,0.984252,0.223694,0.083514766452,0.4278543444,27,10,22.1665,706.4819061376,0,0.223694,0.083514766452,0,0.223694,-0.894776,273.5, 2.9, -0.4,0,0,1024,1024,1684,1011,0,0,100,-2,0,0,0,57,,,,,,,1.696,109.76,706.4819061376,0,6,P-GPS,
4100,2023-10-01 21:42:42,40.0688819779951,-88.2096325094465,0,,,706.4819061376,0.984252,0.447388,0.126350397744,0.47463256112,27,10,22.1665,706.4819061376,0,0.447388,0.126350397744,0,0.447388,-1.565858,273.3, 1.6, -0.1,0,0,1024,1024,1684,1009,0,0,100,-2,0,0,0,57,,,,,,,1.696,109.76,706.4819061376,0,6,P-GPS,
4200,2023-10-01 21:42:42,40.0688819610891,-88.2096322589814,0.328084,,,706.8099901376,1.312336,0.447388,0.194939638784,0.54483597544,27,10,22.1665,706.8099901376,0.328084,0.447388,0.194939638784,0,0.447388,-2.23694,273.1, 0.3, -0.2,0,0,1024,1024,1684,1013,0,0,100,-2,0,0,0,57,,,,,,,1.696,109.76,706.8099901376,0.328084,6,P-GPS,
4300,2023-10-01 21:42:42,40.0688819587264,-88.2096319761818,0.656168,,,707.1380741376,1.64042,0.447388,0.27216044178,0.6238025134,27,10,22.1665,707.1380741376,0.656168,0.447388,0.27216044178,0,0.447388,-2.908022,273, -0.8, -0.6,0,0,1024,1024,1684,1011,0,0,100,-2,0,0,0,57,,,,,,,1.696,109.76,707.1380741376,0.656168,6,P-GPS,
4400,2023-10-01 21:42:42,40.0688819366179,-88.2096317958079,1.312336,,,707.7942421376,2.296588,0.447388,0.323145023464,0.67480645204,27,10,22.1665,707.7942421376,1.312336,0.447388,0.323145023464,0,0.447388,-3.579104,273.1, -2, -1.1,0,0,1024,1024,1684,1024,0,0,100,0,0,0,0,57,,,,,,,1.696,109.76,707.7942421376,1.312336,6,P-GPS,
4500,2023-10-01 21:42:42,40.0688819214579,-88.2096315937093,1.968504,,,708.4504101376,2.624672,0.223694,0.37966536648,0.73150264808,27,10,22.1665,708.4504101376,1.968504,0.447388,0.37966536648,0,0.223694,-4.250186,273, -2.6, -1,0,0,1024,1024,1684,1024,0,0,100,0,0,0,0,57,,,,,,,1.696,109.76,708.4504101376,1.968504,6,P-GPS,
4600,2023-10-01 21:42:42,40.0688818974297,-88.2096314751728,2.624672,,,709.1065781376,3.28084,0.223694,0.4137795408,0.76574149432,27,10,22.1665,709.1065781376,2.624672,0.447388,0.4137795408,0,0.223694,-5.144962,273, -2.4, -0.4,0,0,1024,1024,1684,1024,0,0,100,0,0,0,0,57,,,,,,,1.696,109.76,709.1065781376,2.624672,6,P-GPS,
4700,2023-10-01 21:42:42,40.0688818787882,-88.2096314175984,3.28084,,,709.7627461376,3.937008,0.223694,0.4308235046,0.78319556312,27,10,21.859,709.7627461376,3.28084,0.447388,0.4308235046,0,0,-6.039738,272.9, -1.7, 0,0,0,1024,1024,1684,1024,0,0,100,0,0,0,0,56,,,,,,,14.383,109.76,709.7627461376,3.28084,6,P-GPS,
4800,2023-10-01 21:42:43,40.0688818506619,-88.2096314252988,4.265092,,,710.7469981376,4.92126,0,0.43075132612,0.79368112776,27,10,21.859,710.7469981376,4.265092,0.447388,0.4308235046,0,0,-6.71082,272.9, -0.8, 0.1,0,0,1024,1024,1684,1024,0,0,100,0,0,0,0,56,,,,,,,14.383,109.76,710.7469981376,4.265092,6,P-GPS,
4900,2023-10-01 21:42:43,40.0688818611816,-88.2096314463217,5.249344,,,711.7312501376,5.905512,0,0.424212612,0.80069556368,27,10,21.859,711.7312501376,5.249344,0.447388,0.4308235046,0,0,-7.605596,272.8, -0.3, 0,0,0,1024,1024,1684,1024,0,0,100,0,0,0,0,56,,,,,,,14.383,109.76,711.7312501376,5.249344,6,P-GPS,
5000,2023-10-01 21:42:43,40.068881878373,-88.2096314625371,6.56168,,,713.0435861376,6.889764,0,0.41853347796,0.8084317844,27,10,21.859,713.0435861376,6.56168,0.447388,0.4308235046,0,0,-8.500372,272.8, -0.2, -0.5,0,0,1024,1024,1024,1024,0,0,0,0,0,0,0,56,,,,,,,14.383,109.76,713.0435861376,6.56168,6,P-GPS,
5100,2023-10-01 21:42:43,40.068881822469,-88.2096315638811,7.874016,,,714.3559221376,7.874016,0,0.39549870032,0.84331039444,27,10,21.859,714.3559221376,7.874016,0.447388,0.4308235046,0,0,-9.171454,272.9, -0.5, -0.9,0,0,1024,1024,1024,1024,0,0,0,0,0,0,0,56,,,,,,,14.383,109.76,714.3559221376,7.874016,6,P-GPS,
5200,2023-10-01 21:42:43,40.0688818422069,-88.2096315853682,9.186352,,,715.6682581376,8.530184,0,0.38790027488,0.85268375432,27,10,21.859,715.6682581376,9.186352,0.447388,0.4308235046,0,0,-9.618842,273.1, -0.6, -0.9,0,0,1024,1024,1024,1024,0,0,0,0,0,0,0,56,,,,,,,14.383,109.76,715.6682581376,9.186352,6,P-GPS,
5300,2023-10-01 21:42:43,40.0688818742703,-88.2096316157493,10.826772,,,717.3086781376,9.186352,0,0.37696195432,0.86713585452,27,10,21.859,717.3086781376,10.826772,0.447388,0.4308235046,0,0,-9.618842,273.3, -0.7, -0.7,0,0,1024,1024,1024,1024,0,0,0,0,0,0,0,56,,,,,,,14.383,109.76,717.3086781376,10.826772,6,P-GPS,
5400,2023-10-01 21:42:43,40.0688818951972,-88.2096316713691,12.139108,,,718.6210141376,10.170604,0,0.36016733436,0.88443900468,27,10,21.859,718.6210141376,12.139108,0.447388,0.4308235046,0,0,-9.395148,273.5, -0.7, -0.3,0,0,1024,1024,1024,1024,0,0,0,0,0,0,0,56,,,,,,,14.383,109.76,718.6210141376,12.139108,6,P-GPS,
5500,2023-10-01 21:42:43,40.0688818772315,-88.2096318402898,13.451444,,,719.9333501376,11.154856,0,0.315778553412,0.93205711644,27,10,21.859,719.9333501376,13.451444,0.447388,0.4308235046,0,0,-9.171454,273.7, -0.3, -0.1,0,0,1024,1024,1024,1024,0,0,0,0,0,0,0,56,,,,,,,14.383,109.76,719.9333501376,13.451444,6,P-GPS,
5600,2023-10-01 21:42:43,40.0688819204857,-88.2096319565142,14.76378,,,721.2456861376,9.84252,0,0.280457029972,0.9681430756,27,10,21.859,721.2456861376,14.76378,0.447388,0.4308235046,0,0,-8.724066,273.8, 0.2, -0.6,0,0,1024,1024,1024,1024,0,0,0,0,0,0,0,56,,,,,,,14.383,109.76,721.2456861376,14.76378,6,P-GPS,
5700,2023-10-01 21:42:43,40.0688819781421,-88.2096320926668,16.076116,,,722.5580221376,11.154856,0.223694,0.238886818668,1.01158795888,27,10,21.859,722.5580221376,16.076116,0.447388,0.4308235046,0,-0.223694,-8.052984,273.9, 0.6, -1.3,0,0,1024,1024,1024,1024,0,0,0,0,0,0,0,57,,,,,,,14.383,109.76,722.5580221376,16.076116,6,P-GPS,
5800,2023-10-01 21:42:44,40.0688819882507,-88.2096323428296,17.060368,,,723.5422741376,11.811024,0.223694,0.169803811208,1.08153218684,27,10,21.859,723.5422741376,17.060368,0.447388,0.4308235046,0,-0.223694,-7.381902,274, 1, -1.4,0,0,1024,1024,1024,1024,0,0,0,0,0,0,0,57,,,,,,,14.383,109.76,723.5422741376,17.060368,6,P-GPS,
5900,2023-10-01 21:42:44,40.0688820618182,-88.209632503857,18.04462,,,724.5265261376,8.530184,0.223694,0.120749347696,1.13389767408,27,10,21.859,724.5265261376,18.04462,0.447388,0.4308235046,0,-0.223694,-6.71082,274.1, 1.1, -1.6,0,0,1024,1024,1024,1024,0,0,0,0,0,0,0,57,,,,,,,14.383,109.76,724.5265261376,18.04462,6,P-GPS,
6000,2023-10-01 21:42:44,40.0688821338614,-88.2096326540351,19.028872,,,725.5107781376,9.514436,0.223694,0.079123362112,1.18338586464,27,10,21.859,725.5107781376,19.028872,0.447388,0.4308235046,0,-0.223694,-5.816044,274.2, 1.4, -2,0,0,1024,1024,1024,1024,0,0,0,0,0,0,0,57,,,,,,,14.383,109.76,725.5107781376,19.028872,6,P-GPS,
6100,2023-10-01 21:42:44,40.0688821993329,-88.2096328241503,20.013124,,,726.4950301376,9.84252,0.223694,0.047806103892,1.23655187684,27,10,21.859,726.4950301376,20.013124,0.447388,0.4308235046,0,-0.223694,-4.921268,274.2, 2.1, -2.1,0,0,1024,1024,1024,1024,0,0,0,0,0,0,0,57,,,,,,,14.383,109.76,726.4950301376,20.013124,6,P-GPS,
6200,2023-10-01 21:42:44,40.0688822297792,-88.2096330813433,20.669292,,,727.1511981376,5.577428,0.223694,0.06317585504,1.30921592116,27,10,21.859,727.1511981376,20.669292,0.447388,0.4308235046,0,-0.223694,-4.026492,274.2, 2.6, -2.2,0,0,1024,1024,1024,1024,0,0,0,0,0,0,0,57,,,,,,,14.383,109.76,727.1511981376,20.669292,6,P-GPS,
6300,2023-10-01 21:42:44,40.0688822989303,-88.2096332725192,20.997376,,,727.4792821376,6.233596,0.223694,0.119559058944,1.36825463696,27,10,21.859,727.4792821376,20.997376,0.447388,0.4308235046,0,-0.223694,-3.131716,274.2, 2.7, -2.5,0,0,1024,1024,1024,1024,0,0,0,0,0,0,0,57,,,,,,,14.383,109.76,727.4792821376,20.997376,6,P-GPS,
6400,2023-10-01 21:42:44,40.0688823654301,-88.2096334180062,21.653544,,,728.1354501376,3.28084,0,0.166633207432,1.41557091144,27,10,21.859,728.1354501376,21.653544,0.447388,0.4308235046,0,0,-2.23694,274.2, 2.5, -2.6,0,0,1024,1024,1024,1024,0,0,0,0,0,0,0,57,,,,,,,14.383,109.76,728.1354501376,21.653544,6,P-GPS,
6500,2023-10-01 21:42:44,40.0688824002194,-88.2096336739165,21.981628,,,728.4635341376,3.28084,0,0.234159128228,1.48814309224,27,10,21.859,728.4635341376,21.981628,0.447388,0.4308235046,0,0,-1.565858,274.1, 2.3, -2.7,0,0,1024,1024,1024,1024,0,0,0,0,0,0,0,57,,,,,,,14.383,109.76,728.4635341376,21.981628,6,P-GPS,
6600,2023-10-01 21:42:44,40.0688824642735,-88.2096337726892,21.981628,,,728.4635341376,3.608924,0,0.269594168732,1.52429138736,27,10,21.859,728.4635341376,21.981628,0.447388,0.4308235046,0,0,-0.894776,274, 2.1, -2.9,0,0,1024,1024,1024,1024,0,0,0,0,0,0,0,57,,,,,,,14.383,109.76,728.4635341376,21.981628,6,P-GPS,
6700,2023-10-01 21:42:44,40.0688825253578,-88.2096338530392,22.309712,,,728.7916181376,1.64042,0,0.300231964988,1.55591212328,27,10,21.998,728.7916181376,22.309712,0.447388,0.4308235046,0,0,-0.447388,273.9, 2.2, -2.8,0,0,1024,1024,1024,1024,0,0,0,0,0,0,0,56,,,,,,,5.946,109.76,728.7916181376,22.309712,6,P-GPS,
6800,2023-10-01 21:42:45,40.0688825625158,-88.2096339136013,22.309712,,,728.7916181376,1.312336,0,0.321732949928,1.57758535232,27,10,21.998,728.7916181376,22.309712,0.447388,0.4308235046,0,0,0,273.8, 1.9, -2.6,0,0,1024,1024,1024,1024,0,0,0,0,0,0,0,56,,,,,,,5.946,109.76,728.7916181376,22.309712,6,P-GPS,
6900,2023-10-01 21:42:45,40.068882551676,-88.209634058594,22.309712,,,728.7916181376,1.64042,0,0.3549376754,1.61826120664,27,10,21.998,728.7916181376,22.309712,0.447388,0.4308235046,0,0,0,273.7, 1.6, -2.4,0,0,1024,1024,1024,1024,0,0,0,0,0,0,0,56,,,,,,,5.946,109.76,728.7916181376,22.309712,6,P-GPS,
7000,2023-10-01 21:42:45,40.0688825888473,-88.2096340713396,22.309712,,,728.7916181376,1.64042,0,0.3645505366,1.6322835168,27,10,21.998,728.7916181376,22.309712,0.447388,0.4308235046,0,0,0,273.6, 1.4, -2.4,0,0,1024,1024,1024,1024,0,0,0,0,0,0,0,56,,,,,,,5.946,109.76,728.7916181376,22.309712,6,P-GPS,
7100,2023-10-01 21:42:45,40.0688826366518,-88.2096340649781,22.309712,,,728.7916181376,1.64042,0,0.37190617988,1.64981632576,27,10,21.998,728.7916181376,22.309712,0.447388,0.4308235046,0,0,0,273.6, 1.1, -2.6,0,0,1024,1024,1024,1024,0,0,0,0,0,0,0,56,,,,,,,5.946,109.76,728.7916181376,22.309712,6,P-GPS,
7200,2023-10-01 21:42:45,40.0688826717645,-88.2096340961952,22.309712,,,728.7916181376,0.984252,0,0.3861220596,1.66530845224,27,10,21.998,728.7916181376,22.309712,0.447388,0.4308235046,0,0,0,273.6, 1, -2.9,0,0,1024,1024,1024,1024,0,0,0,0,0,0,0,56,,,,,,,5.946,109.76,728.7916181376,22.309712,6,P-GPS,
7300,2023-10-01 21:42:45,40.0688827182667,-88.2096340518285,21.981628,,,728.4635341376,0.984252,0,0.38546917244,1.6863189516,27,10,21.998,728.7916181376,22.309712,0.447388,0.4308235046,0,0,0,273.6, 0.8, -3.2,0,0,1024,1024,1024,1024,0,0,0,0,0,0,0,56,,,,,,,5.946,109.76,728.4635341376,21.981628,6,P-GPS,
7400,2023-10-01 21:42:45,40.0688827503395,-88.2096340126175,21.981628,,,728.4635341376,0.984252,0,0.38379594404,1.70234257416,27,10,21.998,728.7916181376,22.309712,0.447388,0.4308235046,0,0,0,273.6, 0.7, -3.1,0,0,1024,1024,1024,1024,0,0,0,0,0,0,0,56,,,,,,,5.946,109.76,728.4635341376,21.981628,6,P-GPS,
7500,2023-10-01 21:42:45,40.0688827716599,-88.2096339758994,21.981628,,,728.4635341376,1.64042,0,0.38077100956,1.71521002864,27,10,21.998,728.7916181376,22.309712,0.447388,0.4308235046,0,0,0,273.6, 0.9, -2.7,0,0,1024,1024,1024,1024,0,0,0,0,0,0,0,56,,,,,,,5.946,109.76,728.4635341376,21.981628,6,P-GPS,
7600,2023-10-01 21:42:45,40.0688827536768,-88.2096339752518,21.981628,,,728.4635341376,1.312336,0,0.37643373908,1.72177498948,27,10,21.998,728.7916181376,22.309712,0.447388,0.4308235046,0,0,0,273.7, 1, -2.2,0,0,1024,1024,1024,1024,0,0,0,0,0,0,0,56,,,,,,,5.946,109.76,728.4635341376,21.981628,6,P-GPS,
7700,2023-10-01 21:42:45,40.0688827313936,-88.2096339583019,21.981628,,,728.4635341376,0.984252,0,0.36763124536,1.73118115776,27,10,21.9345,728.7916181376,22.309712,0.447388,0.4308235046,0,0,0,273.7, 1, -2,0,0,1024,1024,1024,1024,0,0,0,0,0,0,0,56,,,,,,,8.948,109.76,728.4635341376,21.981628,6,P-GPS,
7800,2023-10-01 21:42:46,40.0688827179343,-88.2096339417791,21.981628,,,728.4635341376,1.312336,0,0.3609580168,1.73792000312,27,10,21.9345,728.7916181376,22.309712,0.447388,0.4308235046,0,0,0,273.7, 0.8, -2.1,0,0,1024,1024,1024,1024,0,0,0,0,0,0,0,56,,,,,,,8.948,109.76,728.4635341376,21.981628,6,P-GPS,
7900,2023-10-01 21:42:46,40.0688826421216,-88.2096339900659,21.981628,,,728.4635341376,1.312336,0,0.35542323972,1.76869100148,27,10,21.9345,728.7916181376,22.309712,0.447388,0.4308235046,0,0,0,273.8, 0.5, -2.3,0,0,1024,1024,1024,1024,0,0,0,0,0,0,0,56,,,,,,,8.948,109.76,728.4635341376,21.981628,6,P-GPS,
8000,2023-10-01 21:42:46,40.0688826397109,-88.2096339811481,21.981628,,,728.4635341376,1.64042,0,0.35286746536,1.77133207768,27,10,21.9345,728.7916181376,22.309712,0.447388,0.4308235046,0,0,0,273.9, 0.6, -2.3,0,0,1024,1024,1024,1024,0,0,0,0,0,0,0,56,,,,,,,8.948,109.76,728.4635341376,21.981628,6,P-GPS,
8100,2023-10-01 21:42:46,40.068882639459,-88.2096339794689,21.981628,,,728.4635341376,1.64042,0,0.3524278328,1.77180779948,27,10,21.9345,728.7916181376,22.309712,0.447388,0.4308235046,0,0,0,273.8, 0.9, -2,0,0,1024,1024,1024,1024,0,0,0,0,0,0,0,56,,,,,,,8.948,109.76,728.4635341376,21.981628,6,P-GPS,
8200,2023-10-01 21:42:46,40.068882632119,-88.2096339900713,21.981628,,,728.4635341376,1.64042,0,0.35340224228,1.77580058176,27,10,21.9345,728.7916181376,22.309712,0.447388,0.4308235046,0,0,0,273.8, 1.1, -1.5,0,0,1024,1024,1024,1024,0,0,0,0,0,0,0,56,,,,,,,8.948,109.76,728.4635341376,21.981628,6,P-GPS,
8300,2023-10-01 21:42:46,40.0688825804787,-88.2096340697941,21.981628,,,728.4635341376,1.312336,0,0.36268373864,1.80496396852,27,10,21.9345,728.7916181376,22.309712,0.447388,0.4308235046,0,0,0,273.7, 1.1, -1.3,0,0,1024,1024,1024,1024,0,0,0,0,0,0,0,56,,,,,,,8.948,109.76,728.4635341376,21.981628,6,P-GPS,
8400,2023-10-01 21:42:46,40.06888259211,-88.2096340607404,21.981628,,,728.4635341376,1.64042,0,0.3625656284,1.80990163272,27,10,21.9345,728.7916181376,22.309712,0.447388,0.4308235046,0,0,0,273.7, 1, -1.6,0,0,1024,1024,1024,1024,0,0,0,0,0,0,0,56,,,,,,,8.948,109.76,728.4635341376,21.981628,6,P-GPS,
8500,2023-10-01 21:42:46,40.0688826153937,-88.2096340367401,21.981628,,,728.4635341376,1.968504,0,0.36112533964,1.82072184304,27,10,21.9345,728.7916181376,22.309712,0.447388,0.4308235046,0,0,0,273.6, 0.6, -2.1,0,0,1024,1024,1024,1024,0,0,0,0,0,0,0,56,,,,,,,8.948,109.76,728.4635341376,21.981628,6,P-GPS,
8600,2023-10-01 21:42:46,40.0688825799686,-88.2096341073762,21.981628,,,728.4635341376,1.64042,0,0.37180775468,1.84430452096,27,10,21.9345,728.7916181376,22.309712,0.447388,0.4308235046,0,0,0,273.6, 0.4, -2.4,0,0,1024,1024,1024,1024,0,0,0,0,0,0,0,56,,,,,,,8.948,109.76,728.4635341376,21.981628,6,P-GPS,
8700,2023-10-01 21:42:46,40.0688825953382,-88.2096340986449,21.981628,,,728.4635341376,1.64042,0,0.3723589358,1.85041672588,27,10,21.9345,728.7916181376,22.309712,0.447388,0.4308235046,0,0,0,273.6, 0.4, -2.3,0,0,1024,1024,1024,1024,0,0,0,0,0,0,0,57,,,,,,,8.948,109.76,728.4635341376,21.981628,6,P-GPS,
8800,2023-10-01 21:42:47,40.0688826061891,-88.2096340895385,21.981628,,,728.4635341376,1.64042,0,0.37209318776,1.85512145044,27,10,21.9345,728.7916181376,22.309712,0.447388,0.4308235046,0,0,0,273.7, 0.5, -2.2,0,0,1024,1024,1024,1024,0,0,0,0,0,0,0,57,,,,,,,8.948,109.76,728.4635341376,21.981628,6,P-GPS,
8900,2023-10-01 21:42:47,40.0688826236076,-88.2096340661656,21.981628,,,728.4635341376,1.312336,0,0.3697014554,1.86423234312,27,10,21.9345,728.7916181376,22.309712,0.447388,0.4308235046,0,0,0,273.8, 0.6, -2.4,0,0,1024,1024,1024,1024,0,0,0,0,0,0,0,57,,,,,,,8.948,109.76,728.4635341376,21.981628,6,P-GPS,
9000,2023-10-01 21:42:47,40.0688826140018,-88.2096340862325,21.981628,,,728.4635341376,0.984252,0,0.37272310904,1.87083995488,27,10,21.9345,728.7916181376,22.309712,0.447388,0.4308235046,0,0,0,273.9, 0.8, -2.7,0,0,1024,1024,1024,1024,0,0,0,0,0,0,0,57,,,,,,,8.948,109.76,728.4635341376,21.981628,6,P-GPS,
9100,2023-10-01 21:42:47,40.0688826339679,-88.2096340641711,21.981628,,,728.4635341376,0.656168,0,0.37120079928,1.8803806376,27,10,21.9345,728.7916181376,22.309712,0.447388,0.4308235046,0,0,0,274, 0.8, -2.8,0,0,1024,1024,1024,1024,0,0,0,0,0,0,0,57,,,,,,,8.948,109.76,728.4635341376,21.981628,6,P-GPS,
9200,2023-10-01 21:42:47,40.0688826346453,-88.2096340536642,21.981628,,,728.4635341376,0.328084,0,0.36883859448,1.88332355108,27,10,21.9345,728.7916181376,22.309712,0.447388,0.4308235046,0,0,0,274.2, 0.7, -2.6,0,0,1024,1024,1024,1024,0,0,0,0,0,0,0,57,,,,,,,8.948,109.76,728.4635341376,21.981628,6,P-GPS,
9300,2023-10-01 21:42:47,40.0688825690952,-88.2096341548803,21.981628,,,728.4635341376,0.984252,0,0.38175198072,1.92034454964,27,10,21.9345,728.7916181376,22.309712,0.447388,0.4308235046,0,0,0,274.2, 0.6, -2.3,0,0,1024,1024,999,1024,0,0,-4,0,0,0,0,57,,,,,,,8.948,109.76,728.4635341376,21.981628,6,P-GPS,
9400,2023-10-01 21:42:47,40.0688825622513,-88.2096341488535,21.653544,,,728.1354501376,1.312336,0,0.37912730872,1.92335636076,27,10,21.9345,728.7916181376,22.309712,0.447388,0.4308235046,0,0,0,274.1, 0.6, -2.2,0,0,1024,1024,669,1024,0,0,-54,0,0,0,0,57,,,,,,,8.948,109.76,728.1354501376,21.653544,6,P-GPS,
9500,2023-10-01 21:42:47,40.0688825604545,-88.2096341378355,21.653544,,,728.1354501376,1.968504,0,0.3760826892,1.92650268632,27,10,21.9345,728.7916181376,22.309712,0.447388,0.4308235046,0,0,0,274, 0.5, -2.1,0,0,1024,1024,472,1024,0,0,-84,0,0,0,0,57,,,,,,,8.948,109.76,728.1354501376,21.653544,6,P-GPS,
9600,2023-10-01 21:42:47,40.0688825704463,-88.2096341280759,21.653544,,,728.1354501376,1.64042,0,0.37530841096,1.9310532114,27,10,21.9345,728.7916181376,22.309712,0.447388,0.4308235046,0,0,0,273.8, 0.5, -2,0,0,1024,1024,894,1024,0,0,-20,0,0,0,0,57,,,,,,,8.948,109.76,728.1354501376,21.653544,6,P-GPS,
9700,2023-10-01 21:42:47,40.0688825535583,-88.209634228791,21.653544,,,728.1354501376,1.64042,0,0.39789371352,1.9598425824,27,10,21.9215,728.7916181376,22.309712,0.447388,0.4308235046,0,0,0,273.7, 0.4, -2.2,0,0,1024,1024,1024,1024,0,0,0,0,0,0,0,56,,,,,,,8.843,109.76,728.1354501376,21.653544,6,P-GPS,
9800,2023-10-01 21:42:48,40.0688825891189,-88.2096342318473,21.653544,,,728.1354501376,1.64042,0,0.40424213892,1.97284455132,27,10,21.9215,728.7916181376,22.309712,0.447388,0.4308235046,0,0,0,273.8, 0.6, -2.4,0,0,1024,1024,1024,1024,0,0,0,0,0,0,0,56,,,,,,,8.843,109.76,728.1354501376,21.653544,6,P-GPS,
9900,2023-10-01 21:42:48,40.0688826351298,-88.2096342322182,21.653544,,,728.1354501376,1.64042,0,0.4120406956,1.9896326096,27,10,21.9215,728.7916181376,22.309712,0.447388,0.4308235046,0,0,0,273.9, 0.8, -2.6,0,0,1024,1024,1024,1024,0,0,0,0,0,0,0,56,,,,,,,8.843,109.76,728.1354501376,21.653544,6,P-GPS,
10000,2023-10-01 21:42:48,40.0688826501929,-88.2096343542292,21.653544,,,728.1354501376,1.64042,0,0.44477363628,2.02413720388,27,10,21.9215,728.7916181376,22.309712,0.447388,0.44477363628,0,0,0,274.1, 0.8, -3,0,0,1024,1024,1024,1024,0,0,0,0,0,0,0,56,,,,,,,8.843,109.76,728.1354501376,21.653544,6,P-GPS,
10100,2023-10-01 21:42:48,40.0688826775352,-88.209634354276,21.653544,,,728.1354501376,1.968504,0,0.44938649732,2.03411423832,27,10,21.9215,728.7916181376,22.309712,0.447388,0.44938649732,0,0,0,274.4, 0.8, -3.1,0,0,1024,1024,872,1024,0,0,-23,0,0,0,0,56,,,,,,,8.843,109.76,728.1354501376,21.653544,6,P-GPS,
10200,2023-10-01 21:42:48,40.0688827024505,-88.2096343582605,21.653544,,,728.1354501376,1.64042,0,0.45470145812,2.04327106276,27,10,21.9215,728.7916181376,22.309712,0.447388,0.45470145812,0,0,0,274.6, 0.7, -3,0,0,1024,1024,399,1024,0,0,-95,0,0,0,0,56,,,,,,,8.843,109.76,728.1354501376,21.653544,6,P-GPS,
10300,2023-10-01 21:42:48,40.068882721536,-88.209634360707,21.653544,,,728.1354501376,1.312336,0,0.4587106446,2.05026909448,27,10,21.9215,728.7916181376,22.309712,0.447388,0.4587106446,0,0,0,274.9, 0.8, -2.6,0,0,1024,1024,471,1024,0,0,-84,0,0,0,0,56,,,,,,,8.843,109.76,728.1354501376,21.653544,6,P-GPS,
10400,2023-10-01 21:42:48,40.0688827342676,-88.2096344308305,21.653544,,,728.1354501376,1.312336,0,0.4780511964,2.0703904862,27,10,21.9215,728.7916181376,22.309712,0.447388,0.4780511964,0,0,0,274.9, 1.2, -2.3,0,0,1024,1024,1024,1024,0,0,0,0,0,0,0,56,,,,,,,8.843,109.76,728.1354501376,21.653544,6,P-GPS,
10500,2023-10-01 21:42:48,40.0688827229753,-88.209634437769,21.653544,,,728.1354501376,1.64042,0,0.47776904416,2.07494429212,27,10,21.9215,728.7916181376,22.309712,0.447388,0.4780511964,0,0,0,274.8, 1.4, -1.9,0,0,1024,1024,1024,1024,0,0,0,0,0,0,0,56,,,,,,,8.843,109.76,728.1354501376,21.653544,6,P-GPS,
10600,2023-10-01 21:42:48,40.0688826902335,-88.2096344472185,21.653544,,,728.1354501376,1.64042,0,0.47453741676,2.08717854448,27,10,21.9215,728.7916181376,22.309712,0.447388,0.4780511964,0,0,0,274.6, 1.4, -1.4,0,0,1024,1024,1024,1024,0,0,0,0,0,0,0,56,,,,,,,8.843,109.76,728.1354501376,21.653544,6,P-GPS,
10700,2023-10-01 21:42:49,40.0688826272737,-88.2096345576798,21.653544,,,728.1354501376,0.984252,0,0.49276248296,2.12563327012,27,10,21.9215,728.7916181376,22.309712,0.447388,0.49276248296,0,0,0,274.4, 1.1, -1,0,0,1024,1024,630,1024,0,0,-60,0,0,0,0,57,,,,,,,8.843,109.76,728.1354501376,21.653544,6,P-GPS,
10800,2023-10-01 21:42:49,40.0688825842216,-88.2096345759526,21.653544,,,728.1354501376,0.656168,0,0.4915846614,2.14214901868,27,10,21.908,728.7916181376,22.309712,0.447388,0.49276248296,0,0,0,274.2, 0.9, -0.9,0,0,1024,1024,364,1024,0,0,-100,0,0,0,0,56,,,,,,,8.889,109.94,728.1354501376,21.653544,6,P-GPS,
10900,2023-10-01 21:42:49,40.0688825470336,-88.2096345954901,21.653544,,,728.1354501376,0.984252,0,0.49200132808,2.15677172256,27,10,21.908,728.7916181376,22.309712,0.447388,0.49276248296,0,0,0,274, 0.9, -1.1,0,0,1024,1024,364,1024,0,0,-100,0,0,0,0,56,,,,,,,8.889,109.94,728.1354501376,21.653544,6,P-GPS,
11000,2023-10-01 21:42:49,40.0688825172183,-88.2096346136651,21.653544,,,728.1354501376,0.656168,0,0.49331366408,2.16877631612,27,10,21.908,728.7916181376,22.309712,0.447388,0.49331366408,0,0,0,273.8, 1.1, -1.1,0,0,1024,1024,953,1024,0,0,-11,0,0,0,0,56,,,,,,,8.889,109.94,728.1354501376,21.653544,6,P-GPS,
11100,2023-10-01 21:42:49,40.0688824539233,-88.2096347680915,21.653544,,,728.1354501376,0.656168,0,0.52834319276,2.21768707884,27,10,21.908,728.7916181376,22.309712,0.447388,0.52834319276,0,0,0,273.8, 1.4, -0.9,0,0,1024,1024,1024,1024,0,0,0,0,0,0,0,56,,,,,,,8.889,109.94,728.1354501376,21.653544,6,P-GPS,
11200,2023-10-01 21:42:49,40.0688824116324,-88.2096348204024,21.653544,,,728.1354501376,1.64042,0,0.53903545032,2.23893379868,27,10,21.908,728.7916181376,22.309712,0.447388,0.53903545032,0,0,0,273.8, 1.6, -1,0,0,1024,1024,1020,1024,0,0,-1,0,0,0,0,56,,,,,,,8.889,109.94,728.1354501376,21.653544,6,P-GPS,
11300,2023-10-01 21:42:49,40.0688823659892,-88.2096348630724,21.653544,,,728.1354501376,1.312336,0,0.5474737708,2.25940952112,27,10,21.908,728.7916181376,22.309712,0.447388,0.5474737708,0,0,0,273.8, 1.7, -1,0,0,1024,1024,1013,1024,0,0,-2,0,0,0,0,56,,,,,,,8.889,109.94,728.1354501376,21.653544,6,P-GPS,
11400,2023-10-01 21:42:49,40.0688822739856,-88.2096350127522,21.653544,,,728.1354501376,0.984252,0,0.58401904756,2.31301516588,27,10,21.908,728.7916181376,22.309712,0.447388,0.58401904756,0,0,0,273.8, 1.6, -0.9,0,0,1024,1024,903,1024,0,0,-18,0,0,0,0,56,,,,,,,8.889,109.94,728.1354501376,21.653544,6,P-GPS,
11500,2023-10-01 21:42:49,40.0688822470705,-88.2096350382527,21.653544,,,728.1354501376,1.312336,0,0.59011484828,2.32514443136,27,10,21.908,728.7916181376,22.309712,0.447388,0.59011484828,0,0,0,273.8, 1.6, -0.9,0,0,1024,1024,903,1024,0,0,-18,0,0,0,0,56,,,,,,,8.889,109.94,728.1354501376,21.653544,6,P-GPS,
11600,2023-10-01 21:42:49,40.06888222749,-88.2096350579146,21.653544,,,728.1354501376,0.984252,0,0.59497377232,2.334153618,27,10,21.908,728.7916181376,22.309712,0.447388,0.59497377232,0,0,0,273.8, 1.7, -0.8,0,0,1024,1024,364,1024,0,0,-100,0,0,0,0,56,,,,,,,8.889,109.94,728.1354501376,21.653544,6,P-GPS,
11700,2023-10-01 21:42:50,40.068882218358,-88.2096350659527,21.653544,,,728.1354501376,1.312336,0,0.59695868052,2.33816936616,27,10,21.908,728.7916181376,22.309712,0.447388,0.59695868052,0,0,0,273.8, 1.7, -0.8,0,0,1024,1024,364,1024,0,0,-100,0,0,0,0,57,,,,,,,8.889,109.94,728.1354501376,21.653544,6,P-GPS,
11800,2023-10-01 21:42:50,40.0688821927268,-88.2096351349257,21.653544,,,728.1354501376,1.64042,0,0.61557416668,2.359580128,27,10,21.9075,728.7916181376,22.309712,0.447388,0.61557416668,0,0,0,273.8, 1.7, -0.9,0,0,1024,1024,364,1024,0,0,-100,0,0,0,0,56,,,,,,,8.362,109.94,728.1354501376,21.653544,6,P-GPS,
11900,2023-10-01 21:42:50,40.0688822027687,-88.2096351234979,21.653544,,,728.1354501376,1.64042,0,0.61260500648,2.3644357712,27,10,21.9075,728.7916181376,22.309712,0.447388,0.61557416668,0,0,0,273.9, 1.7, -1.1,0,0,1024,1024,364,1024,0,0,-100,0,0,0,0,56,,,,,,,8.362,109.94,728.1354501376,21.653544,6,P-GPS,
12000,2023-10-01 21:42:50,40.0688822213922,-88.2096351062164,21.653544,,,728.1354501376,1.64042,0,0.6082513318,2.37277238564,27,10,21.9075,728.7916181376,22.309712,0.447388,0.61557416668,0,0,0,273.9, 1.6, -1.3,0,0,1024,1024,364,1024,0,0,-100,0,0,0,0,56,,,,,,,8.362,109.94,728.1354501376,21.653544,6,P-GPS,
12100,2023-10-01 21:42:50,40.0688822052579,-88.2096351921597,21.653544,,,728.1354501376,1.312336,0,0.63179463964,2.39747711084,27,10,21.9075,728.7916181376,22.309712,0.447388,0.63179463964,0,0,0,274.1, 1.4, -1.4,0,0,1024,1024,364,1024,0,0,-100,0,0,0,0,56,,,,,,,8.362,109.94,728.1354501376,21.653544,6,P-GPS,
12200,2023-10-01 21:42:50,40.0688822184063,-88.2096351822583,21.653544,,,728.1354501376,1.312336,0,0.62935041384,2.40301516876,27,10,21.9075,728.7916181376,22.309712,0.447388,0.63179463964,0,0,0,274.2, 1.1, -1.4,0,0,1024,1024,364,1024,0,0,-100,0,0,0,0,56,,,,,,,8.362,109.94,728.1354501376,21.653544,6,P-GPS,
12300,2023-10-01 21:42:50,40.0688822292995,-88.2096351732679,21.653544,,,728.1354501376,0.984252,0,0.62713584684,2.40771661248,27,10,21.9075,728.7916181376,22.309712,0.447388,0.63179463964,0,0,0,274.3, 0.9, -1.2,0,0,1024,1024,364,1024,0,0,-100,0,0,0,0,56,,,,,,,8.362,109.94,728.1354501376,21.653544,6,P-GPS,
12400,2023-10-01 21:42:50,40.0688822429682,-88.2096351623952,21.653544,,,728.1354501376,0.984252,0,0.62451117484,2.41355322684,27,10,21.9075,728.7916181376,22.309712,0.447388,0.63179463964,0,0,0,274.3, 1, -1.2,0,0,1024,1024,1097,1024,0,0,11,0,0,0,0,56,,,,,,,8.362,109.94,728.1354501376,21.653544,6,P-GPS,
12500,2023-10-01 21:42:50,40.0688822185225,-88.2096352736062,21.653544,,,728.1354501376,0.984252,0,0.65479988972,2.44585965832,27,10,21.9075,728.7916181376,22.309712,0.447388,0.65479988972,0,0,0,274.4, 1.1, -1.4,0,0,1024,1024,1024,1024,0,0,0,0,0,0,0,56,,,,,,,8.362,109.94,728.1354501376,21.653544,6,P-GPS,
12600,2023-10-01 21:42:50,40.0688822302088,-88.2096352678932,21.653544,,,728.1354501376,1.64042,0,0.65350723876,2.45041346424,27,10,21.9075,728.7916181376,22.309712,0.447388,0.65479988972,0,0,0,274.4, 1.3, -1.6,0,0,1024,1024,1024,1024,0,0,0,0,0,0,0,56,,,,,,,8.362,109.94,728.1354501376,21.653544,6,P-GPS,
12700,2023-10-01 21:42:50,40.0688822352535,-88.2096352573114,21.653544,,,728.1354501376,1.312336,0,0.65069883972,2.45389443548,27,10,21.9075,728.7916181376,22.309712,0.447388,0.65479988972,0,0,0,274.3, 1.4, -1.6,0,0,1024,1024,1024,1024,0,0,0,0,0,0,0,57,,,,,,,8.362,109.94,728.1354501376,21.653544,6,P-GPS,
12800,2023-10-01 21:42:51,40.0688821920242,-88.2096353593759,21.653544,,,728.1354501376,0.656168,0,0.67814306632,2.486466615,27,10,21.89,728.7916181376,22.309712,0.447388,0.67814306632,0,0,0,274.3, 1.4, -1.5,0,0,1024,1024,1024,1024,0,0,0,0,0,0,0,56,,,,,,,8.663,109.94,728.1354501376,21.653544,6,P-GPS,
12900,2023-10-01 21:42:51,40.0688821815892,-88.2096353447895,21.653544,,,728.1354501376,0.984252,0,0.67389109768,2.49204076216,27,10,21.89,728.7916181376,22.309712,0.447388,0.67814306632,0,0,0,274.2, 1.4, -1.4,0,0,1024,1024,1003,1024,0,0,-3,0,0,0,0,56,,,,,,,8.663,109.94,728.1354501376,21.653544,6,P-GPS,
13000,2023-10-01 21:42:51,40.0688821685241,-88.2096353207125,21.653544,,,728.1354501376,0.984252,0,0.6669783678,2.50028223224,27,10,21.89,728.7916181376,22.309712,0.447388,0.67814306632,0,0,0,274.2, 1.3, -1.2,0,0,1024,1024,567,1024,0,0,-69,0,0,0,0,56,,,,,,,8.663,109.94,728.1354501376,21.653544,6,P-GPS,
13100,2023-10-01 21:42:51,40.0688821546559,-88.2096352868464,21.653544,,,728.1354501376,1.64042,0,0.65735238324,2.51100401736,27,10,21.89,728.7916181376,22.309712,0.447388,0.67814306632,0,0,0,274.1, 1.1, -0.9,0,0,1024,1024,364,1085,0,0,-100,9,0,0,0,56,,,,,,,8.663,109.94,728.1354501376,21.653544,6,P-GPS,
13200,2023-10-01 21:42:51,40.0688821303337,-88.2096353248999,21.653544,,,728.1354501376,1.312336,0,0.66775920772,2.52484916216,27,10,21.89,728.7916181376,22.309712,0.447388,0.67814306632,0,0,0,274.1, 1.1, -0.9,0,0,1024,1024,364,1085,0,0,-100,9,0,0,0,56,,,,,,,8.663,109.94,728.1354501376,21.653544,6,P-GPS,
13300,2023-10-01 21:42:51,40.0688821312597,-88.2096353056773,21.653544,,,728.1354501376,0.984252,0,0.66239831516,2.53022645892,27,10,21.89,728.7916181376,22.309712,0.447388,0.67814306632,0,0,0,274.3, 1.3, -0.9,0,0,1024,1024,364,1082,0,0,-100,9,0,0,0,56,,,,,,,8.663,109.94,728.1354501376,21.653544,6,P-GPS,
13400,2023-10-01 21:42:51,40.0688821415518,-88.2096352872956,21.653544,,,728.1354501376,0.984252,0,0.65734582156,2.53658472684,27,10,21.89,728.7916181376,22.309712,0.447388,0.67814306632,0,0,0,274.5, 1.5, -0.9,0,0,1024,1024,364,1091,0,0,-100,10,0,0,0,56,,,,,,,8.663,109.94,728.1354501376,21.653544,6,P-GPS,
13500,2023-10-01 21:42:51,40.0688821478689,-88.2096353668389,21.653544,,,728.1354501376,1.312336,0,0.67960632096,2.55891412388,27,10,21.89,728.7916181376,22.309712,0.447388,0.67960632096,0,0,0,274.7, 1.6, -0.9,0,0,1024,1024,364,1091,0,0,-100,10,0,0,0,56,,,,,,,8.663,109.94,728.1354501376,21.653544,6,P-GPS,
13600,2023-10-01 21:42:51,40.0688821653065,-88.2096353463375,21.653544,,,728.1354501376,1.64042,0,0.67408466724,2.56747383544,27,10,21.89,728.7916181376,22.309712,0.447388,0.67960632096,0,0,0,275, 1.5, -0.9,0,0,1024,1024,364,1091,0,0,-100,10,0,0,0,56,,,,,,,8.663,109.94,728.1354501376,21.653544,6,P-GPS,
13700,2023-10-01 21:42:51,40.0688821861843,-88.2096353188033,21.653544,,,728.1354501376,1.968504,0,0.66672246228,2.57829404576,27,10,21.89,728.7916181376,22.309712,0.447388,0.67960632096,0,0,0,275.3, 1.5, -1.1,0,0,1024,1024,364,1092,0,0,-100,10,0,0,0,57,,,,,,,8.663,109.94,728.1354501376,21.653544,6,P-GPS,
13800,2023-10-01 21:42:52,40.068882212365,-88.2096352931996,21.653544,,,728.1354501376,1.64042,0,0.66011485052,2.59022646084,27,10,21.89,728.7916181376,22.309712,0.447388,0.67960632096,0,0,0,275.7, 1.6, -1.5,0,0,1024,1024,364,1093,0,0,-100,10,0,0,0,57,,,,,,,8.663,109.94,728.1354501376,21.653544,6,P-GPS,
13900,2023-10-01 21:42:52,40.0688822215347,-88.2096353660755,21.653544,,,728.1354501376,1.64042,0,0.68063322388,2.61084654024,27,10,21.89,728.7916181376,22.309712,0.447388,0.68063322388,0,0,0,276, 1.7, -1.7,0,0,1024,1024,364,1090,0,0,-100,10,0,0,0,57,,,,,,,8.663,109.94,728.1354501376,21.653544,6,P-GPS,
14000,2023-10-01 21:42:52,40.0688822409625,-88.2096353416922,21.653544,,,728.1354501376,1.312336,0,0.67435041528,2.62067593688,27,10,21.89,728.7916181376,22.309712,0.447388,0.68063322388,0,0,0,276.3, 1.8, -1.8,0,0,1024,1024,364,1091,0,0,-100,10,0,0,0,57,,,,,,,8.663,109.94,728.1354501376,21.653544,6,P-GPS,
14100,2023-10-01 21:42:52,40.0688822511172,-88.2096353160206,21.653544,,,728.1354501376,1.312336,0,0.6675033022,2.62874352244,27,10,21.89,728.7916181376,22.309712,0.447388,0.68063322388,0,0,0,276.7, 1.8, -1.8,0,0,1024,1024,364,1092,0,0,-100,10,0,0,0,57,,,,,,,8.663,109.94,728.1354501376,21.653544,6,P-GPS,
14200,2023-10-01 21:42:52,40.0688822049613,-88.2096354073115,21.653544,,,728.1354501376,1.312336,0,0.69175855232,2.65929142368,27,10,21.89,728.7916181376,22.309712,0.447388,0.69175855232,0,0,0,277.1, 1.8, -1.6,0,0,1024,1024,364,1087,0,0,-100,10,0,0,0,57,,,,,,,8.663,109.94,728.1354501376,21.653544,33,Confirm_Landing,
14300,2023-10-01 21:42:52,40.0688821927095,-88.2096353689485,21.653544,,,728.1354501376,1.312336,0,0.6808235126,2.6708990356,27,10,21.89,728.7916181376,22.309712,0.447388,0.69175855232,0,0,0.223694,277.5, 1.6, -1.5,0,0,1024,1024,364,1102,0,0,-100,12,0,0,0,57,,,,,,,8.663,109.94,728.1354501376,21.653544,33,Confirm_Landing,
14400,2023-10-01 21:42:52,40.0688821787585,-88.2096353355846,21.653544,,,728.1354501376,1.312336,0,0.67127954904,2.68151583384,27,10,21.89,728.7916181376,22.309712,0.447388,0.69175855232,0,0,0.223694,277.9, 1.6, -1.5,0,0,1024,1024,364,1110,0,0,-100,13,0,0,0,57,,,,,,,8.663,109.94,728.1354501376,21.653544,33,Confirm_Landing,
14500,2023-10-01 21:42:52,40.0688821632384,-88.2096353008539,21.32546,,,727.8073661376,0.984252,0,0.66136485056,2.69274286832,27,10,21.89,728.7916181376,22.309712,0.447388,0.69175855232,0,0,0.447388,278.3, 1.5, -1.4,0,0,1024,1024,364,1110,0,0,-100,13,0,0,0,57,,,,,,,8.663,109.94,727.8073661376,21.32546,33,Confirm_Landing,
14600,2023-10-01 21:42:52,40.0688821180425,-88.2096353390566,21.32546,,,727.8073661376,0.984252,0,0.67164700312,2.71238197656,27,10,21.89,728.7916181376,22.309712,0.447388,0.69175855232,0,0,0.447388,278.8, 1.6, -1.3,0,0,1024,1024,364,1111,0,0,-100,13,0,0,0,57,,,,,,,8.663,109.94,727.8073661376,21.32546,33,Confirm_Landing,
14700,2023-10-01 21:42:52,40.0688820927009,-88.2096353079858,21.32546,,,727.8073661376,1.312336,0,0.66293965376,2.72506242316,27,10,21.8745,728.7916181376,22.309712,0.447388,0.69175855232,0,0,0.447388,279.2, 1.6, -1.2,0,0,1024,1024,364,1102,0,0,-100,12,0,0,0,56,,,,,,,8.633,109.94,727.8073661376,21.32546,33,Confirm_Landing,
14800,2023-10-01 21:42:53,40.0688820686602,-88.2096352747015,21.32546,,,727.8073661376,1.64042,0,0.65373361672,2.73784129496,27,10,21.8745,728.7916181376,22.309712,0.447388,0.69175855232,0,0,0.671082,279.7, 1.6, -1,0,0,1024,1024,364,1095,0,0,-100,11,0,0,0,56,,,,,,,8.633,109.94,727.8073661376,21.32546,33,Confirm_Landing,
14900,2023-10-01 21:42:53,40.0688819925127,-88.2096353279619,20.997376,,,727.4792821376,1.968504,0,0.66963256736,2.76935376316,27,10,21.8745,728.7916181376,22.309712,0.447388,0.69175855232,0,0,0.671082,280.2, 1.6, -1.2,0,0,1024,1024,364,1024,0,0,-100,0,0,0,0,56,,,,,,,8.633,109.94,727.4792821376,20.997376,33,Confirm_Landing,
15000,2023-10-01 21:42:53,40.068881972906,-88.2096352788847,20.997376,,,727.4792821376,1.968504,0,0.656414063,2.7848098004,27,10,21.8745,728.7916181376,22.309712,0.447388,0.69175855232,0,0,0.671082,280.6, 1.5, -1.4,0,0,1024,1024,364,1024,0,0,-100,0,0,0,0,56,,,,,,,8.633,109.94,727.4792821376,20.997376,33,Confirm_Landing,
15100,2023-10-01 21:42:53,40.0688819462057,-88.2096352229113,20.669292,,,727.1511981376,2.296588,0,0.64159450872,2.80322515532,27,10,21.8745,728.7916181376,22.309712,0.447388,0.69175855232,0,0,0.894776,280.8, 1.4, -1.6,0,0,1024,1024,364,1024,0,0,-100,0,0,0,0,56,,,,,,,8.633,109.94,727.1511981376,20.669292,33,Confirm_Landing,
15200,2023-10-01 21:42:53,40.0688819376505,-88.209635186498,20.669292,,,727.1511981376,2.296588,0,0.63175198872,2.8138616386,27,10,21.8745,728.7916181376,22.309712,0.447388,0.69175855232,0,0,0.894776,280.9, 1.5, -1.7,0,0,1024,1024,364,1024,0,0,-100,0,0,0,0,56,,,,,,,8.633,109.94,727.1511981376,20.669292,33,Confirm_Landing,
15300,2023-10-01 21:42:53,40.0688819042922,-88.2096352503114,20.341208,,,726.8231141376,2.624672,0,0.6507054014,2.83543972328,27,10,21.8745,728.7916181376,22.309712,0.447388,0.69175855232,0,0,1.11847,280.9, 1.5, -1.7,0,0,1024,1024,364,988,0,0,-100,-5,0,0,0,56,,,,,,,8.633,109.94,726.8231141376,20.341208,33,Confirm_Landing,
15400,2023-10-01 21:42:53,40.0688818696356,-88.2096352241035,20.341208,,,726.8231141376,2.952756,0,0.6449475272,2.85004602296,27,10,21.8745,728.7916181376,22.309712,0.447388,0.69175855232,0,0,1.11847,280.9, 1.6, -1.6,0,0,1024,1024,364,1000,0,0,-100,-4,0,0,0,56,,,,,,,8.633,109.94,726.8231141376,20.341208,33,Confirm_Landing,
15500,2023-10-01 21:42:53,40.0688818050336,-88.2096351953288,20.013124,,,726.4950301376,3.28084,0,0.64049870816,2.8749508794,27,10,21.8745,728.7916181376,22.309712,0.447388,0.69175855232,0,0,1.11847,280.9, 1.6, -1.1,0,0,1024,1024,364,1000,0,0,-100,-4,0,0,0,56,,,,,,,8.633,109.94,726.4950301376,20.013124,33,Confirm_Landing,
15600,2023-10-01 21:42:53,40.0688817040684,-88.2096352780303,20.013124,,,726.4950301376,3.28084,0,0.67021327604,2.91842529024,27,10,21.8745,728.7916181376,22.309712,0.447388,0.69175855232,0,0,1.342164,280.7, 1.5, -0.9,0,0,1024,1024,1005,1042,0,0,-3,3,0,0,0,56,,,,,,,8.633,109.94,726.4950301376,20.013124,33,Confirm_Landing,
15700,2023-10-01 21:42:53,40.0688816805742,-88.2096352516292,19.68504,,,726.1669461376,3.608924,0,0.6649278428,2.92973106488,27,10,21.8745,728.7916181376,22.309712,0.447388,0.69175855232,0,0,1.342164,280.2, 1.5, -0.9,0,0,1024,1024,973,1024,0,0,-8,0,0,0,0,57,,,,,,,8.633,109.94,726.1669461376,19.68504,33,Confirm_Landing,
15800,2023-10-01 21:42:54,40.0688816573157,-88.2096352215466,19.356956,,,725.8388621376,3.608924,0,0.65877954864,2.94167004164,27,10,21.8745,728.7916181376,22.309712,0.447388,0.69175855232,0,0,1.565858,280.1, 1.4, -1,0,0,1024,1024,1024,1024,0,0,0,0,0,0,0,57,,,,,,,8.633,109.94,725.8388621376,19.356956,33,Confirm_Landing,
15900,2023-10-01 21:42:54,40.0688816349905,-88.2096351780528,19.356956,,,725.8388621376,3.608924,0,0.64908466644,2.95629274552,27,10,21.8745,728.7916181376,22.309712,0.447388,0.69175855232,0,0,1.565858,280.1, 1.4, -1.2,0,0,1024,1024,1024,1024,0,0,0,0,0,0,0,57,,,,,,,8.633,109.94,725.8388621376,19.356956,33,Confirm_Landing,
16000,2023-10-01 21:42:54,40.0688815880902,-88.2096351853768,19.028872,,,725.5107781376,3.937008,0,0.65571196324,2.97352699804,27,10,21.8745,728.7916181376,22.309712,0.447388,0.69175855232,0,0,1.565858,280.1, 1.4, -1.3,0,0,1024,1024,1024,1024,0,0,0,0,0,0,0,57,,,,,,,8.633,109.94,725.5107781376,19.028872,33,Confirm_Landing,
16100,2023-10-01 21:42:54,40.068881561812,-88.2096351545406,18.700788,,,725.1826941376,4.265092,0,0.65028545388,2.98641085672,27,10,21.8745,728.7916181376,22.309712,0.447388,0.69175855232,0,0,1.565858,280.2, 1.4, -1.2,0,0,1024,1024,1024,1024,0,0,0,0,0,0,0,57,,,,,,,8.633,109.94,725.1826941376,18.700788,33,Confirm_Landing,
16200,2023-10-01 21:42:54,40.068881514121,-88.2096351327921,18.372704,,,724.8546101376,4.593176,0,0.64999673996,3.00484261584,27,10,21.8745,728.7916181376,22.309712,0.447388,0.69175855232,0,0,1.789552,280.3, 1.6, -1,0,0,1024,1024,1024,1024,0,0,0,0,0,0,0,57,,,,,,,8.633,109.94,724.8546101376,18.372704,33,Confirm_Landing,
16300,2023-10-01 21:42:54,40.0688813882546,-88.2096351907349,18.04462,,,724.5265261376,4.92126,0,0.68141078296,3.05353028144,27,10,21.8745,728.7916181376,22.309712,0.447388,0.69175855232,0,0,1.789552,280.3, 1.6, -0.8,0,0,1024,1024,1024,1024,0,0,0,0,0,0,0,57,,,,,,,8.633,109.94,724.5265261376,18.04462,33,Confirm_Landing,
16400,2023-10-01 21:42:54,40.0688813501415,-88.2096351501616,18.04462,,,724.5265261376,4.92126,0,0.67644031036,3.07146663372,27,10,21.8745,728.7916181376,22.309712,0.447388,0.69175855232,0,0,2.013246,280.3, 1.4, -0.9,0,0,1024,1024,1024,1024,0,0,0,0,0,0,0,57,,,,,,,8.633,109.94,724.5265261376,18.04462,33,Confirm_Landing,
16500,2023-10-01 21:42:54,40.0688813216905,-88.2096351021308,17.716536,,,724.1984421376,5.577428,0,0.66852692428,3.08842529568,27,10,21.8745,728.7916181376,22.309712,0.447388,0.69175855232,0,0,2.013246,280.3, 1.3, -0.9,0,0,1024,1024,1024,1024,0,0,0,0,0,0,0,57,,,,,,,8.633,109.94,724.1984421376,17.716536,33,Confirm_Landing,
16600,2023-10-01 21:42:54,40.0688812854972,-88.2096350668352,17.388452,,,723.8703581376,5.905512,0,0.66539700292,3.10490167416,27,10,21.8745,728.7916181376,22.309712,0.447388,0.69175855232,0,0,2.013246,280.2, 1.5, -0.8,0,0,1024,1024,1024,1024,0,0,0,0,0,0,0,57,,,,,,,8.633,109.94,723.8703581376,17.388452,33,Confirm_Landing,
16700,2023-10-01 21:42:55,40.0688811813245,-88.2096351515768,17.060368,,,723.5422741376,5.905512,0,0.70391078368,3.1496720168,27,10,21.883,728.7916181376,22.309712,0.447388,0.70391078368,0,0,2.013246,280.2, 1.5, -0.5,0,0,1024,1024,1024,1024,0,0,0,0,0,0,0,56,,,,,,,8.078,109.94,723.5422741376,17.060368,33,Confirm_Landing,
16800,2023-10-01 21:42:55,40.0688811375946,-88.2096351095427,16.732284,,,723.2141901376,6.233596,0,0.70144687284,3.16947844788,27,10,21.883,728.7916181376,22.309712,0.447388,0.70391078368,0,0,2.013246,280.2, 1.6, -0.5,0,0,1024,1024,1024,1024,0,0,0,0,0,0,0,56,,,,,,,8.078,109.94,723.2141901376,16.732284,33,Confirm_Landing,
16900,2023-10-01 21:42:55,40.068881097625,-88.2096350425391,16.4042,,,722.8861061376,6.56168,0,0.6928805996,3.19319892108,27,10,21.883,728.7916181376,22.309712,0.447388,0.70391078368,0,0,2.013246,280.1, 1.5, -0.6,0,0,1024,1024,1024,1024,0,0,0,0,0,0,0,56,,,,,,,8.078,109.94,722.8861061376,16.4042,33,Confirm_Landing,
17000,2023-10-01 21:42:55,40.0688810162066,-88.2096350544232,16.076116,,,722.5580221376,6.889764,0,0.7117454296,3.22309065432,27,10,21.883,728.7916181376,22.309712,0.447388,0.7117454296,0,0,2.013246,280.1, 1.2, -0.6,0,0,1024,1024,1024,1024,0,0,0,0,0,0,0,56,,,,,,,8.078,109.94,722.5580221376,16.076116,33,Confirm_Landing,
17100,2023-10-01 21:42:55,40.0688809952832,-88.2096349641721,15.748032,,,722.2299381376,7.217848,0,0.69531498288,3.24941939532,27,10,21.883,728.7916181376,22.309712,0.447388,0.7117454296,0,0,2.23694,280.1, 1, -0.5,0,0,1024,1024,1024,1024,0,0,0,0,0,0,0,56,,,,,,,8.078,109.94,722.2299381376,15.748032,33,Confirm_Landing,
17200,2023-10-01 21:42:55,40.0688809782863,-88.2096348664262,15.419948,,,721.9018541376,7.217848,0,0.67697508728,3.27740496052,27,10,21.883,728.7916181376,22.309712,0.447388,0.7117454296,0,0,2.23694,280.1, 1, -0.3,0,0,1024,1024,1024,1024,0,0,0,0,0,0,0,56,,,,,,,8.078,109.94,721.9018541376,15.419948,33,Confirm_Landing,
17300,2023-10-01 21:42:55,40.0688809687201,-88.2096347476142,15.091864,,,721.5737701376,7.545932,0,0.6530347978,3.3107612608,27,10,21.883,728.7916181376,22.309712,0.447388,0.7117454296,0,0,2.23694,280, 1, -0.2,0,0,1024,1024,1024,1024,0,0,0,0,0,0,0,56,,,,,,,8.078,109.94,721.5737701376,15.091864,33,Confirm_Landing,
17400,2023-10-01 21:42:55,40.0688809268509,-88.20963468971,14.76378,,,721.2456861376,7.545932,0,0.65051511268,3.333005356,27,10,21.883,728.7916181376,22.309712,0.447388,0.7117454296,0,0,2.23694,280, 1, -0.1,0,0,1024,1024,1024,1024,0,0,0,0,0,0,0,56,,,,,,,8.078,109.94,721.2456861376,14.76378,33,Confirm_Landing,
17500,2023-10-01 21:42:55,40.0688808930769,-88.2096346223033,14.435696,,,720.9176021376,7.545932,0,0.64479004688,3.3555119184,27,10,21.883,728.7916181376,22.309712,0.447388,0.7117454296,0,0,2.23694,280, 1, -0.3,0,0,1024,1024,1024,1024,0,0,0,0,0,0,0,56,,,,,,,8.078,109.94,720.9176021376,14.435696,33,Confirm_Landing,
17600,2023-10-01 21:42:55,40.0688808693419,-88.2096345625193,14.107612,,,720.5895181376,7.874016,0,0.63873689708,3.3743111316,27,10,21.883,728.7916181376,22.309712,0.447388,0.7117454296,0,0,2.23694,280, 1, -0.2,0,0,1024,1024,1024,1024,0,0,0,0,0,0,0,56,,,,,,,8.078,109.94,720.5895181376,14.107612,33,Confirm_Landing,
17700,2023-10-01 21:42:56,40.0688807766291,-88.2096346222563,13.779528,,,720.2614341376,7.874016,0,0.67447836804,3.4120079832,27,10,21.883,728.7916181376,22.309712,0.447388,0.7117454296,0,0,2.23694,280, 1.1, -0.2,0,0,1024,1024,1675,1024,0,0,99,0,0,0,0,57,,,,,,,8.078,109.94,720.2614341376,13.779528,33,Confirm_Landing,
17800,2023-10-01 21:42:56,40.0688807614373,-88.2096345677057,13.451444,,,719.9333501376,7.874016,0,0.66795933896,3.4282153328,27,10,21.883,728.7916181376,22.309712,0.447388,0.7117454296,0,0,2.23694,280.1, 1.1, -0.1,0,0,1024,1024,1684,1084,0,0,100,9,0,0,0,57,,,,,,,8.078,109.94,719.9333501376,13.451444,33,Confirm_Landing,
17900,2023-10-01 21:42:56,40.0688807527482,-88.2096345065203,13.12336,,,719.6052661376,7.874016,0,0.65876642528,3.4456037848,27,10,21.883,728.7916181376,22.309712,0.447388,0.7117454296,0,0,2.013246,280.1, 1, 0,0,0,1024,1024,1684,1033,0,0,100,1,0,0,0,57,,,,,,,8.078,109.94,719.6052661376,13.12336,6,P-GPS,
18000,2023-10-01 21:42:56,40.0688807525352,-88.2096344533695,12.795276,,,719.2771821376,7.874016,0,0.64902889216,3.4604331816,27,10,21.883,728.7916181376,22.309712,0.447388,0.7117454296,0,0,1.565858,280.1, 1.4, -0.1,0,0,1024,1024,1684,1024,0,0,100,0,0,0,0,57,,,,,,,8.078,109.94,719.2771821376,12.795276,6,P-GPS,
18100,2023-10-01 21:42:56,40.0688807120588,-88.2096345098135,12.467192,,,718.9490981376,8.2021,0,0.67050855164,3.4820539172,27,10,21.883,728.7916181376,22.309712,0.447388,0.7117454296,0,0,0.894776,280, 1.7, -0.3,0,0,1024,1024,1684,1024,0,0,100,0,0,0,0,57,,,,,,,8.078,109.94,718.9490981376,12.467192,6,P-GPS,
18200,2023-10-01 21:42:56,40.0688807252326,-88.2096344284169,12.467192,,,718.9490981376,8.2021,0,0.6521161626,3.5052822644,27,10,21.883,728.7916181376,22.309712,0.447388,0.7117454296,0,0,0,279.8, 1.7, -0.4,0,0,1024,1024,1684,1108,0,0,100,13,0,0,0,57,,,,,,,8.078,109.94,718.9490981376,12.467192,6,P-GPS,
18300,2023-10-01 21:42:56,40.0688807454948,-88.2096343088976,12.467192,,,718.9490981376,8.530184,0.223694,0.62542981004,3.5394358088,27,10,21.883,728.7916181376,22.309712,0.447388,0.7117454296,0,0.223694,-0.671082,279.6, 1.6, -0.6,0,0,1024,1024,1024,1024,0,0,0,0,0,0,0,57,,,,,,,8.078,109.94,718.9490981376,12.467192,6,P-GPS,
18400,2023-10-01 21:42:56,40.0688806934484,-88.2096342694826,12.467192,,,718.9490981376,8.530184,0.223694,0.6339895216,3.5613846284,27,10,21.883,728.7916181376,22.309712,0.447388,0.7117454296,0,0.223694,-1.342164,279.7, 1.2, -0.6,0,0,1024,1024,1024,1024,0,0,0,0,0,0,0,57,,,,,,,8.078,109.94,718.9490981376,12.467192,6,P-GPS,
18500,2023-10-01 21:42:56,40.0688806794589,-88.2096341376819,12.795276,,,719.2771821376,8.530184,0.223694,0.61733597776,3.5985565456,27,10,21.883,728.7916181376,22.309712,0.447388,0.7117454296,0,0.223694,-1.342164,279.7, 0.2, -0.5,0,0,1024,1024,1024,1024,0,0,0,0,0,0,0,57,,,,,,,8.078,109.94,719.2771821376,12.795276,6,P-GPS,
18600,2023-10-01 21:42:56,40.0688806792806,-88.2096340407142,13.12336,,,719.6052661376,8.858268,0,0.60307416628,3.6256234756,27,10,21.883,728.7916181376,22.309712,0.447388,0.7117454296,0,0,-1.11847,279.7, 0, -0.2,0,0,1024,1024,1024,1024,0,0,0,0,0,0,0,57,,,,,,,8.078,109.94,719.6052661376,13.12336,6,P-GPS,
18700,2023-10-01 21:42:56,40.0688807006049,-88.2096339624149,13.12336,,,719.6052661376,8.530184,0,0.58537731532,3.6488190144,27,10,21.7205,728.7916181376,22.309712,0.447388,0.7117454296,0,0,-0.894776,279.7, 0.3, 0,0,0,1024,1024,1024,1024,0,0,0,0,0,0,0,56,,,,,,,14.458,109.94,719.6052661376,13.12336,6,P-GPS,
18800,2023-10-01 21:42:57,40.0688807238951,-88.2096339489895,13.451444,,,719.9333501376,8.2021,0,0.57613518904,3.6581037916,27,10,21.7205,728.7916181376,22.309712,0.447388,0.7117454296,0,0,-0.671082,279.7, 0.7, 0,0,0,1024,1024,1024,1024,0,0,0,0,0,0,0,56,,,,,,,14.458,109.94,719.9333501376,13.451444,6,P-GPS,
18900,2023-10-01 21:42:57,40.0688807840899,-88.2096338496486,13.451444,,,719.9333501376,8.2021,0,0.54353020112,3.6935040552,27,10,21.7205,728.7916181376,22.309712,0.447388,0.7117454296,0,0,-0.447388,279.7, 0.8, -0.3,0,0,1024,1024,1024,1024,0,0,0,0,0,0,0,56,,,,,,,14.458,109.94,719.9333501376,13.451444,6,P-GPS,
19000,2023-10-01 21:42:57,40.0688808426582,-88.2096337761563,13.451444,,,719.9333501376,7.874016,0,0.51508203748,3.7231300404,28,10,21.7205,728.7916181376,22.309712,0.447388,0.7117454296,0,0,-0.447388,279.8, 0.8, -0.6,0,0,1024,1024,1024,1024,0,0,0,0,0,0,0,56,,,,,,,14.458,109.94,719.9333501376,13.451444,6,P-GPS,
19100,2023-10-01 21:42:57,40.0688808917365,-88.2096337938321,13.451444,,,719.9333501376,7.874016,0,0.50156497668,3.7416995948,28,10,21.7205,728.7916181376,22.309712,0.447388,0.7117454296,0,0,-0.223694,279.8, 0.7, -0.7,0,0,1024,1024,1024,1024,0,0,0,0,0,0,0,56,,,,,,,14.458,109.94,719.9333501376,13.451444,6,P-GPS,
