time(millisecond),datetime(utc),latitude,longitude,height_above_takeoff(feet),height_above_ground_at_drone_location(feet),ground_elevation_at_drone_location(feet),altitude_above_seaLevel(feet),height_sonar(feet),speed(mph),distance(feet),mileage(feet),satellites,gpslevel,voltage(v),max_altitude(feet),max_ascent(feet),max_speed(mph),max_distance(feet), xSpeed(mph), ySpeed(mph), zSpeed(mph), compass_heading(degrees), pitch(degrees), roll(degrees),isPhoto,isVideo,rc_elevator,rc_aileron,rc_throttle,rc_rudder,rc_elevator(percent),rc_aileron(percent),rc_throttle(percent),rc_rudder(percent),gimbal_heading(degrees),gimbal_pitch(degrees),gimbal_roll(degrees),battery_percent,voltageCell1,voltageCell2,voltageCell3,voltageCell4,voltageCell5,voltageCell6,current(A),battery_temperature(f),altitude(feet),ascent(feet),flycStateRaw,flycState,message
0,2023-10-01 20:12:25,40.0688916552825,-88.2094941590752,0,Available with any HD 360 subscription,Available with any HD 360 subscription,706.75534282614,0.656168,0,0,0,26,10,0,706.75534282614,0,0,0,0,0,0,14.1, -0.3, -0.5,0,0,1024,1024,1024,1024,0,0,0,0,0,0,0,100,,,,,,,0,92.12,706.75534282614,0,41,Motors_Started,"GEO: You are in a Warning Zone (Airport). Fly with caution."
100,2023-10-01 20:12:25,40.0688916614766,-88.2094941453048,0,,,706.75534282614,0.656168,0,0.004459809854,0.004459809854,26,10,0,706.75534282614,0,0,0.004459809854,0,0,0,14.1, -0.3, -0.5,0,0,364,364,364,1684,-100,-100,-100,100,0,0,0,100,,,,,,,0,92.12,706.75534282614,0,41,Motors_Started,
200,2023-10-01 20:12:25,40.0688916404012,-88.209494189148,0,,,706.75534282614,0.656168,0,0.0099990816848,0.0189159126788,26,10,0,706.75534282614,0,0,0.0099990816848,0,0,0,14.1, -0.3, -0.5,0,0,364,364,364,1684,-100,-100,-100,100,0,0,0,100,,,,,,,0,92.12,706.75534282614,0,41,Motors_Started,
300,2023-10-01 20:12:25,40.0688916437066,-88.2094941754982,0,,,706.75534282614,0.656168,0,0.006234088126,0.0229132881348,26,10,0,706.75534282614,0,0,0.0099990816848,0,0,0,14.1, -0.3, -0.5,0,0,364,364,364,1684,-100,-100,-100,100,0,0,0,100,,,,,,,0,92.12,706.75534282614,0,41,Motors_Started,
400,2023-10-01 20:12:25,40.0688916449319,-88.2094941709211,0,,,706.75534282614,0.656168,0,0.0050200460924,0.0242671923776,26,10,0,706.75534282614,0,0,0.0099990816848,0,0,0,14.1, -0.3, -0.5,0,0,788,790,562,1428,-36,-35,-70,61,0,0,0,100,,,,,,,0,92.12,706.75534282614,0,41,Motors_Started,
500,2023-10-01 20:12:25,40.0688916466021,-88.2094941637183,0,,,706.75534282614,0.656168,0,0.003422080162,0.026368603206,26,10,0,706.75534282614,0,0,0.0099990816848,0,0,0,14.1, -0.3, -0.5,0,0,1024,1024,1024,1024,0,0,0,0,0,0,0,100,,,,,,,0,92.12,706.75534282614,0,41,Motors_Started,"Setting new Return-To-Home altitude to 100m (328 ft). Data Recorder File Index is 23. Setting new Maximum Flight Altitude to 120m (394 ft)"
600,2023-10-01 20:12:25,40.0688916249605,-88.2094942179301,0,,,706.75534282614,0.656168,0,0.0198097447284,0.043440618188,26,10,0,706.75534282614,0,0,0.0198097447284,0,0,0,14.1, -0.3, -0.5,0,0,1024,1024,1024,1024,0,0,0,0,0,0,0,100,,,,,,,0,92.12,706.75534282614,0,41,Motors_Started,
700,2023-10-01 20:12:25,40.0688916282224,-88.2094942061951,0,,,706.75534282614,0.656168,0,0.0164487538072,0.046926510688,26,10,0,706.75534282614,0,0,0.0198097447284,0,0,0,14.1, -0.3, -0.5,0,0,1024,1024,1024,1024,0,0,0,0,0,0,0,100,,,,,,,0,92.12,706.75534282614,0,41,Motors_Started,
800,2023-10-01 20:12:25,40.0688916323775,-88.2094941923331,0,,,706.75534282614,0.656168,0,0.01249261851,0.051083334968,26,10,0,706.75534282614,0,0,0.0198097447284,0,0,0,14.1, -0.3, -0.5,0,0,1024,1024,1024,1024,0,0,0,0,0,0,0,100,,,,,,,0,92.12,706.75534282614,0,41,Motors_Started,
900,2023-10-01 20:12:25,40.0688916299613,-88.2094942039752,0,,,706.75534282614,0.656168,0,0.0155727695272,0.054451445312,26,10,0,706.75534282614,0,0,0.0198097447284,0,0,0,14.1, -0.3, -0.5,0,0,1024,1024,1024,1024,0,0,0,0,0,0,0,100,,,,,,,0,92.12,706.75534282614,0,41,Motors_Started,
1000,2023-10-01 20:12:26,40.0688916323422,-88.2094941862414,0,,,706.75534282614,0.656168,0,0.0112953743772,0.05947834836,26,10,0,706.75534282614,0,0,0.0198097447284,0,0,0,14.1, -0.3, -0.5,0,0,1024,1024,1024,1024,0,0,0,0,0,0,0,100,,,,,,,0,92.12,706.75534282614,0,41,Motors_Started,
1100,2023-10-01 20:12:26,40.0688916345768,-88.2094941663733,0,,,706.75534282614,0.656168,0,0.0078244425076,0.06508530392,26,10,0,706.75534282614,0,0,0.0198097447284,0,0,0,14.1, -0.3, -0.5,0,0,1024,1024,1024,1024,0,0,0,0,0,0,0,100,,,,,,,0,92.12,706.75534282614,0,41,Motors_Started,
1200,2023-10-01 20:12:26,40.0688916393596,-88.2094941545785,0,,,706.75534282614,0.656168,0,0.005943569744,0.06881233816,26,10,0,706.75534282614,0,0,0.0198097447284,0,0,0,14, -0.3, -0.5,0,0,1024,1024,1024,1024,0,0,0,0,0,0,0,100,,,,,,,0,92.12,706.75534282614,0,41,Motors_Started,
1300,2023-10-01 20:12:26,40.0688916272404,-88.2094941937378,0,,,706.75534282614,0.656168,0,0.0140833994008,0.080606301792,26,10,0,706.75534282614,0,0,0.0198097447284,0,0,0,14, -0.2, -0.5,0,0,1024,1024,1024,1024,0,0,0,0,0,0,0,100,,,,,,,0,92.12,706.75534282614,0,41,Motors_Started,
1400,2023-10-01 20:12:26,40.0688916325042,-88.2094941731153,0,,,706.75534282614,0.656168,0,0.00918881263,0.086675855792,26,10,0,706.75534282614,0,0,0.0198097447284,0,0,0,14.1, -0.3, -0.5,0,0,1024,1024,1024,1024,0,0,0,0,0,0,0,100,,,,,,,0,92.12,706.75534282614,0,41,Motors_Started,
1500,2023-10-01 20:12:26,40.0688916366722,-88.2094941537037,0,,,706.75534282614,0.656168,0,0.0069536091464,0.092305121064,26,10,0,706.75534282614,0,0,0.0198097447284,0,0,0,14.1, -0.2, -0.5,0,0,1024,1024,1024,1024,0,0,0,0,0,0,0,100,,,,,,,0,92.12,706.75534282614,0,41,Motors_Started,
1600,2023-10-01 20:12:26,40.0688916184167,-88.2094941904564,0,,,706.75534282614,0.656168,0,0.0160525595688,0.104538717256,26,10,0,706.75534282614,0,0,0.0198097447284,0,0,0,14, -0.2, -0.5,0,0,1024,1024,1024,1024,0,0,0,0,0,0,0,100,,,,,,,0,92.12,706.75534282614,0,41,Motors_Started,
1700,2023-10-01 20:12:26,40.068891620262,-88.209494174241,0,,,706.75534282614,0.656168,0,0.0134605975436,0.109116145224,26,10,0,706.75534282614,0,0,0.0198097447284,0,0,0,14, -0.3, -0.5,0,0,1024,1024,1024,1024,0,0,0,0,0,0,0,100,,,,,,,0,92.12,706.75534282614,0,41,Motors_Started,
1800,2023-10-01 20:12:26,40.0688916158233,-88.2094941644358,0,,,706.75534282614,0.656168,0,0.01447424587,0.112296919604,26,10,0,706.75534282614,0,0,0.0198097447284,0,0,0,14, -0.3, -0.5,0,0,1024,1024,1024,1024,0,0,0,0,0,0,0,100,,,,,,,0,92.12,706.75534282614,0,41,Motors_Started,
1900,2023-10-01 20:12:27,40.0688916138547,-88.209494150259,0,,,706.75534282614,0.656168,0,0.0153140424848,0.116319885612,26,10,0,706.75534282614,0,0,0.0198097447284,0,0,0,14.1, -0.3, -0.5,0,0,1024,1024,1024,1024,0,0,0,0,0,0,0,100,,,,,,,0,92.12,706.75534282614,0,41,Motors_Started,
2000,2023-10-01 20:12:27,40.0688916008593,-88.209494179507,0,,,706.75534282614,0.656168,0,0.0206595150968,0.1257627993,26,10,24.919,706.75534282614,0,0,0.0206595150968,0,0,0,14.1, -0.3, -0.4,0,0,1024,1024,1024,1024,0,0,0,0,0,0,0,99,,,,,,,3.258,92.12,706.75534282614,0,10,Assisted_Takeoff,
2100,2023-10-01 20:12:27,40.0688916081328,-88.2094941513443,0,,,706.75534282614,0.656168,0,0.017337434938,0.13406168408,26,10,24.919,706.75534282614,0,0,0.0206595150968,0,0,0,14.1, -0.3, -0.4,0,0,1024,1024,1024,1024,0,0,0,0,0,0,0,99,,,,,,,3.258,92.12,706.75534282614,0,10,Assisted_Takeoff,
2200,2023-10-01 20:12:27,40.0688916154226,-88.2094941246029,0,,,706.75534282614,0.656168,0,0.017439469062,0.141987865436,26,10,24.919,706.75534282614,0,0,0.0206595150968,0,0,0,14.1, -0.3, -0.4,0,0,1024,1024,1024,1024,0,0,0,0,0,0,0,99,,,,,,,3.258,92.12,706.75534282614,0,10,Assisted_Takeoff,
2300,2023-10-01 20:12:27,40.0688916177264,-88.2094941247882,0,,,706.75534282614,0.656168,0,0.0167152564404,0.142830057064,26,10,24.919,706.75534282614,0,0,0.0206595150968,0,0,0,14.1, -0.3, -0.4,0,0,1024,1024,1024,1024,0,0,0,0,0,0,0,99,,,,,,,3.258,92.12,706.75534282614,0,10,Assisted_Takeoff,
2400,2023-10-01 20:12:27,40.0688916343376,-88.2094941002551,0,,,706.75534282614,0.656168,0,0.0181139113408,0.151976054732,26,10,24.919,706.75534282614,0,0,0.0206595150968,0,0,0,14.1, -0.3, -0.4,0,0,1024,1024,1024,1024,0,0,0,0,0,0,0,99,,,,,,,3.258,92.12,706.75534282614,0,10,Assisted_Takeoff,
2500,2023-10-01 20:12:27,40.068891651609,-88.2094940745964,0,,,706.75534282614,0.656168,0,0.0236252632232,0.161517065536,26,10,24.919,706.75534282614,0,0,0.0236252632232,0,0,0,14.1, -0.3, -0.4,0,0,1024,1024,1024,1024,0,0,0,0,0,0,0,100,,,,,,,3.258,92.12,706.75534282614,0,10,Assisted_Takeoff,
2600,2023-10-01 20:12:27,40.0688916661759,-88.2094940498181,0,,,706.75534282614,0.656168,0,0.0307633211944,0.17024114718,26,10,24.919,706.75534282614,0,0,0.0307633211944,0,0,0,14.1, -0.3, -0.4,0,0,1024,1024,1024,1024,0,0,0,0,0,0,0,100,,,,,,,3.258,92.12,706.75534282614,0,10,Assisted_Takeoff,
2700,2023-10-01 20:12:27,40.0688916777567,-88.2094940830657,0,,,706.75534282614,0.656168,0,0.022751477106,0.180440622572,26,10,24.919,706.75534282614,0,0,0.0307633211944,0,0,0,14.1, -0.3, -0.4,0,0,1024,1024,1024,1024,0,0,0,0,0,0,0,100,,,,,,,3.258,92.12,706.75534282614,0,10,Assisted_Takeoff,
2800,2023-10-01 20:12:27,40.0688916837476,-88.2094940666136,0,,,706.75534282614,0.656168,0,0.0278267397356,0.185527564992,26,10,24.919,706.75534282614,0,0,0.0307633211944,0,0,0,14.1, -0.3, -0.4,0,0,1024,1024,1024,1024,0,0,0,0,0,0,0,100,,,,,,,3.258,92.12,706.75534282614,0,10,Assisted_Takeoff,
2900,2023-10-01 20:12:28,40.0688916908483,-88.2094940468826,0,,,706.75534282614,0.656168,0,0.033906497148,0.191615491696,26,10,24.919,706.75534282614,0,0,0.033906497148,0,0,0,14.1, -0.3, -0.4,0,0,1024,1024,1024,1024,0,0,0,0,0,0,0,100,,,,,,,3.258,92.12,706.75534282614,0,10,Assisted_Takeoff,
3000,2023-10-01 20:12:28,40.0688916720175,-88.2094941035649,0,,,706.75534282614,0.656168,0,0.0166582682496,0.208868445004,26,10,24.9595,706.75534282614,0,0,0.033906497148,0,0,0,14.1, -0.3, -0.4,0,0,1024,1024,1024,1024,0,0,0,0,0,0,0,99,,,,,,,0.87,92.12,706.75534282614,0,10,Assisted_Takeoff,
3100,2023-10-01 20:12:28,40.0688916783991,-88.2094940847406,0,,,706.75534282614,0.656168,0,0.0224030847064,0.214617132852,26,10,24.9595,706.75534282614,0,0,0.033906497148,0,0,0,14.1, -0.3, -0.4,0,0,1024,1024,1024,1024,0,0,0,0,0,0,0,99,,,,,,,0.87,92.12,706.75534282614,0,10,Assisted_Takeoff,
3200,2023-10-01 20:12:28,40.068891680935,-88.2094940793064,0,,,706.75534282614,0.656168,0,0.0241587278072,0.21639436388,26,10,24.9595,706.75534282614,0,0,0.033906497148,0,0,0,14.1, -0.3, -0.4,0,0,1024,1024,1024,1024,0,0,0,0,0,0,0,99,,,,,,,0.87,92.12,706.75534282614,0,10,Assisted_Takeoff,
3300,2023-10-01 20:12:28,40.0688916830964,-88.2094940672508,0,,,706.75534282614,0.656168,0,0.0275734588876,0.219851384988,26,10,24.9595,706.75534282614,0,0,0.033906497148,0,0,0,14.1, -0.3, -0.4,0,0,1024,1024,1024,1024,0,0,0,0,0,0,0,99,,,,,,,0.87,92.12,706.75534282614,0,10,Assisted_Takeoff,
3400,2023-10-01 20:12:28,40.0688916670097,-88.2094941240053,0,,,706.75534282614,0.656168,0,0.0106857943052,0.236749679492,26,10,24.9595,706.75534282614,0,0,0.033906497148,0,0,0,14.1, -0.3, -0.4,0,0,1024,1024,1024,1024,0,0,0,0,0,0,0,99,,,,,,,0.87,92.12,706.75534282614,0,10,Assisted_Takeoff,
3500,2023-10-01 20:12:28,40.0688916749157,-88.2094941046916,0,,,706.75534282614,0.656168,0,0.0167891737656,0.242865165252,26,10,24.9595,706.75534282614,0,0,0.033906497148,0,0,0,14.1, -0.3, -0.4,0,0,1024,1024,1024,1024,0,0,0,0,0,0,0,100,,,,,,,0.87,92.12,706.75534282614,0,10,Assisted_Takeoff,
3600,2023-10-01 20:12:28,40.0688916815131,-88.2094940829264,0,,,706.75534282614,0.656168,0,0.0233160112448,0.249401582784,26,10,24.9595,706.75534282614,0,0,0.033906497148,0,0,0,14.1, -0.3, -0.4,0,0,1024,1024,1024,1024,0,0,0,0,0,0,0,100,,,,,,,0.87,92.12,706.75534282614,0,10,Assisted_Takeoff,
3700,2023-10-01 20:12:28,40.0688916787204,-88.2094940914992,0,,,706.75534282614,0.656168,0,0.0207151909516,0.252003288904,26,10,24.9595,706.75534282614,0,0,0.033906497148,0,0,0,14.1, -0.3, -0.4,0,0,1024,1024,1024,1024,0,0,0,0,0,0,0,100,,,,,,,0.87,92.12,706.75534282614,0,10,Assisted_Takeoff,
3800,2023-10-01 20:12:28,40.0688916823207,-88.2094940712016,0,,,706.75534282614,0.656168,0,0.0264439969092,0.257820546308,26,10,24.9595,706.75534282614,0,0,0.033906497148,0,0,0,14.1, -0.3, -0.4,0,0,1024,1024,1024,1024,0,0,0,0,0,0,0,100,,,,,,,0.87,92.12,706.75534282614,0,10,Assisted_Takeoff,
3900,2023-10-01 20:12:29,40.0688916858596,-88.209494048857,0,,,706.75534282614,0.656168,0,0.032733596848,0.264191609504,26,10,24.9595,706.75534282614,0,0,0.033906497148,0,0,0,14.1, -0.3, -0.4,0,0,1024,1024,1024,1024,0,0,0,0,0,0,0,100,,,,,,,0.87,92.12,706.75534282614,0,10,Assisted_Takeoff,
4000,2023-10-01 20:12:29,40.0688916856833,-88.2094940244017,0,,,706.75534282614,0.656168,0,0.039203741412,0.271020021796,26,10,24.957,706.75534282614,0,0,0.039203741412,0,0,0,14.1, -0.3, -0.4,0,0,1024,1024,1024,1024,0,0,0,0,0,0,0,99,,,,,,,1.171,92.12,706.75534282614,0,10,Assisted_Takeoff,
4100,2023-10-01 20:12:29,40.0688916617971,-88.2094940683276,0,,,706.75534282614,0.656168,0,0.0254487540952,0.286065625952,26,10,24.957,706.75534282614,0,0,0.039203741412,0,0,0,14.1, -0.3, -0.4,0,0,1024,1024,1024,1024,0,0,0,0,0,0,0,99,,,,,,,1.171,92.12,706.75534282614,0,10,Assisted_Takeoff,
4200,2023-10-01 20:12:29,40.0688916700293,-88.209494044027,0,,,706.75534282614,0.656168,0,0.0325699157404,0.293485573696,26,10,24.957,706.75534282614,0,0,0.039203741412,0,0,0,14.1, -0.3, -0.4,0,0,1024,1024,1024,1024,0,0,0,0,0,0,0,99,,,,,,,1.171,92.12,706.75534282614,0,10,Assisted_Takeoff,
4300,2023-10-01 20:12:29,40.0688916770248,-88.2094940263483,0,,,706.75534282614,0.656168,0,0.037897967092,0.299042332404,26,10,24.957,706.75534282614,0,0,0.039203741412,0,0,0,14.2, -0.3, -0.4,0,0,1024,1024,1024,1024,0,0,0,0,0,0,0,99,,,,,,,1.171,92.12,706.75534282614,0,10,Assisted_Takeoff,
4400,2023-10-01 20:12:29,40.0688916588921,-88.2094941036818,0,,,706.75534282614,0.656168,0,0.0155222773996,0.321625338376,26,10,24.957,706.75534282614,0,0,0.039203741412,0,0,0,14.2, -0.3, -0.4,0,0,1024,1024,1024,1024,0,0,0,0,0,0,0,99,,,,,,,1.171,92.12,706.75534282614,0,10,Assisted_Takeoff,
4500,2023-10-01 20:12:29,40.068891658777,-88.2094940937518,0,,,706.75534282614,0.656168,0,0.0182833667268,0.324398304344,26,10,24.957,706.75534282614,0,0,0.039203741412,0,0,0,14.2, -0.3, -0.4,0,0,1024,1024,1024,1024,0,0,0,0,0,0,0,100,,,,,,,1.171,92.12,706.75534282614,0,10,Assisted_Takeoff,
4600,2023-10-01 20:12:29,40.0688916634545,-88.2094940829009,0,,,706.75534282614,0.656168,0,0.0214765098736,0.327875338576,26,10,24.957,706.75534282614,0,0,0.039203741412,0,0,0,14.2, -0.3, -0.4,0,0,1024,1024,1024,1024,0,0,0,0,0,0,0,100,,,,,,,1.171,92.12,706.75534282614,0,10,Assisted_Takeoff,
4700,2023-10-01 20:12:29,40.0688916688272,-88.2094940694296,0,,,706.75534282614,0.656168,0,0.0255129929424,0.33211615236,26,10,24.957,706.75534282614,0,0,0.039203741412,0,0,0,14.2, -0.3, -0.4,0,0,1024,1024,1024,1024,0,0,0,0,0,0,0,100,,,,,,,1.171,92.12,706.75534282614,0,10,Assisted_Takeoff,
4800,2023-10-01 20:12:29,40.0688916552985,-88.2094941347347,0,,,706.75534282614,0.656168,0,0.006796096018,0.35100722908,26,10,24.957,706.75534282614,0,0,0.039203741412,0,0,0,14.2, -0.3, -0.4,0,0,1024,1024,1024,1024,0,0,0,0,0,0,0,100,,,,,,,1.171,92.12,706.75534282614,0,10,Assisted_Takeoff,
4900,2023-10-01 20:12:29,40.0688916577351,-88.2094941153237,0,,,706.75534282614,0.656168,0,0.012248524014,0.35649935524,26,10,24.957,706.75534282614,0,0,0.039203741412,0,0,0,14.2, -0.3, -0.4,0,0,1024,1024,1024,1024,0,0,0,0,0,0,0,100,,,,,,,1.171,92.12,706.75534282614,0,10,Assisted_Takeoff,
5000,2023-10-01 20:12:30,40.0688916554784,-88.2094941032478,0,,,706.75534282614,0.656168,0,0.0155876645408,0.35997048396,26,10,24.957,706.75534282614,0,0,0.039203741412,0,0,0,14.2, -0.3, -0.4,0,0,1024,1024,1024,1024,0,0,0,0,0,0,0,99,,,,,,,1.111,92.12,706.75534282614,0,10,Assisted_Takeoff,
5100,2023-10-01 20:12:30,40.068891640475,-88.2094941320126,0,,,706.75534282614,0.656168,0,0.0092888126332,0.36968833204,26,10,24.957,706.75534282614,0,0,0.039203741412,0,0,0,14.2, -0.3, -0.4,0,0,1024,1024,1024,1024,0,0,0,0,0,0,0,99,,,,,,,1.111,92.12,706.75534282614,0,10,Assisted_Takeoff,
5200,2023-10-01 20:12:30,40.0688916459553,-88.2094941071535,0,,,706.75534282614,0.656168,0,0.0148910437836,0.37691274172,26,10,24.957,706.75534282614,0,0,0.039203741412,0,0,0,14.2, -0.3, -0.4,0,0,1024,1024,1024,1024,0,0,0,0,0,0,0,99,,,,,,,1.111,92.12,706.75534282614,0,10,Assisted_Takeoff,
5300,2023-10-01 20:12:30,40.0688916523951,-88.2094940801,0,,,706.75534282614,0.656168,0,0.0220757224912,0.38482284696,26,10,24.957,706.75534282614,0,0,0.039203741412,0,0,0,14.2, -0.3, -0.4,0,0,1024,1024,1024,1024,0,0,0,0,0,0,0,99,,,,,,,1.111,92.12,706.75534282614,0,10,Assisted_Takeoff,
5400,2023-10-01 20:12:30,40.0688916524998,-88.2094940498718,0,,,706.75534282614,0.656168,0,0.0305074156744,0.39326444828,26,10,24.957,706.75534282614,0,0,0.039203741412,0,0,0,14.2, -0.3, -0.4,0,0,1024,1024,1024,1024,0,0,0,0,0,0,0,99,,,,,,,1.111,92.12,706.75534282614,0,10,Assisted_Takeoff,
5500,2023-10-01 20:12:30,40.0688916384884,-88.2094940830579,0,,,706.75534282614,0.656168,0,0.0220914377148,0.40384515728,26,10,24.957,706.75534282614,0,0,0.039203741412,0,0,0,14.2, -0.3, -0.4,0,0,1024,1024,1024,1024,0,0,0,0,0,0,0,100,,,,,,,1.111,92.12,706.75534282614,0,10,Assisted_Takeoff,
5600,2023-10-01 20:12:30,40.0688916419442,-88.2094940573401,0,,,706.75534282614,0.656168,0,0.0288191610272,0.41113518376,26,10,24.957,706.75534282614,0,0,0.039203741412,0,0,0,14.2, -0.3, -0.4,0,0,1024,1024,1024,1024,0,0,0,0,0,0,0,100,,,,,,,1.111,92.12,706.75534282614,0,10,Assisted_Takeoff,
5700,2023-10-01 20:12:30,40.0688916456359,-88.2094940275905,0,,,706.75534282614,0.656168,0,0.03687992244,0.41955053836,26,10,24.957,706.75534282614,0,0,0.039203741412,0,0,0,14.2, -0.2, -0.4,0,0,1024,1024,1024,1024,0,0,0,0,0,0,0,100,,,,,,,1.111,92.12,706.75534282614,0,10,Assisted_Takeoff,
5800,2023-10-01 20:12:30,40.0688916278145,-88.209494089554,0,,,706.75534282614,0.656168,0,0.021845309098,0.43803151008,26,10,24.957,706.75534282614,0,0,0.039203741412,0,0,0,14.2, -0.3, -0.4,0,0,1024,1024,1024,1024,0,0,0,0,0,0,0,100,,,,,,,1.111,92.12,706.75534282614,0,10,Assisted_Takeoff,
5900,2023-10-01 20:12:30,40.0688916280956,-88.2094940719115,0,,,706.75534282614,0.656168,0,0.0262806110772,0.44295933176,26,10,24.957,706.75534282614,0,0,0.039203741412,0,0,0,14.2, -0.3, -0.4,0,0,1024,1024,1024,1024,0,0,0,0,0,0,0,100,,,,,,,1.111,92.12,706.75534282614,0,10,Assisted_Takeoff,
6000,2023-10-01 20:12:31,40.0688916239742,-88.2094940540103,0,,,706.75534282614,0.656168,0,0.0314805456268,0.4481791482,26,10,24.957,706.75534282614,0,0,0.039203741412,0,0,0,14.2, -0.3, -0.4,0,0,1024,1024,1024,1024,0,0,0,0,0,0,0,100,,,,,,,1.111,92.12,706.75534282614,0,10,Assisted_Takeoff,
6100,2023-10-01 20:12:31,40.0688916201944,-88.2094940303882,0,,,706.75534282614,0.656168,0,0.03814304584,0.45491799356,26,10,24.954,706.75534282614,0,0,0.039203741412,0,0,0,14.2, -0.3, -0.4,0,0,1024,1024,1024,1024,0,0,0,0,0,0,0,99,,,,,,,1.08,92.12,706.75534282614,0,10,Assisted_Takeoff,
6200,2023-10-01 20:12:31,40.0688916239504,-88.2094940735644,0,,,706.75534282614,0.656168,0,0.0264709326056,0.46705053988,26,10,24.954,706.75534282614,0,0,0.039203741412,0,0,0,14.2, -0.3, -0.4,0,0,1024,1024,1024,1024,0,0,0,0,0,0,0,99,,,,,,,1.08,92.12,706.75534282614,0,10,Assisted_Takeoff,
6300,2023-10-01 20:12:31,40.0688916351085,-88.2094940376901,0,,,706.75534282614,0.656168,0,0.03468175964,0.47786418852,26,10,24.954,706.75534282614,0,0,0.039203741412,0,0,0,14.2, -0.3, -0.4,0,0,1024,1024,1024,1024,0,0,0,0,0,0,0,99,,,,,,,1.08,92.12,706.75534282614,0,10,Assisted_Takeoff,
6400,2023-10-01 20:12:31,40.068891632559,-88.20949401333,0,,,706.75534282614,0.656168,0,0.041529200804,0.4847277058,26,10,24.954,706.75534282614,0,0,0.041529200804,0,0,0,14.2, -0.3, -0.4,0,0,1024,1024,1024,1024,0,0,0,0,0,0,0,99,,,,,,,1.08,92.12,706.75534282614,0,10,Assisted_Takeoff,
6500,2023-10-01 20:12:31,40.0688916198905,-88.2094940362589,0,,,706.75534282614,0.656168,0,0.03664206154,0.49262468768,26,10,24.954,706.75534282614,0,0,0.041529200804,0,0,0,14.2, -0.3, -0.4,0,0,1024,1024,1024,1024,0,0,0,0,0,0,0,100,,,,,,,1.08,92.12,706.75534282614,0,10,Assisted_Takeoff,
6600,2023-10-01 20:12:31,40.0688916073102,-88.2094940184672,0,,,706.75534282614,0.656168,0,0.04298392526,0.49938649892,26,10,24.954,706.75534282614,0,0,0.04298392526,0,0,0,14.2, -0.2, -0.4,0,0,1024,1024,1024,1024,0,0,0,0,0,0,0,100,,,,,,,1.08,92.12,706.75534282614,0,10,Assisted_Takeoff,
6700,2023-10-01 20:12:31,40.068891594083,-88.2094939948322,0,,,706.75534282614,0.656168,0,0.051005250976,0.5075623522,26,10,24.954,706.75534282614,0,0,0.051005250976,0,0,0,14.2, -0.2, -0.4,0,0,1024,1024,1024,1024,0,0,0,0,0,0,0,100,,,,,,,1.08,92.12,706.75534282614,0,10,Assisted_Takeoff,
6800,2023-10-01 20:12:31,40.0688915844433,-88.2094939739595,0,,,706.75534282614,0.656168,0,0.057787731508,0.5143700952,26,10,24.954,706.75534282614,0,0,0.057787731508,0,0,0,14.2, -0.2, -0.4,0,0,1024,1024,1024,1024,0,0,0,0,0,0,0,100,,,,,,,1.08,92.12,706.75534282614,0,10,Assisted_Takeoff,
6900,2023-10-01 20:12:31,40.0688915448015,-88.2094940461952,0,,,706.75534282614,0.656168,0,0.051167652556,0.5391896498,26,10,24.954,706.75534282614,0,0,0.057787731508,0,0,0,14.2, -0.2, -0.4,0,0,1024,1024,1024,1024,0,0,0,0,0,0,0,100,,,,,,,1.08,92.12,706.75534282614,0,10,Assisted_Takeoff,
7000,2023-10-01 20:12:32,40.0688915443091,-88.2094940229575,0,,,706.75534282614,0.656168,0,0.055531169756,0.54567915132,26,10,24.954,706.75534282614,0,0,0.057787731508,0,0,0,14.2, -0.2, -0.4,0,0,1024,1024,1024,1024,0,0,0,0,0,0,0,100,,,,,,,1.08,92.12,706.75534282614,0,10,Assisted_Takeoff,
7100,2023-10-01 20:12:32,40.0688915443331,-88.2094939965759,0,,,706.75534282614,0.656168,0,0.060804135804,0.55304463712,26,10,24.9545,706.75534282614,0,0,0.060804135804,0,0,0,14.2, -0.2, -0.4,0,0,1024,1024,1024,1024,0,0,0,0,0,0,0,99,,,,,,,1.111,92.12,706.75534282614,0,10,Assisted_Takeoff,
7200,2023-10-01 20:12:32,40.0688915428018,-88.2094940747248,0,,,706.75534282614,0.656168,0,0.04731627448,0.57487206564,26,10,24.9545,706.75534282614,0,0,0.060804135804,0,0,0,14.1, -0.2, -0.4,0,0,1024,1024,1024,1024,0,0,0,0,0,0,0,99,,,,,,,1.111,92.12,706.75534282614,0,10,Assisted_Takeoff,
7300,2023-10-01 20:12:32,40.0688915445711,-88.2094940636851,0,,,706.75534282614,0.656168,0,0.048383203648,0.57802167204,26,10,24.9545,706.75534282614,0,0,0.060804135804,0,0,0,14.1, -0.2, -0.4,0,0,1024,1024,1024,1024,0,0,0,0,0,0,0,99,,,,,,,1.111,92.12,706.75534282614,0,10,Assisted_Takeoff,
7400,2023-10-01 20:12:32,40.0688915700105,-88.2094940331032,0,,,706.75534282614,0.656168,0,0.046957678668,0.590633221,26,10,24.9545,706.75534282614,0,0,0.060804135804,0,0,0,14.1, -0.2, -0.4,0,0,1024,1024,1024,1024,0,0,0,0,0,0,0,99,,,,,,,1.111,92.12,706.75534282614,0,10,Assisted_Takeoff,
7500,2023-10-01 20:12:32,40.0688915950011,-88.2094939975743,0,,,706.75534282614,0.656168,0,0.050170277196,0.60410763088,26,10,24.9545,706.75534282614,0,0,0.060804135804,0,0,0,14.1, -0.2, -0.4,0,0,1024,1024,1024,1024,0,0,0,0,0,0,0,100,,,,,,,1.111,92.12,706.75534282614,0,10,Assisted_Takeoff,
7600,2023-10-01 20:12:32,40.0688916228981,-88.2094940636761,0,,,706.75534282614,0.656168,0,0.0291392069692,0.62518374704,26,10,24.9545,706.75534282614,0,0,0.060804135804,0,0,0,14.1, -0.2, -0.4,0,0,1024,1024,1024,1024,0,0,0,0,0,0,0,100,,,,,,,1.111,92.12,706.75534282614,0,10,Assisted_Takeoff,
7700,2023-10-01 20:12:32,40.0688916322742,-88.2094940519869,0,,,706.75534282614,0.656168,0,0.0310560377392,0.62991143748,26,10,24.9545,706.75534282614,0,0,0.060804135804,0,0,0,14.1, -0.3, -0.4,0,0,1024,1024,1024,1024,0,0,0,0,0,0,0,100,,,,,,,1.111,92.12,706.75534282614,0,10,Assisted_Takeoff,
7800,2023-10-01 20:12:32,40.0688916347178,-88.2094940424955,0,,,706.75534282614,0.656168,0,0.033403544376,0.63270671316,26,10,24.9545,706.75534282614,0,0,0.060804135804,0,0,0,14.1, -0.2, -0.4,0,0,1024,1024,1024,1024,0,0,0,0,0,0,0,100,,,,,,,1.111,92.12,706.75534282614,0,10,Assisted_Takeoff,
7900,2023-10-01 20:12:33,40.0688916285528,-88.2094940791229,0,,,706.75534282614,0.656168,0,0.0243606307008,0.64317915444,26,10,24.9545,706.75534282614,0,0,0.060804135804,0,0,0,14.1, -0.3, -0.4,0,0,1024,1024,1024,1024,0,0,0,0,0,0,0,100,,,,,,,1.111,92.12,706.75534282614,0,10,Assisted_Takeoff,
8000,2023-10-01 20:12:33,40.0688916331824,-88.2094940614771,0,,,706.75534282614,0.656168,0,0.028418143954,0.64838584752,26,10,24.9545,706.75534282614,0,0,0.060804135804,0,0,0,14.1, -0.2, -0.4,0,0,1024,1024,1024,1024,0,0,0,0,0,0,0,100,,,,,,,1.111,92.12,706.75534282614,0,10,Assisted_Takeoff,
8100,2023-10-01 20:12:33,40.0688916377496,-88.2094940426256,0,,,706.75534282614,0.656168,0,0.033137140168,0.65390750124,26,10,24.953,706.75534282614,0,0,0.060804135804,0,0,0,14.1, -0.2, -0.4,0,0,1024,1024,1024,1024,0,0,0,0,0,0,0,99,,,,,,,1.096,92.12,706.75534282614,0,10,Assisted_Takeoff,
8200,2023-10-01 20:12:33,40.068891636468,-88.2094940114872,0,,,706.75534282614,0.656168,0,0.041775591888,0.6626148506,26,10,24.953,706.75534282614,0,0,0.060804135804,0,0,0,14.1, -0.2, -0.4,0,0,1024,1024,1024,1024,0,0,0,0,0,0,0,99,,,,,,,1.096,92.12,706.75534282614,0,10,Assisted_Takeoff,
8300,2023-10-01 20:12:33,40.0688916184203,-88.2094940452728,0,,,706.75534282614,0.656168,0,0.034503610028,0.67411747564,26,10,24.953,706.75534282614,0,0,0.060804135804,0,0,0,14.1, -0.2, -0.3,0,0,1024,1024,1024,1024,0,0,0,0,0,0,0,99,,,,,,,1.096,92.12,706.75534282614,0,10,Assisted_Takeoff,
8400,2023-10-01 20:12:33,40.0688916288987,-88.2094940388789,0,,,706.75534282614,0.656168,0,0.03491305886,0.67833663588,26,10,24.953,706.75534282614,0,0,0.060804135804,0,0,0,14.1, -0.2, -0.3,0,0,1024,1024,1024,1024,0,0,0,0,0,0,0,99,,,,,,,1.096,92.12,706.75534282614,0,10,Assisted_Takeoff,
8500,2023-10-01 20:12:33,40.0688916401796,-88.2094940321686,0,,,706.75534282614,0.656168,0,0.035859253116,0.68286091424,26,10,24.953,706.75534282614,0,0,0.060804135804,0,0,0,14.1, -0.2, -0.3,0,0,1024,1024,1024,1024,0,0,0,0,0,0,0,100,,,,,,,1.096,92.12,706.75534282614,0,10,Assisted_Takeoff,
8600,2023-10-01 20:12:33,40.0688916373565,-88.2094941297363,0,,,706.75534282614,0.656168,0,0.0104823166084,0.7101214138,26,10,24.953,706.75534282614,0,0,0.060804135804,0,0,0,14.1, -0.2, -0.3,0,0,1024,1024,1024,1024,0,0,0,0,0,0,0,100,,,,,,,1.096,92.12,706.75534282614,0,10,Assisted_Takeoff,
8700,2023-10-01 20:12:33,40.0688916388163,-88.2094941258862,0,,,706.75534282614,0.656168,0,0.0110437011408,0.71132220124,26,10,24.953,706.75534282614,0,0,0.060804135804,0,0,0,14.1, -0.2, -0.3,0,0,1024,1024,1024,1024,0,0,0,0,0,0,0,100,,,,,,,1.096,92.12,706.75534282614,0,10,Assisted_Takeoff,
8800,2023-10-01 20:12:33,40.0688916372389,-88.2094941170395,0,,,706.75534282614,0.656168,0,0.0134569230028,0.71385829056,26,10,24.953,706.75534282614,0,0,0.060804135804,0,0,0,14.1, -0.2, -0.3,0,0,1024,1024,1024,1024,0,0,0,0,0,0,0,100,,,,,,,1.096,92.12,706.75534282614,0,10,Assisted_Takeoff,
8900,2023-10-01 20:12:34,40.0688916364837,-88.2094941045501,0,,,706.75534282614,0.656168,0,0.0166975727128,0.717355666,26,10,24.953,706.75534282614,0,0,0.060804135804,0,0,0,14.1, -0.2, -0.3,0,0,1024,1024,1024,1024,0,0,0,0,0,0,0,100,,,,,,,1.096,92.12,706.75534282614,0,10,Assisted_Takeoff,
9000,2023-10-01 20:12:34,40.0688916291805,-88.2094941532467,0,,,706.75534282614,0.656168,0,0.0096613192068,0.73121065332,26,10,24.953,706.75534282614,0,0,0.060804135804,0,0,0,14.1, -0.2, -0.3,0,0,1024,1024,1024,1024,0,0,0,0,0,0,0,100,,,,,,,1.096,92.12,706.75534282614,0,10,Assisted_Takeoff,
9100,2023-10-01 20:12:34,40.0688916312112,-88.209494123619,0,,,706.75534282614,0.656168,0,0.0132338258828,0.73951445936,26,10,24.9525,706.75534282614,0,0,0.060804135804,0,0,0,14.1, -0.2, -0.3,0,0,1024,1024,1024,1024,0,0,0,0,0,0,0,99,,,,,,,1.111,92.3,706.75534282614,0,10,Assisted_Takeoff,
9200,2023-10-01 20:12:34,40.0688916273143,-88.2094941036285,0,,,706.75534282614,0.656168,0,0.0185416344516,0.7452756144,26,10,24.9525,706.75534282614,0,0,0.060804135804,0,0,0,14.1, -0.2, -0.3,0,0,1024,1024,1024,1024,0,0,0,0,0,0,0,99,,,,,,,1.111,92.3,706.75534282614,0,10,Assisted_Takeoff,
9300,2023-10-01 20:12:34,40.0688916116564,-88.209494144031,0,,,706.75534282614,0.656168,0,0.0164618771672,0.75791997176,26,10,24.9525,706.75534282614,0,0,0.060804135804,0,0,0,14.1, -0.2, -0.3,0,0,1024,1024,1024,1024,0,0,0,0,0,0,0,99,,,,,,,1.111,92.3,706.75534282614,0,10,Assisted_Takeoff,
9400,2023-10-01 20:12:34,40.0688916227571,-88.2094941025429,0,,,706.75534282614,0.656168,0,0.0197475728104,0.77019031336,26,10,24.9525,706.75534282614,0,0,0.060804135804,0,0,0,14.1, -0.2, -0.3,0,0,1024,1024,1024,1024,0,0,0,0,0,0,0,99,,,,,,,1.111,92.3,706.75534282614,0,10,Assisted_Takeoff,
9500,2023-10-01 20:12:34,40.0688916320946,-88.209494054007,0,,,706.75534282614,0.656168,0,0.0305314642316,0.78416341092,26,10,24.9525,706.75534282614,0,0,0.060804135804,0,0,0,14.1, -0.2, -0.3,0,0,1024,1024,1024,1024,0,0,0,0,0,0,0,100,,,,,,,1.111,92.3,706.75534282614,0,10,Assisted_Takeoff,
9600,2023-10-01 20:12:34,40.0688916316186,-88.2094940289017,0,,,706.75534282614,0.656168,0,0.037356956576,0.79117784684,26,10,24.9525,706.75534282614,0,0,0.060804135804,0,0,0,14.1, -0.2, -0.3,0,0,1024,1024,1024,1024,0,0,0,0,0,0,0,100,,,,,,,1.111,92.3,706.75534282614,0,10,Assisted_Takeoff,
9700,2023-10-01 20:12:34,40.0688916320191,-88.2094940648748,0,,,706.75534282614,0.656168,0,0.0276371728004,0.80122049808,26,10,24.9525,706.75534282614,0,0,0.060804135804,0,0,0,14.1, -0.2, -0.3,0,0,1024,1024,1024,1024,0,0,0,0,0,0,0,100,,,,,,,1.111,92.3,706.75534282614,0,10,Assisted_Takeoff,
9800,2023-10-01 20:12:34,40.0688916373694,-88.2094940460777,0,,,706.75534282614,0.656168,0,0.0322197188788,0.80682089196,26,10,24.9525,706.75534282614,0,0,0.060804135804,0,0,0,14.1, -0.2, -0.3,0,0,1024,1024,1024,1024,0,0,0,0,0,0,0,100,,,,,,,1.111,92.3,706.75534282614,0,10,Assisted_Takeoff,
9900,2023-10-01 20:12:35,40.0688916397356,-88.2094940164131,0,,,706.75534282614,0.656168,0,0.040234253256,0.81514766388,26,10,24.9525,706.75534282614,0,0,0.060804135804,0,0,0,14.1, -0.2, -0.3,0,0,1024,1024,1024,1024,0,0,0,0,0,0,0,100,,,,,,,1.111,92.3,706.75534282614,0,10,Assisted_Takeoff,
10000,2023-10-01 20:12:35,40.0688916380639,-88.2094940568738,0,,,706.75534282614,0.656168,0,0.0292188657644,0.82646328104,26,10,24.9525,706.75534282614,0,0,0.060804135804,0,0,0,14.1, -0.1, -0.3,0,0,1024,1024,1024,1024,0,0,0,0,0,0,0,100,,,,,,,1.111,92.3,706.75534282614,0,10,Assisted_Takeoff,
10100,2023-10-01 20:12:35,40.0688916395012,-88.2094940238615,0,,,706.75534282614,0.656168,0,0.038189305684,0.8356955648,26,10,24.9525,706.75534282614,0,0,0.060804135804,0,0,0,14.1, -0.2, -0.3,0,0,1024,1024,1024,1024,0,0,0,0,0,0,0,100,,,,,,,1.111,92.3,706.75534282614,0,10,Assisted_Takeoff,
10200,2023-10-01 20:12:35,40.0688916370196,-88.2094939952571,0,,,706.75534282614,0.656168,0,0.04622211434,0.8437336228,26,10,24.9515,706.75534282614,0,0,0.060804135804,0,0,0,14.1, -0.2, -0.3,0,0,1024,1024,1024,1024,0,0,0,0,0,0,0,99,,,,,,,1.096,92.3,706.75534282614,0,10,Assisted_Takeoff,
10300,2023-10-01 20:12:35,40.0688916309546,-88.2094939536866,0,,,706.75534282614,0.656168,0,0.058029201332,0.85554792764,26,10,24.9515,706.75534282614,0,0,0.060804135804,0,0,0,14.1, -0.1, -0.3,0,0,1024,1024,1024,1024,0,0,0,0,0,0,0,99,,,,,,,1.096,92.3,706.75534282614,0,10,Assisted_Takeoff,
10400,2023-10-01 20:12:35,40.0688915901357,-88.209494003977,0,,,706.75534282614,0.656168,0,0.049398951712,0.8760170884,26,10,24.9515,706.75534282614,0,0,0.060804135804,0,0,0,14.1, -0.1, -0.3,0,0,1024,1024,1024,1024,0,0,0,0,0,0,0,99,,,,,,,1.096,92.3,706.75534282614,0,10,Assisted_Takeoff,
10500,2023-10-01 20:12:35,40.0688915681828,-88.2094939660204,0,,,706.75534282614,0.656168,0,0.062572836648,0.88930120956,26,10,24.9515,706.75534282614,0,0,0.062572836648,0,0,0,14.1, -0.1, -0.3,0,0,1024,1024,1024,1024,0,0,0,0,0,0,0,100,,,,,,,1.096,92.3,706.75534282614,0,10,Assisted_Takeoff,
10600,2023-10-01 20:12:35,40.0688915514396,-88.2094939408974,0,,,706.75534282614,0.656168,0,0.071737863188,0.89860239096,26,10,24.9515,706.75534282614,0,0,0.071737863188,0,0,0,14.1, -0.1, -0.3,0,0,1024,1024,1024,1024,0,0,0,0,0,0,0,100,,,,,,,1.096,92.3,706.75534282614,0,10,Assisted_Takeoff,
10700,2023-10-01 20:12:35,40.0688915305869,-88.2094939733853,0,,,706.75534282614,0.656168,0,0.068977036328,0.91044294252,26,10,24.9515,706.75534282614,0,0,0.071737863188,0,0,0,14.1, -0.1, -0.3,0,0,1024,1024,1024,1024,0,0,0,0,0,0,0,100,,,,,,,1.096,92.3,706.75534282614,0,10,Assisted_Takeoff,
10800,2023-10-01 20:12:35,40.0688915224139,-88.2094939544906,0,,,706.75534282614,0.656168,0,0.074919293736,0.916502654,26,10,24.9515,706.75534282614,0,0,0.074919293736,0,0,0,14.1, -0.2, -0.3,0,0,1024,1024,1024,1024,0,0,0,0,0,0,0,100,,,,,,,1.096,92.3,706.75534282614,0,10,Assisted_Takeoff,
10900,2023-10-01 20:12:35,40.0688915120798,-88.2094939261873,0,,,706.75534282614,0.656168,0,0.083414372748,0.92525593512,26,10,24.9515,706.75534282614,0,0,0.083414372748,0,0,0,14.1, -0.2, -0.3,0,0,1024,1024,1024,1024,0,0,0,0,0,0,0,100,,,,,,,1.096,92.3,706.75534282614,0,10,Assisted_Takeoff,
11000,2023-10-01 20:12:36,40.0688915039983,-88.2094938957716,0,,,706.75534282614,0.656168,0,0.09193077722,0.93424543672,26,10,24.9515,706.75534282614,0,0,0.09193077722,0,0,0,14.1, -0.2, -0.3,0,0,1024,1024,1024,1024,0,0,0,0,0,0,0,100,,,,,,,1.096,92.3,706.75534282614,0,10,Assisted_Takeoff,
11100,2023-10-01 20:12:36,40.0688915081278,-88.2094939808443,0,,,706.75534282614,0.656168,0,0.073205054836,0.95804793092,26,10,24.9515,706.75534282614,0,0,0.09193077722,0,0,0,14.1, -0.1, -0.3,0,0,1024,1024,1024,1024,0,0,0,0,0,0,0,100,,,,,,,1.096,92.3,706.75534282614,0,10,Assisted_Takeoff,
11200,2023-10-01 20:12:36,40.0688914983706,-88.2094939610854,0,,,706.75534282614,0.656168,0,0.079582679712,0.96461289176,26,10,24.9505,706.75534282614,0,0,0.09193077722,0,0,0,14.1, -0.2, -0.3,0,0,1024,1024,1024,1024,0,0,0,0,0,0,0,99,,,,,,,1.08,92.12,706.75534282614,0,10,Assisted_Takeoff,
11300,2023-10-01 20:12:36,40.06889148664,-88.2094939340557,0,,,706.75534282614,0.656168,0,0.08793799494,0.97329071356,26,10,24.9505,706.75534282614,0,0,0.09193077722,0,0,0,14.1, -0.2, -0.3,0,0,1024,1024,1024,1024,0,0,0,0,0,0,0,99,,,,,,,1.08,92.12,706.75534282614,0,10,Assisted_Takeoff,
11400,2023-10-01 20:12:36,40.0688915167797,-88.2094940073678,0,,,706.75534282614,0.656168,0,0.065937338068,0.99652562244,26,10,24.9505,706.75534282614,0,0,0.09193077722,0,0,0,14.1, -0.2, -0.3,0,0,1024,1024,1024,1024,0,0,0,0,0,0,0,99,,,,,,,1.08,92.12,706.75534282614,0,10,Assisted_Takeoff,
11500,2023-10-01 20:12:36,40.0688915245176,-88.2094939815705,0,,,706.75534282614,0.656168,0,0.068792981204,1.00426184316,26,10,24.9505,706.75534282614,0,0,0.09193077722,0,0,0,14.1, -0.1, -0.3,0,0,1024,1024,1024,1024,0,0,0,0,0,0,0,100,,,,,,,1.08,92.12,706.75534282614,0,10,Assisted_Takeoff,
11600,2023-10-01 20:12:36,40.0688915253822,-88.2094939675601,0,,,706.75534282614,0.656168,0,0.071453086276,1.0081857278,26,10,24.9505,706.75534282614,0,0,0.09193077722,0,0,0,14.1, -0.1, -0.3,0,0,1024,1024,1024,1024,0,0,0,0,0,0,0,100,,,,,,,1.08,92.12,706.75534282614,0,10,Assisted_Takeoff,
11700,2023-10-01 20:12:36,40.068891522939,-88.2094939446944,0,,,706.75534282614,0.656168,0,0.076904858104,1.0146325784,26,10,24.9505,706.75534282614,0,0,0.09193077722,0,0,0,14.1, -0.1, -0.3,0,0,1024,1024,1024,1024,0,0,0,0,0,0,0,100,,,,,,,1.08,92.12,706.75534282614,0,10,Assisted_Takeoff,
11800,2023-10-01 20:12:36,40.0688915433113,-88.2094940433256,0,,,706.75534282614,0.656168,0,0.052090224764,1.04315620136,26,10,24.9505,706.75534282614,0,0,0.09193077722,0,0,0,14.1, -0.1, -0.3,0,0,1024,1024,1024,1024,0,0,0,0,0,0,0,100,,,,,,,1.08,92.12,706.75534282614,0,10,Assisted_Takeoff,
11900,2023-10-01 20:12:36,40.0688915446745,-88.2094940286958,0,,,706.75534282614,0.656168,0,0.054348098852,1.04727037472,26,10,24.9505,706.75534282614,0,0,0.09193077722,0,0,0,14.1, -0.1, -0.3,0,0,1024,1024,1024,1024,0,0,0,0,0,0,0,100,,,,,,,1.08,92.12,706.75534282614,0,10,Assisted_Takeoff,
12000,2023-10-01 20:12:37,40.0688915539752,-88.2094940155564,0,,,706.75534282614,0.656168,0,0.054515421692,1.05227037488,26,10,24.9505,706.75534282614,0,0,0.09193077722,0,0,0,14.1, -0.1, -0.3,0,0,1024,1024,1024,1024,0,0,0,0,0,0,0,100,,,,,,,1.08,92.12,706.75534282614,0,10,Assisted_Takeoff,
12100,2023-10-01 20:12:37,40.0688915801928,-88.2094940547717,0,,,706.75534282614,0.656168,0,0.03998359708,1.06680777692,26,10,24.9505,706.75534282614,0,0,0.09193077722,0,0,0,14.1, -0.1, -0.3,0,0,1024,1024,1024,1024,0,0,0,0,0,0,0,100,,,,,,,1.08,92.12,706.75534282614,0,10,Assisted_Takeoff,
12200,2023-10-01 20:12:37,40.0688915761198,-88.2094940355657,0,,,706.75534282614,0.656168,0,0.044982284904,1.07237208156,26,10,24.949,706.75534282614,0,0,0.09193077722,0,0,0,14.1, -0.2, -0.3,0,0,1024,1024,1024,1024,0,0,0,0,0,0,0,99,,,,,,,1.111,92.12,706.75534282614,0,10,Assisted_Takeoff,
12300,2023-10-01 20:12:37,40.0688915710712,-88.2094940100689,0,,,706.75534282614,0.656168,0,0.05171916176,1.07972772484,26,10,24.949,706.75534282614,0,0,0.09193077722,0,0,0,14.1, -0.1, -0.3,0,0,1024,1024,1024,1024,0,0,0,0,0,0,0,99,,,,,,,1.111,92.12,706.75534282614,0,10,Assisted_Takeoff,
12400,2023-10-01 20:12:37,40.0688915609959,-88.2094939909093,0,,,706.75534282614,0.656168,0,0.058206694776,1.08621722636,26,10,24.949,706.75534282614,0,0,0.09193077722,0,0,0,14.1, -0.2, -0.3,0,0,1024,1024,1024,1024,0,0,0,0,0,0,0,99,,,,,,,1.111,92.12,706.75534282614,0,10,Assisted_Takeoff,
12500,2023-10-01 20:12:37,40.0688915574425,-88.209494066419,0,,,706.75534282614,0.656168,0,0.044085631332,1.10733927428,26,10,24.949,706.75534282614,0,0,0.09193077722,0,0,0,14.1, -0.2, -0.3,0,0,1024,1024,1024,1024,0,0,0,0,0,0,0,100,,,,,,,1.111,92.12,706.75534282614,0,10,Assisted_Takeoff,
12600,2023-10-01 20:12:37,40.0688915520286,-88.2094940504397,0,,,706.75534282614,0.656168,0,0.048365487112,1.11221788336,26,10,24.949,706.75534282614,0,0,0.09193077722,0,0,0,14.1, -0.2, -0.3,0,0,1024,1024,1024,1024,0,0,0,0,0,0,0,100,,,,,,,1.111,92.12,706.75534282614,0,10,Assisted_Takeoff,
12700,2023-10-01 20:12:37,40.068891544062,-88.2094940267054,0,,,706.75534282614,0.656168,0,0.054887140864,1.1194554164,26,10,24.949,706.75534282614,0,0,0.09193077722,0,0,0,14.1, -0.2, -0.3,0,0,1024,1024,1024,1024,0,0,0,0,0,0,0,100,,,,,,,1.111,92.12,706.75534282614,0,10,Assisted_Takeoff,
12800,2023-10-01 20:12:37,40.068891545152,-88.2094940824316,0,,,706.75534282614,0.656168,0,0.045524279672,1.13501972136,26,10,24.949,706.75534282614,0,0,0.09193077722,0,0,0,14.1, -0.2, -0.3,0,0,1024,1024,1024,1024,0,0,0,0,0,0,0,100,,,,,,,1.111,92.12,706.75534282614,0,10,Assisted_Takeoff,
12900,2023-10-01 20:12:37,40.0688915355478,-88.2094940451642,0,,,706.75534282614,0.656168,0,0.054036419052,1.14600069284,26,10,24.949,706.75534282614,0,0,0.09193077722,0,0,0,14.1, -0.2, -0.3,0,0,1024,1024,1024,1024,0,0,0,0,0,0,0,100,,,,,,,1.111,92.12,706.75534282614,0,10,Assisted_Takeoff,
13000,2023-10-01 20:12:38,40.0688915263259,-88.209494008051,0,,,706.75534282614,0.656168,0,0.063180448216,1.15689308164,26,10,24.949,706.75534282614,0,0,0.09193077722,0,0,0,14.1, -0.2, -0.3,0,0,1024,1024,1024,1024,0,0,0,0,0,0,0,100,,,,,,,1.111,92.12,706.75534282614,0,10,Assisted_Takeoff,
13100,2023-10-01 20:12:38,40.0688915166729,-88.209493970466,0,,,706.75534282614,0.656168,0,0.07301181336,1.1679626358,26,10,24.949,706.75534282614,0,0,0.09193077722,0,0,0,14.1, -0.2, -0.3,0,0,1024,1024,1024,1024,0,0,0,0,0,0,0,100,,,,,,,1.111,92.12,706.75534282614,0,10,Assisted_Takeoff,
13200,2023-10-01 20:12:38,40.0688915164146,-88.209494015085,0,,,706.75534282614,0.656168,0,0.064678807844,1.18042326612,26,10,24.949,706.75534282614,0,0,0.09193077722,0,0,0,14.1, -0.1, -0.3,0,0,1024,1024,1024,1024,0,0,0,0,0,0,0,100,,,,,,,1.111,92.12,706.75534282614,0,10,Assisted_Takeoff,
13300,2023-10-01 20:12:38,40.0688915065599,-88.2094939721357,0,,,706.75534282614,0.656168,0,0.07529035674,1.19293967072,26,10,24.9485,706.75534282614,0,0,0.09193077722,0,0,0,14.1, -0.1, -0.3,0,0,1024,1024,1024,1024,0,0,0,0,0,0,0,99,,,,,,,1.08,92.12,706.75534282614,0,10,Assisted_Takeoff,
13400,2023-10-01 20:12:38,40.0688915088962,-88.2094939414255,0,,,706.75534282614,0.656168,0,0.080904202064,1.2015584374,26,10,24.9485,706.75534282614,0,0,0.09193077722,0,0,0,14.1, -0.1, -0.3,0,0,1024,1024,1024,1024,0,0,0,0,0,0,0,99,,,,,,,1.08,92.12,706.75534282614,0,10,Assisted_Takeoff,
13500,2023-10-01 20:12:38,40.0688915293084,-88.2094939626886,0,,,706.75534282614,0.656168,0,0.071547902552,1.21108271592,26,10,24.9485,706.75534282614,0,0,0.09193077722,0,0,0,14.1, -0.1, -0.3,0,0,1024,1024,1024,1024,0,0,0,0,0,0,0,100,,,,,,,1.08,92.12,706.75534282614,0,10,Assisted_Takeoff,
13600,2023-10-01 20:12:38,40.0688915260802,-88.2094939442866,0,,,706.75534282614,0.656168,0,0.076279858084,1.21635174496,26,10,24.9485,706.75534282614,0,0,0.09193077722,0,0,0,14.1, -0.1, -0.3,0,0,1024,1024,1024,1024,0,0,0,0,0,0,0,100,,,,,,,1.08,92.12,706.75534282614,0,10,Assisted_Takeoff,
13700,2023-10-01 20:12:38,40.0688915213882,-88.2094939172454,0,,,706.75534282614,0.656168,0,0.08333989768,1.22409452736,26,10,24.9485,706.75534282614,0,0,0.09193077722,0,0,0,14.1, -0.2, -0.3,0,0,1024,1024,1024,1024,0,0,0,0,0,0,0,100,,,,,,,1.08,92.12,706.75534282614,0,10,Assisted_Takeoff,
13800,2023-10-01 20:12:38,40.0688915169077,-88.2094938776362,0,,,706.75534282614,0.656168,0,0.09340059354,1.23527563008,26,10,24.9485,706.75534282614,0,0,0.09340059354,0,0,0,14.1, -0.2, -0.3,0,0,1024,1024,1024,1024,0,0,0,0,0,0,0,100,,,,,,,1.08,92.12,706.75534282614,0,10,Assisted_Takeoff,
13900,2023-10-01 20:12:39,40.068891535121,-88.209493952511,0,,,706.75534282614,0.656168,0,0.072445540376,1.25721132632,26,10,24.9485,706.75534282614,0,0,0.09340059354,0,0,0,14.1, -0.2, -0.3,0,0,1024,1024,1024,1024,0,0,0,0,0,0,0,100,,,,,,,1.08,92.12,706.75534282614,0,10,Assisted_Takeoff,
14000,2023-10-01 20:12:39,40.0688915300712,-88.2094939183501,0,,,706.75534282614,0.656168,0,0.08126804722,1.26692589356,26,10,24.9485,706.75534282614,0,0,0.09340059354,0,0,0,14.1, -0.2, -0.3,0,0,1024,1024,1024,1024,0,0,0,0,0,0,0,100,,,,,,,1.08,92.12,706.75534282614,0,10,Assisted_Takeoff,
14100,2023-10-01 20:12:39,40.0688915247793,-88.2094938780885,0,,,706.75534282614,0.656168,0,0.091771984564,1.2783300934,26,10,24.9485,706.75534282614,0,0,0.09340059354,0,0,0,14.1, -0.2, -0.3,0,0,1024,1024,1024,1024,0,0,0,0,0,0,0,100,,,,,,,1.08,92.12,706.75534282614,0,10,Assisted_Takeoff,
14200,2023-10-01 20:12:39,40.0688915426867,-88.2094939619731,0,,,706.75534282614,0.656168,0,0.06867454288,1.30264767948,26,10,24.9485,706.75534282614,0,0,0.09340059354,0,0,0,14.1, -0.2, -0.3,0,0,1024,1024,1024,1024,0,0,0,0,0,0,0,100,,,,,,,1.08,92.12,706.75534282614,0,10,Assisted_Takeoff,
14300,2023-10-01 20:12:39,40.0688915442241,-88.2094939486866,0,,,706.75534282614,0.656168,0,0.071361878924,1.3063976796,26,10,24.948,706.75534282614,0,0,0.09340059354,0,0,0,14.1, -0.2, -0.3,0,0,1024,1024,1024,1024,0,0,0,0,0,0,0,99,,,,,,,1.08,92.3,706.75534282614,0,10,Assisted_Takeoff,
14400,2023-10-01 20:12:39,40.0688915382102,-88.2094939264272,0,,,706.75534282614,0.656168,0,0.07774278464,1.31298888716,26,10,24.948,706.75534282614,0,0,0.09340059354,0,0,0,14.1, -0.2, -0.3,0,0,1024,1024,1024,1024,0,0,0,0,0,0,0,99,,,,,,,1.08,92.3,706.75534282614,0,10,Assisted_Takeoff,
14500,2023-10-01 20:12:39,40.068891532744,-88.2094939037038,0,,,706.75534282614,0.656168,0,0.084159123428,1.31963914984,26,10,24.948,706.75534282614,0,0,0.09340059354,0,0,0,14.1, -0.2, -0.3,0,0,1024,1024,1024,1024,0,0,0,0,0,0,0,100,,,,,,,1.08,92.3,706.75534282614,0,10,Assisted_Takeoff,
14600,2023-10-01 20:12:39,40.0688915444634,-88.2094940113555,0,,,706.75534282614,0.656168,0,0.057757219696,1.3500000432,26,10,24.948,706.75534282614,0,0,0.09340059354,0,0,0,14.1, -0.2, -0.3,0,0,1024,1024,1024,1024,0,0,0,0,0,0,0,100,,,,,,,1.08,92.3,706.75534282614,0,10,Assisted_Takeoff,
14700,2023-10-01 20:12:39,40.0688915426805,-88.2094939952426,0,,,706.75534282614,0.656168,0,0.061483925852,1.3545440066,26,10,24.948,706.75534282614,0,0,0.09340059354,0,0,0,14.1, -0.2, -0.3,0,0,1024,1024,1024,1024,0,0,0,0,0,0,0,100,,,,,,,1.08,92.3,706.75534282614,0,10,Assisted_Takeoff,
14800,2023-10-01 20:12:39,40.0688915413681,-88.2094939843085,0,,,706.75534282614,0.656168,0,0.064097114912,1.35763455788,26,10,24.948,706.75534282614,0,0,0.09340059354,0,0,0,14, -0.2, -0.3,0,0,1024,1024,1024,1024,0,0,0,0,0,0,0,100,,,,,,,1.08,92.3,706.75534282614,0,10,Assisted_Takeoff,
14900,2023-10-01 20:12:40,40.0688915497969,-88.2094940381572,0,,,706.75534282614,0.656168,0,0.05119586778,1.3729823274,26,10,24.948,706.75534282614,0,0,0.09340059354,0,0,0,14, -0.2, -0.3,0,0,1024,1024,1024,1024,0,0,0,0,0,0,0,100,,,,,,,1.08,92.3,706.75534282614,0,10,Assisted_Takeoff,
15000,2023-10-01 20:12:40,40.068891555414,-88.2094940115953,0,,,706.75534282614,0.656168,0,0.054984253728,1.3806758972,26,10,24.948,706.75534282614,0,0,0.09340059354,0,0,0,14, -0.2, -0.3,0,0,1024,1024,1024,1024,0,0,0,0,0,0,0,100,,,,,,,1.08,92.3,706.75534282614,0,10,Assisted_Takeoff,
15100,2023-10-01 20:12:40,40.0688915609618,-88.2094939805083,0,,,706.75534282614,0.656168,0,0.0605807106,1.38958993948,26,10,24.948,706.75534282614,0,0,0.09340059354,0,0,0,14, -0.2, -0.3,0,0,1024,1024,1024,1024,0,0,0,0,0,0,0,100,,,,,,,1.08,92.3,706.75534282614,0,10,Assisted_Takeoff,
15200,2023-10-01 20:12:40,40.0688915605176,-88.2094939620687,0,,,706.75534282614,0.656168,0,0.064969818352,1.39474085828,26,10,24.948,706.75534282614,0,0,0.09340059354,0,0,0,14, -0.2, -0.3,0,0,1024,1024,1024,1024,0,0,0,0,0,0,0,100,,,,,,,1.08,92.3,706.75534282614,0,10,Assisted_Takeoff,
15300,2023-10-01 20:12:40,40.0688915780387,-88.2094940437811,0,,,706.75534282614,0.656168,0,0.042784450188,1.41843508476,26,10,24.948,706.75534282614,0,0,0.09340059354,0,0,0,14.1, -0.2, -0.3,0,0,1024,1024,1024,1024,0,0,0,0,0,0,0,100,,,,,,,1.08,92.3,706.75534282614,0,10,Assisted_Takeoff,
15400,2023-10-01 20:12:40,40.0688915781582,-88.2094940384752,0,,,706.75534282614,0.656168,0,0.043881891168,1.4199147436,26,10,24.948,706.75534282614,0,0,0.09340059354,0,0,0,14.1, -0.1, -0.3,0,0,1024,1024,1024,1024,0,0,0,0,0,0,0,100,,,,,,,1.08,92.3,706.75534282614,0,10,Assisted_Takeoff,
15500,2023-10-01 20:12:40,40.0688915785831,-88.2094940328604,0,,,706.75534282614,0.656168,0,0.044999673356,1.4214895468,26,10,24.948,706.75534282614,0,0,0.09340059354,0,0,0,14.1, -0.2, -0.3,0,0,1024,1024,1024,1024,0,0,0,0,0,0,0,100,,,,,,,1.08,92.3,706.75534282614,0,10,Assisted_Takeoff,
15600,2023-10-01 20:12:40,40.0688915819214,-88.2094941387548,0,,,706.75534282614,0.656168,0,0.0273604667548,1.4510827236,26,10,24.948,706.75534282614,0,0,0.09340059354,0,0,0,14, -0.2, -0.3,0,0,1024,1024,1024,1024,0,0,0,0,0,0,0,100,,,,,,,1.08,92.3,706.75534282614,0,10,Assisted_Takeoff,
15700,2023-10-01 20:12:40,40.0688915804899,-88.2094941466852,0,,,706.75534282614,0.656168,0,0.0275064641348,1.45335634572,26,10,24.948,706.75534282614,0,0,0.09340059354,0,0,0,14, -0.1, -0.3,0,0,1024,1024,1024,1024,0,0,0,0,0,0,0,100,,,,,,,1.08,92.3,706.75534282614,0,10,Assisted_Takeoff,
15800,2023-10-01 20:12:40,40.0688915796728,-88.2094941442354,0,,,706.75534282614,0.656168,0,0.0278955717588,1.45410437724,26,10,24.948,706.75534282614,0,0,0.09340059354,0,0,0,14, -0.1, -0.3,0,0,1024,1024,1024,1024,0,0,0,0,0,0,0,100,,,,,,,1.08,92.3,706.75534282614,0,10,Assisted_Takeoff,
15900,2023-10-01 20:12:40,40.0688915775739,-88.209494132472,0,,,706.75534282614,0.656168,0,0.0293087935888,1.45747708076,26,10,24.948,706.75534282614,0,0,0.09340059354,0,0,0,14, -0.2, -0.3,0,0,1024,1024,1024,1024,0,0,0,0,0,0,0,100,,,,,,,1.08,92.3,706.75534282614,0,10,Assisted_Takeoff,
16000,2023-10-01 20:12:41,40.0688915827269,-88.2094941891877,0,,,706.75534282614,0.656168,0,0.027774935272,1.47342196316,26,10,24.9465,706.75534282614,0,0,0.09340059354,0,0,0,14, -0.2, -0.3,0,0,1024,1024,1024,1024,0,0,0,0,0,0,0,99,,,,,,,1.111,92.3,706.75534282614,0,10,Assisted_Takeoff,
16100,2023-10-01 20:12:41,40.0688915798269,-88.2094941679793,0,,,706.75534282614,0.656168,0,0.0276419300184,1.47943902372,26,10,24.9465,706.75534282614,0,0,0.09340059354,0,0,0,14, -0.1, -0.3,0,0,1024,1024,1024,1024,0,0,0,0,0,0,0,99,,,,,,,1.111,92.3,706.75534282614,0,10,Assisted_Takeoff,
16200,2023-10-01 20:12:41,40.0688915749439,-88.209494145772,0,,,706.75534282614,0.656168,0,0.0295458998956,1.48588915516,26,10,24.9465,706.75534282614,0,0,0.09340059354,0,0,0,14, -0.1, -0.3,0,0,1024,1024,1024,1024,0,0,0,0,0,0,0,99,,,,,,,1.111,92.3,706.75534282614,0,10,Assisted_Takeoff,
16300,2023-10-01 20:12:41,40.0688915713335,-88.2094941524691,0,,,706.75534282614,0.656168,0,0.030684220142,1.48817590064,26,10,24.9465,706.75534282614,0,0,0.09340059354,0,0,0,14, -0.1, -0.3,0,0,1024,1024,1024,1024,0,0,0,0,0,0,0,99,,,,,,,1.111,92.3,706.75534282614,0,10,Assisted_Takeoff,
16400,2023-10-01 20:12:41,40.0688915635989,-88.2094941096282,0,,,706.75534282614,0.656168,0,0.0361876652,1.50046592728,26,10,24.9465,706.75534282614,0,0,0.09340059354,0,0,0,14, -0.2, -0.3,0,0,1024,1024,1024,1024,0,0,0,0,0,0,0,99,,,,,,,1.111,92.3,706.75534282614,0,10,Assisted_Takeoff,
16500,2023-10-01 20:12:41,40.068891553718,-88.209494059486,0,,,706.75534282614,0.656168,0,0.046328413556,1.51492458916,26,10,24.9465,706.75534282614,0,0,0.09340059354,0,0,0,14, -0.1, -0.3,0,0,1024,1024,1024,1024,0,0,0,0,0,0,0,100,,,,,,,1.111,92.3,706.75534282614,0,10,Assisted_Takeoff,
16600,2023-10-01 20:12:41,40.0688915427668,-88.2094940205567,0,,,706.75534282614,0.656168,0,0.056400264272,1.52650267352,26,10,24.9465,706.75534282614,0,0,0.09340059354,0,0,0,14, -0.1, -0.3,0,0,1024,1024,1024,1024,0,0,0,0,0,0,0,100,,,,,,,1.111,92.3,706.75534282614,0,10,Assisted_Takeoff,
16700,2023-10-01 20:12:41,40.0688915380538,-88.2094940396925,0,,,706.75534282614,0.656168,0,0.054225395436,1.53211619076,26,10,24.9465,706.75534282614,0,0,0.09340059354,0,0,0,14, -0.2, -0.3,0,0,1024,1024,1024,1024,0,0,0,0,0,0,0,100,,,,,,,1.111,92.3,706.75534282614,0,10,Assisted_Takeoff,
16800,2023-10-01 20:12:41,40.0688915317901,-88.2094940050293,0,,,706.75534282614,0.656168,0,0.062289700156,1.5420604168,26,10,24.9465,706.75534282614,0,0,0.09340059354,0,0,0,14, -0.2, -0.3,0,0,1024,1024,1024,1024,0,0,0,0,0,0,0,100,,,,,,,1.111,92.3,706.75534282614,0,10,Assisted_Takeoff,
16900,2023-10-01 20:12:41,40.0688915256023,-88.2094939719494,0,,,706.75534282614,0.656168,0,0.070486550812,1.55156829112,26,10,24.9465,706.75534282614,0,0,0.09340059354,0,0,0,14, -0.1, -0.3,0,0,1024,1024,1024,1024,0,0,0,0,0,0,0,100,,,,,,,1.111,92.3,706.75534282614,0,10,Assisted_Takeoff,
17000,2023-10-01 20:12:42,40.0688915466668,-88.209494027532,0,,,706.75534282614,0.656168,0,0.054031169708,1.56888784548,26,10,24.9465,706.75534282614,0,0,0.09340059354,0,0,0,14, -0.1, -0.3,0,0,1024,1024,1024,1024,0,0,0,0,0,0,0,100,,,,,,,1.111,92.3,706.75534282614,0,10,Assisted_Takeoff,
17100,2023-10-01 20:12:42,40.0688915484826,-88.209494004269,0,,,706.75534282614,0.656168,0,0.058194227584,1.57541671708,26,10,24.9465,706.75534282614,0,0,0.09340059354,0,0,0,14, -0.2, -0.3,0,0,1024,1024,1024,1024,0,0,0,0,0,0,0,100,,,,,,,1.111,92.3,706.75534282614,0,10,Assisted_Takeoff,
17200,2023-10-01 20:12:42,40.0688915473937,-88.2094939976065,0,,,706.75534282614,0.656168,0,0.059849739448,1.57731960428,26,10,24.9465,706.75534282614,0,0,0.09340059354,0,0,0,14, -0.1, -0.3,0,0,1024,1024,1024,1024,0,0,0,0,0,0,0,100,,,,,,,1.111,92.3,706.75534282614,0,10,Assisted_Takeoff,
17300,2023-10-01 20:12:42,40.0688915444314,-88.2094939806471,0,,,706.75534282614,0.656168,0,0.064168637224,1.58217524748,26,10,24.9465,706.75534282614,0,0,0.09340059354,0,0,0,14, -0.1, -0.3,0,0,1024,1024,1024,1024,0,0,0,0,0,0,0,100,,,,,,,1.111,92.3,706.75534282614,0,10,Assisted_Takeoff,
17400,2023-10-01 20:12:42,40.068891552994,-88.2094940694556,0,,,706.75534282614,0.656168,0,0.044932088052,1.6071686866,26,10,24.9465,706.75534282614,0,0,0.09340059354,0,0,0,14, -0.1, -0.3,0,0,1024,1024,1024,1024,0,0,0,0,0,0,0,100,,,,,,,1.111,92.3,706.75534282614,0,10,Assisted_Takeoff,
17500,2023-10-01 20:12:42,40.0688915464937,-88.2094940514349,0,,,706.75534282614,0.656168,0,0.049786090832,1.6127297104,26,10,24.9465,706.75534282614,0,0,0.09340059354,0,0,0,14, -0.1, -0.3,0,0,1024,1024,1024,1024,0,0,0,0,0,0,0,100,,,,,,,1.111,92.3,706.75534282614,0,10,Assisted_Takeoff,
17600,2023-10-01 20:12:42,40.0688915477027,-88.2094940307988,0,,,706.75534282614,0.656168,0,0.053135500388,1.61850726964,26,10,24.9465,706.75534282614,0,0,0.09340059354,0,0,0,14, -0.1, -0.3,0,0,1024,1024,1024,1024,0,0,0,0,0,0,0,100,,,,,,,1.111,92.3,706.75534282614,0,10,Assisted_Takeoff,
17700,2023-10-01 20:12:42,40.068891562111,-88.2094940545418,0,,,706.75534282614,0.656168,0,0.044804135292,1.626968556,26,10,24.9465,706.75534282614,0,0,0.09340059354,0,0,0,14, -0.1, -0.3,0,0,1024,1024,1024,1024,0,0,0,0,0,0,0,100,,,,,,,1.111,92.3,706.75534282614,0,10,Assisted_Takeoff,
17800,2023-10-01 20:12:42,40.0688915587499,-88.2094940399908,0,,,706.75534282614,0.656168,0,0.04843504092,1.63121396296,26,10,24.9465,706.75534282614,0,0,0.09340059354,0,0,0,14, -0.1, -0.3,0,0,1024,1024,1024,1024,0,0,0,0,0,0,0,100,,,,,,,1.111,92.3,706.75534282614,0,10,Assisted_Takeoff,
17900,2023-10-01 20:12:42,40.0688915543117,-88.2094940210849,0,,,706.75534282614,0.656168,0,0.053306104068,1.63673561668,26,10,24.9465,706.75534282614,0,0,0.09340059354,0,0,0,14, -0.1, -0.3,0,0,1024,1024,1024,1024,0,0,0,0,0,0,0,100,,,,,,,1.111,92.3,706.75534282614,0,10,Assisted_Takeoff,
18000,2023-10-01 20:12:43,40.0688915507937,-88.2094940022769,0,,,706.75534282614,0.656168,0,0.058051511044,1.64213916016,26,10,24.946,706.75534282614,0,0,0.09340059354,0,0,0,14, -0.1, -0.3,0,0,1024,1024,1024,1024,0,0,0,0,0,0,0,99,,,,,,,1.066,92.3,706.75534282614,0,10,Assisted_Takeoff,
18100,2023-10-01 20:12:43,40.0688915622754,-88.2094940733249,0,,,706.75534282614,0.656168,0,0.041529856972,1.66241475136,26,10,24.946,706.75534282614,0,0,0.09340059354,0,0,0,14, -0.1, -0.3,0,0,1024,1024,1024,1024,0,0,0,0,0,0,0,99,,,,,,,1.066,92.3,706.75534282614,0,10,Assisted_Takeoff,
18200,2023-10-01 20:12:43,40.0688915627562,-88.2094940581423,0,,,706.75534282614,0.656168,0,0.043975067024,1.66665687748,26,10,24.946,706.75534282614,0,0,0.09340059354,0,0,0,14, -0.1, -0.3,0,0,1024,1024,1024,1024,0,0,0,0,0,0,0,99,,,,,,,1.066,92.3,706.75534282614,0,10,Assisted_Takeoff,
18300,2023-10-01 20:12:43,40.0688915627036,-88.2094940400128,0,,,706.75534282614,0.656168,0,0.047392061884,1.6717192136,26,10,24.946,706.75534282614,0,0,0.09340059354,0,0,0,14, -0.1, -0.3,0,0,1024,1024,1024,1024,0,0,0,0,0,0,0,99,,,,,,,1.066,92.3,706.75534282614,0,10,Assisted_Takeoff,
18400,2023-10-01 20:12:43,40.0688915491907,-88.2094941264849,0,,,706.75534282614,0.656168,0,0.039762796548,1.69636160284,26,10,24.946,706.75534282614,0,0,0.09340059354,0,0,0,14, -0.1, -0.3,0,0,1024,1024,1024,1024,0,0,0,0,0,0,0,99,,,,,,,1.066,92.3,706.75534282614,0,10,Assisted_Takeoff,
18500,2023-10-01 20:12:43,40.068891528156,-88.2094941074816,0,,,706.75534282614,0.656168,0,0.048567586856,1.7056923118,26,10,24.946,706.75534282614,0,0,0.09340059354,0,0,0,14, -0.1, -0.3,0,0,1024,1024,1024,1024,0,0,0,0,0,0,0,100,,,,,,,1.066,92.3,706.75534282614,0,10,Assisted_Takeoff,
18600,2023-10-01 20:12:43,40.0688915149841,-88.2094940574125,0,,,706.75534282614,0.656168,0,0.058531169852,1.72047577684,26,10,24.946,706.75534282614,0,0,0.09340059354,0,0,0,14, -0.1, -0.3,0,0,1024,1024,1024,1024,0,0,0,0,0,0,0,100,,,,,,,1.066,92.3,706.75534282614,0,10,Assisted_Takeoff,
18700,2023-10-01 20:12:43,40.0688914994733,-88.209493998058,0,,,706.75534282614,0.656168,0,0.072475724104,1.73798561992,26,10,24.946,706.75534282614,0,0,0.09340059354,0,0,0,14, -0.1, -0.3,0,0,1024,1024,1024,1024,0,0,0,0,0,0,0,100,,,,,,,1.066,92.3,706.75534282614,0,10,Assisted_Takeoff,
18800,2023-10-01 20:12:43,40.0688914977531,-88.2094940218683,0,,,706.75534282614,0.656168,0,0.069071852604,1.74466541016,26,10,24.946,706.75534282614,0,0,0.09340059354,0,0,0,14, -0.1, -0.3,0,0,1024,1024,1024,1024,0,0,0,0,0,0,0,100,,,,,,,1.066,92.3,706.75534282614,0,10,Assisted_Takeoff,
18900,2023-10-01 20:12:43,40.0688914814943,-88.2094939747046,0,,,706.75534282614,0.656168,0,0.081672246708,1.75910766784,26,10,24.946,706.75534282614,0,0,0.09340059354,0,0,0,14, -0.1, -0.3,0,0,1024,1024,1024,1024,0,0,0,0,0,0,0,100,,,,,,,1.066,92.3,706.75534282614,0,10,Assisted_Takeoff,
19000,2023-10-01 20:12:44,40.068891465054,-88.2094939429839,0,,,706.75534282614,0.656168,0,0.09196358562,1.76980320624,26,10,24.945,706.75534282614,0,0,0.09340059354,0,0,0,14, -0.1, -0.3,0,0,1024,1024,1024,1024,0,0,0,0,0,0,0,99,,,,,,,1.096,92.3,706.75534282614,0,10,Assisted_Takeoff,
19100,2023-10-01 20:12:44,40.0688914556361,-88.2094939642651,0,,,706.75534282614,0.656168,0,0.090908467476,1.77666672352,26,10,24.945,706.75534282614,0,0,0.09340059354,0,0,0,14, -0.1, -0.3,0,0,1024,1024,1024,1024,0,0,0,0,0,0,0,99,,,,,,,1.096,92.3,706.75534282614,0,10,Assisted_Takeoff,
19200,2023-10-01 20:12:44,40.0688914438412,-88.2094939427695,0,,,706.75534282614,0.656168,0,0.097973100248,1.78405189436,26,10,24.945,706.75534282614,0,0,0.097973100248,0,0,0,14, -0.1, -0.3,0,0,1024,1024,1024,1024,0,0,0,0,0,0,0,99,,,,,,,1.096,92.3,706.75534282614,0,10,Assisted_Takeoff,
19300,2023-10-01 20:12:44,40.0688914331846,-88.2094939303345,0,,,706.75534282614,0.656168,0,0.103175200152,1.78926514912,26,10,24.945,706.75534282614,0,0,0.103175200152,0,0,0,14, -0.1, -0.3,0,0,1024,1024,1024,1024,0,0,0,0,0,0,0,99,,,,,,,1.096,92.3,706.75534282614,0,10,Assisted_Takeoff,
19400,2023-10-01 20:12:44,40.0688914315486,-88.2094938904398,0,,,706.75534282614,0.656168,0,0.11085630276,1.80042000512,26,10,24.945,706.75534282614,0,0,0.11085630276,0,0,0,14, -0.1, -0.3,0,0,1024,1024,1024,1024,0,0,0,0,0,0,0,99,,,,,,,1.096,92.3,706.75534282614,0,10,Assisted_Takeoff,
19500,2023-10-01 20:12:44,40.0688914704221,-88.2094939643244,0,,,706.75534282614,0.656168,0,0.086635829544,1.82545609516,26,10,24.945,706.75534282614,0,0,0.11085630276,0,0,0,14, -0.1, -0.3,0,0,1024,1024,1024,1024,0,0,0,0,0,0,0,100,,,,,,,1.096,92.3,706.75534282614,0,10,Assisted_Takeoff,
19600,2023-10-01 20:12:44,40.0688914642835,-88.2094939337706,0,,,706.75534282614,0.656168,0,0.093879924264,1.83427499308,26,10,24.945,706.75534282614,0,0,0.11085630276,0,0,0,14.1, -0.1, -0.3,0,0,1024,1024,1024,1024,0,0,0,0,0,0,0,100,,,,,,,1.096,92.3,706.75534282614,0,10,Assisted_Takeoff,
19700,2023-10-01 20:12:44,40.0688914581497,-88.209493904415,0,,,706.75534282614,0.656168,0,0.101137142344,1.84277236868,26,10,24.945,706.75534282614,0,0,0.11085630276,0,0,0,14.1, -0.1, -0.3,0,0,1024,1024,1024,1024,0,0,0,0,0,0,0,100,,,,,,,1.096,92.3,706.75534282614,0,10,Assisted_Takeoff,
19800,2023-10-01 20:12:44,40.0688915060554,-88.2094939878343,0,,,706.75534282614,0.656168,0,0.07245899182,1.87188982368,26,10,24.945,706.75534282614,0,0,0.11085630276,0,0,0,14, -0.1, -0.3,0,0,1024,1024,1024,1024,0,0,0,0,0,0,0,100,,,,,,,1.096,92.3,706.75534282614,0,10,Assisted_Takeoff,
19900,2023-10-01 20:12:45,40.0688915111555,-88.2094939637916,0,,,706.75534282614,0.656168,0,0.075750330508,1.87885832784,26,10,24.945,706.75534282614,0,0,0.11085630276,0,0,0,14.1, -0.1, -0.3,0,0,1024,1024,1024,1024,0,0,0,0,0,0,0,100,,,,,,,1.096,92.3,706.75534282614,0,10,Assisted_Takeoff,
20000,2023-10-01 20:12:45,40.0688915144208,-88.2094939518825,0,,,706.75534282614,0.656168,0,0.077381564156,1.88238851168,26,10,24.945,706.75534282614,0,0,0.11085630276,0,0,0,14, -0.1, -0.3,0,0,1024,1024,1024,1024,0,0,0,0,0,0,0,100,,,,,,,1.096,92.3,706.75534282614,0,10,Assisted_Takeoff,
20100,2023-10-01 20:12:45,40.0688915151617,-88.2094939341961,0,,,706.75534282614,0.656168,0,0.080968506528,1.8873360184,26,10,24.945,706.75534282614,0,0,0.11085630276,0,0,0,14.1, -0.1, -0.3,0,0,1024,1024,1024,1024,0,0,0,0,0,0,0,100,,,,,,,1.096,92.3,706.75534282614,0,10,Assisted_Takeoff,
20200,2023-10-01 20:12:45,40.0688915422429,-88.2094940326321,0,,,706.75534282614,0.656168,0,0.054289043732,1.91654205608,26,10,24.945,706.75534282614,0,0,0.11085630276,0,0,0,14, -0.1, -0.3,0,0,1024,1024,1024,1024,0,0,0,0,0,0,0,100,,,,,,,1.096,92.3,706.75534282614,0,10,Assisted_Takeoff,
20300,2023-10-01 20:12:45,40.0688915365822,-88.2094940146148,0,,,706.75534282614,0.656168,0,0.05918143234,1.92197840796,26,10,24.945,706.75534282614,0,0,0.11085630276,0,0,0,14, -0.1, -0.3,0,0,1024,1024,1024,1024,0,0,0,0,0,0,0,100,,,,,,,1.096,92.3,706.75534282614,0,10,Assisted_Takeoff,
