time(millisecond),datetime(utc),latitude,longitude,height_above_takeoff(feet),height_above_ground_at_drone_location(feet),ground_elevation_at_drone_location(feet),altitude_above_seaLevel(feet),height_sonar(feet),speed(mph),distance(feet),mileage(feet),satellites,gpslevel,voltage(v),max_altitude(feet),max_ascent(feet),max_speed(mph),max_distance(feet), xSpeed(mph), ySpeed(mph), zSpeed(mph), compass_heading(degrees), pitch(degrees), roll(degrees),isPhoto,isVideo,rc_elevator,rc_aileron,rc_throttle,rc_rudder,rc_elevator(percent),rc_aileron(percent),rc_throttle(percent),rc_rudder(percent),gimbal_heading(degrees),gimbal_pitch(degrees),gimbal_roll(degrees),battery_percent,voltageCell1,voltageCell2,voltageCell3,voltageCell4,voltageCell5,voltageCell6,current(A),battery_temperature(f),altitude(feet),ascent(feet),flycStateRaw,flycState,message
0,2023-09-22 21:45:13,40.0825179789912,-88.2014421087203,0,Available with any HD 360 subscription,Available with any HD 360 subscription,726.24644417164,0.656168,0,0,0,25,10,0,726.24644417164,0,0,0,0,0,0,92.1, -1.9, -0.8,0,0,364,364,364,1684,-100,-100,-100,100,0,0,0,20,,,,,,,0,93.38,726.24644417164,0,41,Motors_Started,"GEO: You are in a Warning Zone (Airport). Fly with caution."
100,2023-09-22 21:45:13,40.0825179817026,-88.2014421328837,0,,,726.24644417164,0.656168,0,0.0068174542864,0.0068174542864,25,10,0,726.24644417164,0,0,0.0068174542864,0,0,0,92.1, -1.9, -0.8,0,0,364,364,364,1684,-100,-100,-100,100,0,0,0,20,,,,,,,0,93.38,726.24644417164,0,41,Motors_Started,
200,2023-09-22 21:45:13,40.0825179729723,-88.2014421242832,0,,,726.24644417164,0.656168,0,0.0048679135416,0.0108061355164,25,10,0,726.24644417164,0,0,0.0068174542864,0,0,0,92.1, -1.9, -0.8,0,0,364,364,364,1684,-100,-100,-100,100,0,0,0,20,,,,,,,0,93.38,726.24644417164,0,41,Motors_Started,
300,2023-09-22 21:45:13,40.0825179553456,-88.2014421067609,0,,,726.24644417164,0.656168,0,0.0086443900404,0.0188860242264,25,10,0,726.24644417164,0,0,0.0086443900404,0,0,0,92.1, -1.9, -0.8,0,0,364,364,364,1684,-100,-100,-100,100,0,0,0,20,,,,,,,0,93.38,726.24644417164,0,41,Motors_Started,
400,2023-09-22 21:45:13,40.0825179831146,-88.2014421778987,0,,,726.24644417164,0.656168,0,0.0193698825096,0.04117946326,25,10,0,726.24644417164,0,0,0.0193698825096,0,0,0,92.1, -1.9, -0.8,0,0,364,364,364,1684,-100,-100,-100,100,0,0,0,20,,,,,,,0,93.38,726.24644417164,0,41,Motors_Started,
500,2023-09-22 21:45:13,40.0825179824456,-88.2014421836415,0,,,726.24644417164,0.656168,0,0.020952428492,0.042801182472,24,10,0,726.24644417164,0,0,0.020952428492,0,0,0,92.1, -1.9, -0.8,0,0,364,364,364,1684,-100,-100,-100,100,0,0,0,20,,,,,,,0,93.38,726.24644417164,0,41,Motors_Started,"Setting new Return-To-Home altitude to 100m (328 ft). Data Recorder File Index is 21. Setting new Maximum Flight Altitude to 120m (394 ft)"
600,2023-09-22 21:45:13,40.0825179786573,-88.2014421660555,0,,,726.24644417164,0.656168,0,0.016005741982,0.047901248252,24,10,0,726.24644417164,0,0,0.020952428492,0,0,0,92.1, -1.9, -0.8,0,0,540,384,720,1286,-73,-97,-46,40,0,0,0,20,,,,,,,0,93.38,726.24644417164,0,41,Motors_Started,
700,2023-09-22 21:45:13,40.0825179722866,-88.2014421484774,0,,,726.24644417164,0.656168,0,0.0113646985264,0.053330710368,24,10,0,726.24644417164,0,0,0.020952428492,0,0,0,92.1, -2, -0.8,0,0,540,384,720,1286,-73,-97,-46,40,0,0,0,20,,,,,,,0,93.38,726.24644417164,0,41,Motors_Started,
800,2023-09-22 21:45:13,40.0825180111705,-88.2014421653137,0,,,726.24644417164,0.656168,0,0.0196831371128,0.06827592082,24,10,0,726.24644417164,0,0,0.020952428492,0,0,0,92.1, -1.9, -0.8,0,0,1024,1024,1024,1024,0,0,0,0,0,0,0,20,,,,,,,0,93.38,726.24644417164,0,41,Motors_Started,
900,2023-09-22 21:45:13,40.0825180023204,-88.2014421490306,0,,,726.24644417164,0.656168,0,0.0141093180368,0.073851380316,24,10,0,726.24644417164,0,0,0.020952428492,0,0,0,92.1, -2, -0.8,0,0,1024,1024,1024,1024,0,0,0,0,0,0,0,20,,,,,,,0,93.38,726.24644417164,0,41,Motors_Started,
1000,2023-09-22 21:45:14,40.0825179915476,-88.2014421330352,0,,,726.24644417164,0.656168,0,0.0081889110232,0.079800199404,24,10,0,726.24644417164,0,0,0.020952428492,0,0,0,92.1, -1.9, -0.8,0,0,1024,1024,1024,1024,0,0,0,0,0,0,0,20,,,,,,,0,93.38,726.24644417164,0,41,Motors_Started,
1100,2023-09-22 21:45:14,40.0825180213834,-88.2014421426709,0,,,726.24644417164,0.656168,0,0.0181395347012,0.091013126272,24,10,0,726.24644417164,0,0,0.020952428492,0,0,0,92.1, -2, -0.7,0,0,1024,1024,1024,1024,0,0,0,0,0,0,0,20,,,,,,,0,93.38,726.24644417164,0,41,Motors_Started,
1200,2023-09-22 21:45:14,40.08251800799,-88.2014421132745,0,,,726.24644417164,0.656168,0,0.0106562995536,0.100563979596,24,10,0,726.24644417164,0,0,0.020952428492,0,0,0,92, -2, -0.8,0,0,1024,1024,1024,1024,0,0,0,0,0,0,0,20,,,,,,,0,93.38,726.24644417164,0,41,Motors_Started,
1300,2023-09-22 21:45:14,40.0825180004545,-88.2014420917511,0,,,726.24644417164,0.656168,0,0.0091521328388,0.107171591356,24,10,0,726.24644417164,0,0,0.020952428492,0,0,0,92.1, -2, -0.8,0,0,1024,1024,1024,1024,0,0,0,0,0,0,0,20,,,,,,,0,93.38,726.24644417164,0,41,Motors_Started,
1400,2023-09-22 21:45:14,40.082517992715,-88.201442075925,0,,,726.24644417164,0.656168,0,0.01043471162,0.11241470176,24,10,0,726.24644417164,0,0,0.020952428492,0,0,0,92.1, -2, -0.8,0,0,1024,1024,1024,1024,0,0,0,0,0,0,0,20,,,,,,,0,93.38,726.24644417164,0,41,Motors_Started,
1500,2023-09-22 21:45:14,40.0825180070411,-88.2014420937535,0,,,726.24644417164,0.656168,0,0.01105397017,0.119631893592,24,10,0,726.24644417164,0,0,0.020952428492,0,0,0,92.1, -1.9, -0.7,0,0,1024,1024,1024,1024,0,0,0,0,0,0,0,20,,,,,,,0,93.38,726.24644417164,0,41,Motors_Started,
1600,2023-09-22 21:45:14,40.0825179905399,-88.2014420761888,0,,,726.24644417164,0.656168,0,0.010011155176,0.127396329536,24,10,20.7085,726.24644417164,0,0,0.020952428492,0,0,0,92.1, -2, -0.7,0,0,1024,1024,1024,1024,0,0,0,0,0,0,0,19,,,,,,,2.818,93.38,726.24644417164,0,41,Motors_Started,
1700,2023-09-22 21:45:14,40.0825179825037,-88.2014420690506,0,,,726.24644417164,0.656168,0,0.011147802194,0.13094160524,24,10,20.7085,726.24644417164,0,0,0.020952428492,0,0,0,92.1, -2, -0.8,0,0,1024,1024,1024,1024,0,0,0,0,0,0,0,19,,,,,,,2.818,93.38,726.24644417164,0,41,Motors_Started,
1800,2023-09-22 21:45:14,40.0825180220502,-88.2014421351548,0,,,726.24644417164,0.656168,0,0.0173568247024,0.154365818588,24,10,20.7085,726.24644417164,0,0,0.020952428492,0,0,0,92.1, -2, -0.8,0,0,1024,1024,1024,1024,0,0,0,0,0,0,0,19,,,,,,,2.818,93.38,726.24644417164,0,41,Motors_Started,
1900,2023-09-22 21:45:15,40.082518013167,-88.2014421268127,0,,,726.24644417164,0.656168,0,0.0134530516116,0.158356632364,24,10,20.7085,726.24644417164,0,0,0.020952428492,0,0,0,92.1, -2, -0.8,0,0,1024,1024,1024,1024,0,0,0,0,0,0,0,19,,,,,,,2.818,93.38,726.24644417164,0,41,Motors_Started,
2000,2023-09-22 21:45:15,40.0825179991374,-88.2014421101426,0,,,726.24644417164,0.656168,0,0.007361056666,0.165274611588,25,10,20.7085,726.24644417164,0,0,0.020952428492,0,0,0,92, -2, -0.8,0,0,1024,1024,1024,1024,0,0,0,0,0,0,0,19,,,,,,,2.818,93.38,726.24644417164,0,10,Assisted_Takeoff,
2100,2023-09-22 21:45:15,40.0825179828416,-88.2014420934386,0,,,726.24644417164,0.656168,0,0.0044912731096,0.172830386108,24,10,20.7085,726.24644417164,0,0,0.020952428492,0,0,0,92.1, -2, -0.8,0,0,1024,1024,1024,1024,0,0,0,0,0,0,0,19,,,,,,,2.818,93.38,726.24644417164,0,10,Assisted_Takeoff,
2200,2023-09-22 21:45:15,40.0825180004614,-88.201442121969,0,,,726.24644417164,0.656168,0,0.008662565894,0.183065622656,24,10,20.7085,726.24644417164,0,0,0.020952428492,0,0,0,92, -2, -0.8,0,0,1024,1024,1024,1024,0,0,0,0,0,0,0,19,,,,,,,2.818,93.38,726.24644417164,0,10,Assisted_Takeoff,
2300,2023-09-22 21:45:15,40.0825179883147,-88.201442104235,0,,,726.24644417164,0.656168,0,0.0036248032656,0.189709979824,24,10,20.7085,726.24644417164,0,0,0.020952428492,0,0,0,92, -2, -0.8,0,0,1024,1024,1024,1024,0,0,0,0,0,0,0,19,,,,,,,2.818,93.38,726.24644417164,0,10,Assisted_Takeoff,
2400,2023-09-22 21:45:15,40.0825179795356,-88.2014420876251,0,,,726.24644417164,0.656168,0,0.0058921261728,0.195345478692,27,10,20.7085,726.24644417164,0,0,0.020952428492,0,0,0,92, -2, -0.7,0,0,1024,1024,1024,1024,0,0,0,0,0,0,0,19,,,,,,,2.818,93.38,726.24644417164,0,10,Assisted_Takeoff,
2500,2023-09-22 21:45:15,40.0825180137733,-88.2014421524351,0,,,726.24644417164,0.656168,0,0.0176056107996,0.217330715616,27,10,20.7085,726.24644417164,0,0,0.020952428492,0,0,0,92.1, -2, -0.8,0,0,1024,1024,1024,1024,0,0,0,0,0,0,0,20,,,,,,,2.818,93.38,726.24644417164,0,10,Assisted_Takeoff,
2600,2023-09-22 21:45:15,40.0825179936112,-88.2014421480674,0,,,726.24644417164,0.656168,0,0.0122105646952,0.224787408768,27,10,20.761,726.24644417164,0,0,0.020952428492,0,0,0,92, -2, -0.8,0,0,1024,1024,1024,1024,0,0,0,0,0,0,0,19,,,,,,,1.864,93.38,726.24644417164,0,10,Assisted_Takeoff,
2700,2023-09-22 21:45:15,40.0825179781641,-88.2014421355565,0,,,726.24644417164,0.656168,0,0.0074975068016,0.231417658324,27,10,20.761,726.24644417164,0,0,0.020952428492,0,0,0,92.1, -2, -0.7,0,0,1024,1024,1024,1024,0,0,0,0,0,0,0,19,,,,,,,1.864,93.38,726.24644417164,0,10,Assisted_Takeoff,
2800,2023-09-22 21:45:15,40.0825179629946,-88.2014421134599,0,,,726.24644417164,0.656168,0,0.0059844490104,0.23970473208,27,10,20.761,726.24644417164,0,0,0.020952428492,0,0,0,92.1, -2, -0.7,0,0,1024,1024,1024,1024,0,0,0,0,0,0,0,19,,,,,,,1.864,93.38,726.24644417164,0,10,Assisted_Takeoff,
2900,2023-09-22 21:45:16,40.0825179771967,-88.2014421187388,0,,,726.24644417164,0.656168,0,0.00287232292656,0.24509187136,27,10,20.761,726.24644417164,0,0,0.020952428492,0,0,0,92.1, -2, -0.8,0,0,1024,1024,1024,1024,0,0,0,0,0,0,0,19,,,,,,,1.864,93.38,726.24644417164,0,10,Assisted_Takeoff,
3000,2023-09-22 21:45:16,40.0825179616126,-88.2014420924897,0,,,726.24644417164,0.656168,0,0.0077930120604,0.25436680604,27,10,20.761,726.24644417164,0,0,0.020952428492,0,0,0,92.1, -2, -0.8,0,0,1024,1024,1024,1024,0,0,0,0,0,0,0,19,,,,,,,1.864,93.38,726.24644417164,0,10,Assisted_Takeoff,
3100,2023-09-22 21:45:16,40.0825179475348,-88.2014420708476,0,,,726.24644417164,0.656168,0,0.015604167166,0.262296268236,27,10,20.761,726.24644417164,0,0,0.020952428492,0,0,0,92.1, -2, -0.8,0,0,1024,1024,1024,1024,0,0,0,0,0,0,0,19,,,,,,,1.864,93.38,726.24644417164,0,10,Assisted_Takeoff,
3200,2023-09-22 21:45:16,40.0825179793067,-88.2014420994494,0,,,726.24644417164,0.656168,0,0.0025905348598,0.276372056088,27,10,20.761,726.24644417164,0,0,0.020952428492,0,0,0,92.1, -2, -0.8,0,0,1024,1024,1024,1024,0,0,0,0,0,0,0,19,,,,,,,1.864,93.38,726.24644417164,0,10,Assisted_Takeoff,
3300,2023-09-22 21:45:16,40.082517967261,-88.2014420869572,0,,,726.24644417164,0.656168,0,0.0074313322588,0.281982292488,27,10,20.761,726.24644417164,0,0,0.020952428492,0,0,0,92.1, -2, -0.8,0,0,1024,1024,1024,1024,0,0,0,0,0,0,0,19,,,,,,,1.864,93.38,726.24644417164,0,10,Assisted_Takeoff,
3400,2023-09-22 21:45:16,40.082517953777,-88.2014420763319,0,,,726.24644417164,0.656168,0,0.01289862246,0.287727043328,27,10,20.761,726.24644417164,0,0,0.020952428492,0,0,0,92.1, -2, -0.8,0,0,1024,1024,1024,1024,0,0,0,0,0,0,0,19,,,,,,,1.864,93.38,726.24644417164,0,10,Assisted_Takeoff,
3500,2023-09-22 21:45:16,40.0825179550753,-88.2014420625779,0,,,726.24644417164,0.656168,0,0.0155580385556,0.291595481772,27,10,20.761,726.24644417164,0,0,0.020952428492,0,0,0,92.1, -2, -0.8,0,0,1024,1024,1024,1024,0,0,0,0,0,0,0,20,,,,,,,1.864,93.38,726.24644417164,0,10,Assisted_Takeoff,
3600,2023-09-22 21:45:16,40.0825180349487,-88.2014421105968,0,,,726.24644417164,0.656168,0,0.0204228024908,0.323672582536,27,10,20.761,726.24644417164,0,0,0.020952428492,0,0,0,92.1, -2, -0.8,0,0,1024,1024,1024,1024,0,0,0,0,0,0,0,20,,,,,,,1.864,93.38,726.24644417164,0,10,Assisted_Takeoff,
3700,2023-09-22 21:45:16,40.0825180390443,-88.2014420911108,0,,,726.24644417164,0.656168,0,0.0224550204036,0.329314315,27,10,20.761,726.24644417164,0,0,0.0224550204036,0,0,0,92.1, -2, -0.8,0,0,1024,1024,1024,1024,0,0,0,0,0,0,0,20,,,,,,,1.864,93.38,726.24644417164,0,10,Assisted_Takeoff,
3800,2023-09-22 21:45:16,40.0825180342791,-88.2014420659425,0,,,726.24644417164,0.656168,0,0.023441437758,0.33655184804,27,10,20.761,726.24644417164,0,0,0.023441437758,0,0,0,92.1, -2, -0.8,0,0,1024,1024,1024,1024,0,0,0,0,0,0,0,20,,,,,,,1.864,93.38,726.24644417164,0,10,Assisted_Takeoff,
3900,2023-09-22 21:45:17,40.0825180862543,-88.2014420873816,0,,,726.24644417164,0.656168,0,0.039585631188,0.35643701928,27,10,20.761,726.24644417164,0,0,0.039585631188,0,0,0,92, -2, -0.8,0,0,1024,1024,1024,1024,0,0,0,0,0,0,0,20,,,,,,,1.864,93.38,726.24644417164,0,10,Assisted_Takeoff,
4000,2023-09-22 21:45:17,40.0825180849723,-88.2014420559169,0,,,726.24644417164,0.656168,0,0.041381563004,0.36523295132,27,10,20.7525,726.24644417164,0,0,0.041381563004,0,0,0,92, -2, -0.7,0,0,1024,1024,1024,1024,0,0,0,0,0,0,0,19,,,,,,,1.152,93.38,726.24644417164,0,10,Assisted_Takeoff,
4100,2023-09-22 21:45:17,40.0825180780132,-88.20144203427,0,,,726.24644417164,0.656168,0,0.041679463276,0.37178806964,27,10,20.7525,726.24644417164,0,0,0.041679463276,0,0,0,92.1, -2, -0.7,0,0,1024,1024,1259,1024,0,0,36,0,0,0,0,19,,,,,,,1.152,93.38,726.24644417164,0,10,Assisted_Takeoff,
4200,2023-09-22 21:45:17,40.0825180631807,-88.2014420168525,0,,,726.24644417164,0.656168,0,0.04001476506,0.37906169192,27,10,20.7525,726.24644417164,0,0,0.041679463276,0,0,0,92, -2, -0.7,0,0,1024,1024,1466,1024,0,0,67,0,0,0,0,19,,,,,,,1.152,93.38,726.24644417164,0,10,Assisted_Takeoff,
4300,2023-09-22 21:45:17,40.0825180722207,-88.2014420404579,0,,,726.24644417164,0.656168,0,0.038988846392,0.38643045856,27,10,20.7525,726.24644417164,0,0,0.041679463276,0,0,0,92, -2, -0.7,0,0,1024,1024,1590,1024,0,0,86,0,0,0,0,19,,,,,,,1.152,93.38,726.24644417164,0,10,Assisted_Takeoff,
4400,2023-09-22 21:45:17,40.082518063556,-88.2014420205425,0,,,726.24644417164,0.656168,0,0.039469489452,0.39282481572,27,10,20.7525,726.24644417164,0,0,0.041679463276,0,0,0,92, -2, -0.7,0,0,1024,1024,1590,1024,0,0,86,0,0,0,0,19,,,,,,,1.152,93.38,726.24644417164,0,10,Assisted_Takeoff,
4500,2023-09-22 21:45:17,40.0825180477309,-88.201442019172,0,,,726.24644417164,0.656168,0,0.03541010612,0.39861221748,27,10,20.7525,726.24644417164,0,0,0.041679463276,0,0,0,92.1, -1.9, -0.7,0,0,1024,1024,1541,1024,0,0,78,0,0,0,0,20,,,,,,,1.152,93.38,726.24644417164,0,10,Assisted_Takeoff,
4600,2023-09-22 21:45:17,40.0825180574541,-88.2014421143609,0,,,726.24644417164,0.656168,0,0.0286704077416,0.42541996112,27,10,20.7525,726.24644417164,0,0,0.041679463276,0,0,0,92, -1.9, -0.7,0,0,1024,1024,1541,1024,0,0,78,0,0,0,0,20,,,,,,,1.152,93.38,726.24644417164,0,10,Assisted_Takeoff,
4700,2023-09-22 21:45:17,40.0825180333335,-88.2014421206912,0,,,726.24644417164,0.656168,0,0.0201063982812,0.43439633936,27,10,20.7525,726.24644417164,0,0,0.041679463276,0,0,0,92.1, -1.8, -0.6,0,0,1024,1024,1557,1024,0,0,81,0,0,0,0,20,,,,,,,1.152,93.38,726.24644417164,0,10,Assisted_Takeoff,
4800,2023-09-22 21:45:17,40.0825180039553,-88.2014421182808,0,,,726.24644417164,0.656168,0,0.0094910764192,0.44513780952,27,10,20.7525,726.24644417164,0,0,0.041679463276,0,0,0,92, -1.6, -0.6,0,0,1024,1024,1549,1024,0,0,80,0,0,0,0,20,,,,,,,1.152,93.38,726.24644417164,0,10,Assisted_Takeoff,
4900,2023-09-22 21:45:18,40.082517977428,-88.2014421227133,0,,,726.24644417164,0.656168,0,0.0039476051132,0.45489502768,27,10,20.7525,726.24644417164,0,0,0.041679463276,0,0,0,92, -1.3, -0.5,0,0,1024,1024,1535,1024,0,0,77,0,0,0,0,20,,,,,,,1.152,93.38,726.24644417164,0,10,Assisted_Takeoff,
5000,2023-09-22 21:45:18,40.0825179678214,-88.2014422025621,0,,,726.24644417164,0.656168,0,0.026511319746,0.47745736436,26,10,20.753,726.24644417164,0,0,0.041679463276,0,0,0,92, -0.5, -0.1,0,0,1024,1024,1535,1024,0,0,77,0,0,0,0,19,,,,,,,1.196,93.38,726.24644417164,0,10,Assisted_Takeoff,
5100,2023-09-22 21:45:18,40.0825179261495,-88.2014422525905,0,,,726.24644417164,0.656168,0,0.044549542108,0.49810040964,26,10,20.753,726.24644417164,0,0,0.044549542108,0,0,-0.223694,92.2, 1.3, 1,0,0,1024,1024,1516,1024,0,0,75,0,0,0,0,19,,,,,,,1.196,93.38,726.24644417164,0,10,Assisted_Takeoff,
5200,2023-09-22 21:45:18,40.082517857562,-88.2014423583221,0,,,726.24644417164,0.656168,0,0.082569228364,0.53679791744,26,10,20.753,726.24644417164,0,0,0.082569228364,0,0,-0.671082,92.2, 3.3, 2,0,0,1024,1024,1498,1024,0,0,72,0,0,0,0,19,,,,,,,1.196,93.38,726.24644417164,0,6,P-GPS,
5300,2023-09-22 21:45:18,40.082517804896,-88.2014425884781,0,,,726.24644417164,0.984252,0.3131716,0.14822507036,0.60385828704,26,10,20.753,726.24644417164,0,0.3131716,0.14822507036,-0.223694,-0.223694,-1.11847,92.1, 3.8, 1.4,0,0,1024,1024,1504,1024,0,0,73,0,0,0,0,19,,,,,,,1.196,93.38,726.24644417164,0,6,P-GPS,
5400,2023-09-22 21:45:18,40.0825176896701,-88.2014429031128,0.328084,,,726.57452817164,0.984252,0.4921268,0.24559876114,0.70123361824,26,10,20.753,726.57452817164,0.328084,0.4921268,0.24559876114,-0.223694,-0.447388,-1.565858,91.7, 2, -0.6,0,0,1024,1024,1504,1024,0,0,73,0,0,0,0,19,,,,,,,1.196,93.38,726.57452817164,0.328084,6,P-GPS,
5500,2023-09-22 21:45:18,40.0825176021221,-88.2014432841102,0.656168,,,726.90261217164,1.312336,0.7158208,0.3557578854,0.81228020972,26,10,20.753,726.90261217164,0.656168,0.7158208,0.3557578854,-0.223694,-0.671082,-2.23694,91.5, -0.4, -2.4,0,0,1024,1024,1496,1024,0,0,72,0,0,0,0,20,,,,,,,1.196,93.38,726.90261217164,0.656168,6,P-GPS,
5600,2023-09-22 21:45:18,40.0825175419654,-88.2014436809569,0.984252,,,727.23069617164,1.968504,0.7158208,0.4669619572,0.92521656504,26,10,20.753,727.23069617164,0.984252,0.7158208,0.4669619572,0,-0.447388,-2.684328,91.5, -3.8, -3.3,0,0,1024,1024,1497,1024,0,0,72,0,0,0,0,20,,,,,,,1.196,93.38,727.23069617164,0.984252,6,P-GPS,
5700,2023-09-22 21:45:18,40.0825175979583,-88.2014439909617,1.312336,,,727.55878017164,2.296588,0.447388,0.54351379692,1.01413389072,26,10,20.753,727.55878017164,1.312336,0.7158208,0.54351379692,0,-0.447388,-3.579104,91.4, -4.7, -3,0,0,1024,1024,1497,1024,0,0,72,0,0,0,0,20,,,,,,,1.196,93.38,727.55878017164,1.312336,6,P-GPS,
5800,2023-09-22 21:45:18,40.0825177143438,-88.2014441824876,1.968504,,,728.21494817164,2.952756,0.447388,0.58689634424,1.08240817112,26,10,20.753,728.21494817164,1.968504,0.7158208,0.58689634424,0.223694,-0.223694,-4.250186,91.2, -3.6, -1.2,0,0,1024,1024,1494,1024,0,0,71,0,0,0,0,20,,,,,,,1.196,93.38,728.21494817164,1.968504,6,P-GPS,
5900,2023-09-22 21:45:18,40.0825178546664,-88.2014443006483,2.624672,,,728.87111617164,3.608924,0.223694,0.61356301176,1.14331040404,26,10,20.753,728.87111617164,2.624672,0.7158208,0.61356301176,0.223694,0,-4.921268,91.2, -1.7, 1.5,0,0,1024,1024,1439,1024,0,0,63,0,0,0,0,20,,,,,,,1.196,93.38,728.87111617164,2.624672,6,P-GPS,
6000,2023-09-22 21:45:19,40.0825180166212,-88.2014445300332,3.608924,,,729.85536817164,4.265092,0,0.67605645208,1.23044295276,26,10,20.753,729.85536817164,3.608924,0.7158208,0.67605645208,0,0,-5.368656,91.2, -0.6, 2.9,0,0,1024,1024,1066,1024,0,0,6,0,0,0,0,20,,,,,,,1.196,93.38,729.85536817164,3.608924,6,P-GPS,
6100,2023-09-22 21:45:19,40.0825180736508,-88.2014446572954,4.265092,,,730.51153617164,5.249344,0,0.71228020652,1.27161421392,26,10,20.4005,730.51153617164,4.265092,0.7158208,0.71228020652,0,-0.223694,-5.816044,91.2, -1.1, 2.2,0,0,1024,1024,1024,1024,0,0,0,0,0,0,0,19,,,,,,,9.636,93.38,730.51153617164,4.265092,6,P-GPS,
6200,2023-09-22 21:45:19,40.0825181015503,-88.2014447805232,5.249344,,,731.49578817164,5.905512,0.223694,0.74718178244,1.30748691848,26,10,20.4005,731.49578817164,5.249344,0.7158208,0.74718178244,0,-0.223694,-6.039738,91.2, -2.3, 0.5,0,0,1024,1024,1024,1024,0,0,0,0,0,0,0,19,,,,,,,9.636,93.38,731.49578817164,5.249344,6,P-GPS,
6300,2023-09-22 21:45:19,40.0825181347964,-88.2014449143364,5.905512,,,732.15195617164,6.889764,0,0.78525593064,1.34676185412,26,10,20.4005,732.15195617164,5.905512,0.7158208,0.78525593064,0,0,-6.039738,91.3, -3.6, -0.2,0,0,1024,1024,1024,1024,0,0,0,0,0,0,0,19,,,,,,,9.636,93.38,732.15195617164,5.905512,6,P-GPS,
6400,2023-09-22 21:45:19,40.0825182791662,-88.2014451185961,6.889764,,,733.13620817164,7.545932,0,0.84732286176,1.42438652852,26,10,20.4005,733.13620817164,6.889764,0.7158208,0.84732286176,0,0,-5.816044,91.4, -3.9, 0,0,0,1024,1024,1024,1024,0,0,0,0,0,0,0,19,,,,,,,9.636,93.38,733.13620817164,6.889764,6,P-GPS,
6500,2023-09-22 21:45:19,40.0825183528451,-88.2014451611877,7.874016,,,734.12046017164,8.2021,0,0.86295278352,1.45377957408,26,10,20.4005,734.12046017164,7.874016,0.7158208,0.86295278352,0,0,-5.59235,91.5, -3.1, 1,0,0,1024,1024,1024,1024,0,0,0,0,0,0,0,20,,,,,,,9.636,93.38,734.12046017164,7.874016,6,P-GPS,
6600,2023-09-22 21:45:19,40.0825184262526,-88.201445151709,8.530184,,,734.77662817164,8.858268,0,0.86499018516,1.4806923046,26,10,20.4005,734.77662817164,8.530184,0.7158208,0.86499018516,0,0,-4.921268,91.7, -2.2, 2,0,0,1024,1024,1024,1024,0,0,0,0,0,0,0,20,,,,,,,9.636,93.38,734.77662817164,8.530184,6,P-GPS,
6700,2023-09-22 21:45:19,40.0825185658726,-88.201445202285,9.186352,,,735.43279617164,9.186352,0,0.88972771876,1.53355319868,26,10,20.4005,735.43279617164,9.186352,0.7158208,0.88972771876,0,0,-4.47388,91.8, -1.7, 2.5,0,0,1024,1024,1024,1024,0,0,0,0,0,0,0,20,,,,,,,9.636,93.38,735.43279617164,9.186352,6,P-GPS,
6800,2023-09-22 21:45:19,40.0825186407317,-88.2014451912182,9.84252,,,736.08896417164,9.514436,0,0.8937172202,1.5610400762,26,10,20.4005,736.08896417164,9.84252,0.7158208,0.8937172202,0,0,-3.802798,91.9, -1.7, 2.3,0,0,1024,1024,1047,1024,0,0,3,0,0,0,0,20,,,,,,,9.636,93.38,736.08896417164,9.84252,6,P-GPS,
6900,2023-09-22 21:45:19,40.0825186930235,-88.2014451907948,10.498688,,,736.74513217164,9.84252,0,0.89894687916,1.5801181608,26,10,20.4005,736.74513217164,10.498688,0.7158208,0.89894687916,0,0,-3.131716,92, -2.1, 1.9,0,0,1024,1024,1602,1024,0,0,88,0,0,0,0,20,,,,,,,9.636,93.38,736.74513217164,10.498688,6,P-GPS,
7000,2023-09-22 21:45:20,40.0825187302443,-88.2014451909476,10.826772,,,737.07321617164,10.170604,0,0.90301512076,1.5937008384,26,10,20.4005,737.07321617164,10.826772,0.7158208,0.90301512076,0,0,-2.460634,92, -2.4, 1.6,0,0,1024,1024,1684,1024,0,0,100,0,0,0,0,20,,,,,,,9.636,93.38,737.07321617164,10.826772,6,P-GPS,
7100,2023-09-22 21:45:20,40.0825187914578,-88.2014452064195,11.154856,,,737.40130017164,10.170604,0,0.91412732584,1.61644690212,26,10,20.5185,737.40130017164,11.154856,0.7158208,0.91412732584,0,0,-2.23694,92, -1.9, 1.5,0,0,1024,1024,1684,1024,0,0,100,0,0,0,0,19,,,,,,,13.09,93.38,737.40130017164,11.154856,6,P-GPS,
7200,2023-09-22 21:45:20,40.0825187912327,-88.2014451682637,11.48294,,,737.72938417164,10.170604,0,0.90403218116,1.6270997896,26,10,20.5185,737.72938417164,11.48294,0.7158208,0.91412732584,0,0,-2.23694,92, -1.1, 1.3,0,0,1024,1024,1651,1024,0,0,95,0,0,0,0,19,,,,,,,13.09,93.38,737.72938417164,11.48294,6,P-GPS,
7300,2023-09-22 21:45:20,40.0825187912886,-88.2014451621075,11.811024,,,738.05746817164,10.498688,0,0.90241472704,1.62881566892,26,10,20.5185,738.05746817164,11.811024,0.7158208,0.91412732584,0,0,-2.460634,91.9, -0.8, 0.8,0,0,1024,1024,1520,1024,0,0,75,0,0,0,0,19,,,,,,,13.09,93.38,738.05746817164,11.811024,6,P-GPS,
7400,2023-09-22 21:45:20,40.0825188411212,-88.2014452411602,12.467192,,,738.71363617164,10.826772,0,0.9292815258,1.65741147036,26,10,20.5185,738.71363617164,12.467192,0.7158208,0.9292815258,0,0,-2.908022,91.7, -1.1, 0.3,0,0,1024,1024,1517,1024,0,0,75,0,0,0,0,19,,,,,,,13.09,93.38,738.71363617164,12.467192,6,P-GPS,
7500,2023-09-22 21:45:20,40.0825188633065,-88.2014452760231,12.795276,,,739.04172017164,11.154856,0,0.941190975,1.67006895108,26,10,20.5185,739.04172017164,12.795276,0.7158208,0.941190975,0,0,-3.35541,91.6, -1.6, 0.3,0,0,1024,1024,1464,1024,0,0,67,0,0,0,0,20,,,,,,,13.09,93.38,739.04172017164,12.795276,6,P-GPS,
7600,2023-09-22 21:45:20,40.082518901027,-88.2014453002727,13.451444,,,739.69788817164,11.48294,0,0.95232614596,1.68540687808,26,10,20.5185,739.69788817164,13.451444,0.7158208,0.95232614596,0,0,-4.026492,91.5, -2, 0.6,0,0,1024,1024,1276,1024,0,0,38,0,0,0,0,20,,,,,,,13.09,93.38,739.69788817164,13.451444,6,P-GPS,
7700,2023-09-22 21:45:20,40.0825189334858,-88.2014453236822,13.779528,,,740.02597217164,11.811024,0,0.9626640728,1.69893050056,25,10,20.5185,740.02597217164,13.779528,0.7158208,0.9626640728,0,0,-4.250186,91.5, -2.2, 0.8,0,0,1024,1024,1151,1024,0,0,19,0,0,0,0,20,,,,,,,13.09,93.38,740.02597217164,13.779528,6,P-GPS,
7800,2023-09-22 21:45:20,40.0825190252009,-88.2014453912486,14.435696,,,740.68214017164,12.467192,0,0.9926509504,1.73734257528,25,10,20.5185,740.68214017164,14.435696,0.7158208,0.9926509504,0,0,-4.250186,91.6, -2.8, 1,0,0,1024,1024,1263,1024,0,0,36,0,0,0,0,20,,,,,,,13.09,93.38,740.68214017164,14.435696,6,P-GPS,
7900,2023-09-22 21:45:21,40.0825190612677,-88.20144538958,15.091864,,,741.33830817164,12.795276,0,0.9973589558,1.75051186704,25,10,20.5185,741.33830817164,15.091864,0.7158208,0.9973589558,0,0,-3.802798,91.6, -3.2, 1.4,0,0,1024,1024,1393,1024,0,0,56,0,0,0,0,20,,,,,,,13.09,93.38,741.33830817164,15.091864,6,P-GPS,
8000,2023-09-22 21:45:21,40.0825190980577,-88.2014453546285,15.748032,,,741.99447617164,13.12336,0,0.99384517616,1.76710307492,26,10,20.5185,741.99447617164,15.748032,0.7158208,0.9973589558,0,0,-3.802798,91.6, -2.6, 1.8,0,0,1024,1024,1440,1024,0,0,63,0,0,0,0,20,,,,,,,13.09,93.38,741.99447617164,15.748032,6,P-GPS,
8100,2023-09-22 21:45:21,40.082519192355,-88.2014453717933,16.4042,,,742.65064417164,13.451444,0,1.01277234212,1.80184060884,26,10,20.5185,742.65064417164,16.4042,0.7158208,1.01277234212,0,0,-4.026492,91.7, -1.5, 1.4,0,0,1024,1024,1536,1024,0,0,78,0,0,0,0,20,,,,,,,13.09,93.38,742.65064417164,16.4042,6,P-GPS,
8200,2023-09-22 21:45:21,40.0825192269567,-88.2014453258052,17.060368,,,743.30681217164,13.779528,0,1.006889796,1.81984585876,26,10,20.5185,743.30681217164,17.060368,0.7158208,1.01277234212,0,0,-4.47388,91.6, -0.7, 1.1,0,0,1024,1024,1535,1024,0,0,77,0,0,0,0,20,,,,,,,13.09,93.38,743.30681217164,17.060368,6,P-GPS,
8300,2023-09-22 21:45:21,40.0825192605133,-88.2014452968968,17.716536,,,743.96298017164,14.107612,0,1.005331397,1.83450793272,26,10,20.5185,743.96298017164,17.716536,0.7158208,1.01277234212,0,0,-4.921268,91.6, -0.7, 1.1,0,0,1024,1024,1514,1024,0,0,74,0,0,0,0,20,,,,,,,13.09,93.38,743.96298017164,17.716536,6,P-GPS,
8400,2023-09-22 21:45:21,40.0825192954019,-88.2014452835922,18.372704,,,744.61914817164,14.76378,0,1.00804793252,1.847769088,26,10,20.5185,744.61914817164,18.372704,0.7158208,1.01277234212,0,0,-5.59235,91.6, -1.4, 1.4,0,0,1024,1024,1521,1024,0,0,75,0,0,0,0,20,,,,,,,13.09,93.38,744.61914817164,18.372704,6,P-GPS,
8500,2023-09-22 21:45:21,40.0825193670456,-88.2014453170995,19.356956,,,745.60340017164,15.419948,0,1.02889438988,1.87553155608,26,10,20.365,745.60340017164,19.356956,0.7158208,1.02889438988,0,0,-6.039738,91.5, -2.3, 1.8,0,0,1024,1024,1522,1024,0,0,75,0,0,0,0,19,,,,,,,11.788,93.38,745.60340017164,19.356956,6,P-GPS,
8600,2023-09-22 21:45:21,40.0825194007575,-88.2014453316279,20.341208,,,746.58765217164,15.748032,0,1.03851381276,1.8884843124,26,10,20.365,746.58765217164,20.341208,0.7158208,1.03851381276,0,0,-6.487126,91.5, -2.7, 1.9,0,0,1024,1024,1510,1024,0,0,74,0,0,0,0,19,,,,,,,11.788,93.38,746.58765217164,20.341208,6,P-GPS,
8700,2023-09-22 21:45:21,40.0825194132894,-88.2014453157092,21.32546,,,747.57190417164,16.4042,0,1.03696853712,1.89485898452,26,10,20.365,747.57190417164,21.32546,0.7158208,1.03851381276,0,0,-6.71082,91.5, -2.6, 1.8,0,0,1024,1024,1474,1024,0,0,68,0,0,0,0,19,,,,,,,11.788,93.38,747.57190417164,21.32546,6,P-GPS,
8800,2023-09-22 21:45:21,40.0825194517654,-88.2014453348841,22.309712,,,748.55615617164,17.388452,0,1.04871394432,1.90988195088,26,10,20.365,748.55615617164,22.309712,0.7158208,1.04871394432,0,0,-6.934514,91.6, -2.4, 1.8,0,0,1024,1024,1478,1024,0,0,69,0,0,0,0,19,,,,,,,11.788,93.38,748.55615617164,22.309712,6,P-GPS,
8900,2023-09-22 21:45:22,40.0825194608142,-88.2014452709006,23.293964,,,749.54040817164,18.04462,0,1.0351378284,1.92804468112,26,10,20.365,749.54040817164,23.293964,0.7158208,1.04871394432,0,0,-6.934514,91.6, -2.3, 2.1,0,0,1024,1024,1484,1024,0,0,70,0,0,0,0,19,,,,,,,11.788,93.38,749.54040817164,23.293964,6,P-GPS,
9000,2023-09-22 21:45:22,40.082519468509,-88.2014451826359,24.278216,,,750.52466017164,19.028872,0,1.01570541308,1.95284455068,26,10,20.365,750.52466017164,24.278216,0.7158208,1.04871394432,0,0,-6.71082,91.7, -2.1, 2.1,0,0,1024,1024,1475,1024,0,0,68,0,0,0,0,19,,,,,,,11.788,93.38,750.52466017164,24.278216,6,P-GPS,
9100,2023-09-22 21:45:22,40.0825194626574,-88.2014451239942,25.262468,,,751.50891217164,19.68504,0,1.00075790604,1.96935373756,26,10,20.365,751.50891217164,25.262468,0.7158208,1.04871394432,0,0,-6.71082,91.7, -1.8, 1.4,0,0,1024,1024,1465,1024,0,0,67,0,0,0,0,19,,,,,,,11.788,93.38,751.50891217164,25.262468,6,P-GPS,
9200,2023-09-22 21:45:22,40.0825195230043,-88.2014451703961,26.24672,,,752.49316417164,20.669292,0,1.02362864168,1.9948983578,26,10,20.365,752.49316417164,26.24672,0.7158208,1.04871394432,0,0,-6.71082,91.7, -1.7, 1.1,0,0,1024,1024,1466,1024,0,0,67,0,0,0,0,19,,,,,,,11.788,93.38,752.49316417164,26.24672,6,P-GPS,
9300,2023-09-22 21:45:22,40.0825195441983,-88.2014451268426,27.230972,,,753.47741617164,20.997376,0,1.0178149932,2.00930780708,27,10,20.365,753.47741617164,27.230972,0.7158208,1.04871394432,0,0,-6.71082,91.6, -1.8, 1.5,0,0,1024,1024,1411,1024,0,0,59,0,0,0,0,19,,,,,,,11.788,93.38,753.47741617164,27.230972,6,P-GPS,
9400,2023-09-22 21:45:22,40.0825195786849,-88.2014450673647,28.215224,,,754.46166817164,20.997376,0,1.01132549168,2.03014114108,27,10,20.365,754.46166817164,28.215224,0.7158208,1.04871394432,0,0,-6.487126,91.6, -2.1, 2.6,0,0,1024,1024,1206,1024,0,0,28,0,0,0,0,19,,,,,,,11.788,93.38,754.46166817164,28.215224,6,P-GPS,
9500,2023-09-22 21:45:22,40.0825196534224,-88.2014451505609,29.199476,,,755.44592017164,20.997376,0,1.04606630644,2.06595807136,27,10,20.365,755.44592017164,29.199476,0.7158208,1.04871394432,0,0,-6.039738,91.8, -2.8, 3.4,0,0,1024,1024,1024,1024,0,0,0,0,0,0,0,20,,,,,,,11.788,93.38,755.44592017164,29.199476,6,P-GPS,
9600,2023-09-22 21:45:22,40.0825196400844,-88.2014451465727,30.183728,,,756.43017217164,20.997376,0,1.04232614884,2.070948229,27,10,20.365,756.43017217164,30.183728,0.7158208,1.04871394432,0,0,-5.368656,91.9, -3.1, 3.4,0,0,1024,1024,1024,1024,0,0,0,0,0,0,0,20,,,,,,,11.788,93.38,756.43017217164,30.183728,6,P-GPS,
9700,2023-09-22 21:45:22,40.0825196130296,-88.2014450796467,30.839896,,,757.08634017164,20.997376,0,1.0213911088,2.09208011944,27,10,20.365,757.08634017164,30.839896,0.7158208,1.04871394432,0,0,-4.697574,92, -2.9, 3,0,0,1024,1024,1024,1024,0,0,0,0,0,0,0,20,,,,,,,11.788,93.38,757.08634017164,30.839896,6,P-GPS,
9800,2023-09-22 21:45:22,40.0825195759184,-88.2014449530301,31.496064,,,757.74250817164,20.997376,0,0.98483270868,2.12993117052,27,10,20.365,757.74250817164,31.496064,0.7158208,1.04871394432,0,0,-4.026492,92.1, -2.6, 2.4,0,0,1024,1024,1024,1024,0,0,0,0,0,0,0,20,,,,,,,11.788,93.38,757.74250817164,31.496064,6,P-GPS,
9900,2023-09-22 21:45:23,40.082519579102,-88.2014448144127,31.824148,,,758.07059217164,20.997376,0,0.95462273396,2.16864180168,27,10,20.365,758.07059217164,31.824148,0.7158208,1.04871394432,0,0,-3.131716,92.1, -2.2, 2.1,0,0,1024,1024,1024,1024,0,0,0,0,0,0,0,20,,,,,,,11.788,93.38,758.07059217164,31.824148,6,P-GPS,
10000,2023-09-22 21:45:23,40.0825195438636,-88.2014446946012,32.480316,,,758.72676017164,20.997376,0,0.92035436016,2.20447513616,26,10,20.516,758.72676017164,32.480316,0.7158208,1.04871394432,0,0,-2.23694,92.1, -1.8, 1.8,0,0,1024,1024,1024,1024,0,0,0,0,0,0,0,19,,,,,,,9.438,93.38,758.72676017164,32.480316,6,P-GPS,
10100,2023-09-22 21:45:23,40.0825195071882,-88.2014445839027,32.8084,,,759.05484417164,20.997376,0,0.88785763996,2.23814967792,27,10,20.516,759.05484417164,32.8084,0.7158208,1.04871394432,0,0,-1.565858,92.1, -1.3, 1.4,0,0,1024,1024,1024,1024,0,0,0,0,0,0,0,19,,,,,,,9.438,93.38,759.05484417164,32.8084,6,P-GPS,
10200,2023-09-22 21:45:23,40.0825195282716,-88.2014444827872,32.8084,,,759.05484417164,20.997376,0,0.8710466158,2.2674049282,27,10,20.516,759.05484417164,32.8084,0.7158208,1.04871394432,0,0,-0.894776,92.1, -1, 0.8,0,0,1024,1024,1024,1024,0,0,0,0,0,0,0,19,,,,,,,9.438,93.38,759.05484417164,32.8084,6,P-GPS,
10300,2023-09-22 21:45:23,40.0825194907994,-88.201444385392,33.136484,,,759.38292817164,20.997376,0,0.8415190558,2.29783800004,27,10,20.516,759.38292817164,33.136484,0.7158208,1.04871394432,0,0,-0.447388,92, -0.9, 0.3,0,0,1024,1024,954,1024,0,0,-11,0,0,0,0,19,,,,,,,9.438,93.38,759.38292817164,33.136484,6,P-GPS,
10400,2023-09-22 21:45:23,40.0825194891518,-88.2014443242106,33.136484,,,759.38292817164,20.997376,0,0.82829398976,2.3149278956,27,10,20.516,759.38292817164,33.136484,0.7158208,1.04871394432,0,0,0,92, -1, 0.6,0,0,1024,1024,477,1024,0,0,-83,0,0,0,0,19,,,,,,,9.438,93.38,759.38292817164,33.136484,6,P-GPS,
10500,2023-09-22 21:45:23,40.082519503894,-88.2014442605157,33.136484,,,759.38292817164,20.997376,0,0.8187500262,2.33350401168,27,10,20.516,759.38292817164,33.136484,0.7158208,1.04871394432,0,0,0,91.8, -1.1, 1.3,0,0,1024,1024,725,1024,0,0,-45,0,0,0,0,20,,,,,,,9.438,93.38,759.38292817164,33.136484,6,P-GPS,
10600,2023-09-22 21:45:23,40.0825195524791,-88.2014441952503,32.8084,,,759.05484417164,20.997376,0,0.81782482932,2.35892396,27,10,20.516,759.38292817164,33.136484,0.7158208,1.04871394432,0,0,0.671082,91.7, -1.2, 1.6,0,0,1024,1024,1096,1024,0,0,11,0,0,0,0,20,,,,,,,9.438,93.38,759.05484417164,32.8084,6,P-GPS,
10700,2023-09-22 21:45:23,40.0825195566013,-88.2014440881632,32.8084,,,759.05484417164,20.997376,0,0.79789372632,2.38885506332,27,10,20.516,759.38292817164,33.136484,0.7158208,1.04871394432,0,0,1.11847,91.7, -0.8, 1.5,0,0,1024,1024,1024,1024,0,0,0,0,0,0,0,20,,,,,,,9.438,93.38,759.05484417164,32.8084,6,P-GPS,
10800,2023-09-22 21:45:23,40.0825195631802,-88.2014439699255,32.480316,,,758.72676017164,20.997376,0,0.77718506424,2.4219488964,27,10,20.516,759.38292817164,33.136484,0.7158208,1.04871394432,0,0,0.894776,91.6, -0.1, 1.1,0,0,1024,1024,1024,1024,0,0,0,0,0,0,0,20,,,,,,,9.438,93.38,758.72676017164,32.480316,6,P-GPS,
10900,2023-09-22 21:45:24,40.0825196363784,-88.2014438752091,32.480316,,,758.72676017164,20.997376,0,0.78027233468,2.45952763776,27,10,20.516,759.38292817164,33.136484,0.7158208,1.04871394432,0,0,0.894776,91.5, 0, 0.8,0,0,1024,1024,1024,1024,0,0,0,0,0,0,0,20,,,,,,,9.438,93.38,758.72676017164,32.480316,6,P-GPS,
11000,2023-09-22 21:45:24,40.0825196483752,-88.2014438021902,32.480316,,,758.72676017164,20.997376,0,0.77100724252,2.48037737596,27,10,20.516,759.38292817164,33.136484,0.7158208,1.04871394432,0,0,0.671082,91.5, -0.3, 0.8,0,0,1024,1024,1024,1024,0,0,0,0,0,0,0,20,,,,,,,9.438,93.38,758.72676017164,32.480316,6,P-GPS,
11100,2023-09-22 21:45:24,40.0825196693257,-88.2014437342782,32.152232,,,758.39867617164,20.997376,0,0.76567259668,2.50081700916,27,10,20.516,759.38292817164,33.136484,0.7158208,1.04871394432,0,0,0.671082,91.5, -0.9, 1.1,0,0,1024,1024,1024,1024,0,0,0,0,0,0,0,20,,,,,,,9.438,93.38,758.39867617164,32.152232,6,P-GPS,
11200,2023-09-22 21:45:24,40.0825196923184,-88.2014436510364,32.152232,,,758.39867617164,20.997376,0,0.75902889568,2.52552173436,27,10,20.516,759.38292817164,33.136484,0.7158208,1.04871394432,0,0,0.447388,91.6, -1.2, 1.4,0,0,1024,1024,1024,1024,0,0,0,0,0,0,0,20,,,,,,,9.438,93.38,758.39867617164,32.152232,6,P-GPS,
11300,2023-09-22 21:45:24,40.082519757574,-88.2014435550585,32.152232,,,758.39867617164,20.997376,0,0.76426839716,2.56136491136,27,10,20.516,759.38292817164,33.136484,0.7158208,1.04871394432,0,0,0.223694,91.7, -1.1, 1.6,0,0,1024,1024,1024,1024,0,0,0,0,0,0,0,20,,,,,,,9.438,93.38,758.39867617164,32.152232,6,P-GPS,
11400,2023-09-22 21:45:24,40.0825197933634,-88.2014434502919,31.824148,,,758.07059217164,20.997376,0,0.76056760964,2.59339247144,28,10,20.516,759.38292817164,33.136484,0.7158208,1.04871394432,0,0,0.223694,91.8, -0.7, 1.9,0,0,1024,1024,1024,1024,0,0,0,0,0,0,0,20,,,,,,,9.438,93.38,758.07059217164,31.824148,6,P-GPS,
11500,2023-09-22 21:45:24,40.0825198310374,-88.2014433628416,31.824148,,,758.07059217164,20.997376,0,0.7610236464,2.6214075642,28,10,20.34,759.38292817164,33.136484,0.7158208,1.04871394432,0,0,0,91.9, -0.4, 2.1,0,0,1024,1024,1024,1024,0,0,0,0,0,0,0,19,,,,,,,6.364,93.38,758.07059217164,31.824148,6,P-GPS,
11600,2023-09-22 21:45:24,40.0825199537643,-88.2014433082184,31.824148,,,758.07059217164,20.997376,0,0.79450133776,2.66871071532,28,10,20.34,759.38292817164,33.136484,0.7158208,1.04871394432,0,0,0,92, -0.4, 2.3,0,0,1024,1024,1024,1024,0,0,0,0,0,0,0,19,,,,,,,6.364,93.38,758.07059217164,31.824148,6,P-GPS,
11700,2023-09-22 21:45:24,40.0825199840685,-88.2014432478932,31.824148,,,758.07059217164,20.997376,0,0.79768047172,2.68885507292,28,10,20.34,759.38292817164,33.136484,0.7158208,1.04871394432,0,0,0,92, -0.8, 2.5,0,0,1024,1024,1024,1024,0,0,0,0,0,0,0,19,,,,,,,6.364,93.38,758.07059217164,31.824148,6,P-GPS,
11800,2023-09-22 21:45:24,40.0825199984419,-88.201443186337,31.824148,,,758.07059217164,20.997376,0,0.79583992048,2.70682095276,28,10,20.34,759.38292817164,33.136484,0.7158208,1.04871394432,0,0,0,92, -1.1, 2.6,0,0,1024,1024,1024,1024,0,0,0,0,0,0,0,19,,,,,,,6.364,93.38,758.07059217164,31.824148,6,P-GPS,
11900,2023-09-22 21:45:25,40.0825200068621,-88.2014431251044,31.824148,,,758.07059217164,20.997376,0,0.792404881,2.72418971972,28,10,20.34,759.38292817164,33.136484,0.7158208,1.04871394432,0,0,0,92.1, -1.2, 2.5,0,0,1024,1024,1024,1024,0,0,0,0,0,0,0,19,,,,,,,6.364,93.38,758.07059217164,31.824148,6,P-GPS,
12000,2023-09-22 21:45:25,40.0825201021358,-88.2014430664896,31.824148,,,758.07059217164,20.997376,0,0.819471811,2.76260835612,28,10,20.34,759.38292817164,33.136484,0.7158208,1.04871394432,0,0,0,92.1, -1.1, 2.2,0,0,1024,1024,1024,1024,0,0,0,0,0,0,0,19,,,,,,,6.364,93.38,758.07059217164,31.824148,6,P-GPS,
12100,2023-09-22 21:45:25,40.0825200975491,-88.2014429954084,31.824148,,,758.07059217164,20.997376,0,0.81162076088,2.78251977408,28,10,20.34,759.38292817164,33.136484,0.7158208,1.04871394432,0,0,0,92.2, -1, 2,0,0,1024,1024,1024,1024,0,0,0,0,0,0,0,19,,,,,,,6.364,93.38,758.07059217164,31.824148,6,P-GPS,
12200,2023-09-22 21:45:25,40.082520083592,-88.2014429168504,31.824148,,,758.07059217164,20.997376,0,0.80031498624,2.80503289816,28,10,20.34,759.38292817164,33.136484,0.7158208,1.04871394432,0,0,0,92.2, -0.8, 2.1,0,0,1024,1024,1024,1024,0,0,0,0,0,0,0,19,,,,,,,6.364,93.38,758.07059217164,31.824148,6,P-GPS,
12300,2023-09-22 21:45:25,40.0825201548976,-88.2014428534112,31.824148,,,758.07059217164,20.997376,0,0.82064635172,2.83650599628,28,10,20.34,759.38292817164,33.136484,0.7158208,1.04871394432,0,0,0,92.2, -0.6, 2.2,0,0,1024,1024,1024,1024,0,0,0,0,0,0,0,19,,,,,,,6.364,93.38,758.07059217164,31.824148,6,P-GPS,
12400,2023-09-22 21:45:25,40.0825201371848,-88.2014427874725,31.824148,,,758.07059217164,20.997376,0,0.8098917582,2.85601387092,28,10,20.34,759.38292817164,33.136484,0.7158208,1.04871394432,0,0,0,92.3, -0.5, 2.2,0,0,1024,1024,1024,1024,0,0,0,0,0,0,0,19,,,,,,,6.364,93.38,758.07059217164,31.824148,6,P-GPS,
12500,2023-09-22 21:45:25,40.0825201094393,-88.2014427484182,31.824148,,,758.07059217164,20.997376,0,0.79754267644,2.87089248032,28,10,20.42,759.38292817164,33.136484,0.7158208,1.04871394432,0,0,0,92.3, -0.6, 2.1,0,0,1024,1024,1024,1024,0,0,0,0,0,0,0,19,,,,,,,9.196,93.38,758.07059217164,31.824148,6,P-GPS,
12600,2023-09-22 21:45:25,40.0825200665541,-88.2014427285792,31.824148,,,758.07059217164,20.997376,0,0.7810531746,2.88749024988,28,10,20.42,759.38292817164,33.136484,0.7158208,1.04871394432,0,0,0,92.4, -0.6, 2,0,0,1024,1024,556,1024,0,0,-71,0,0,0,0,19,,,,,,,9.196,93.38,758.07059217164,31.824148,6,P-GPS,
12700,2023-09-22 21:45:25,40.0825200545066,-88.2014427491373,31.824148,,,758.07059217164,20.997376,0,0.7780676102,2.8947179404,28,10,20.42,759.38292817164,33.136484,0.7158208,1.04871394432,0,0,0,92.4, -1.1, 1.9,0,0,1024,1024,1024,1024,0,0,0,0,0,0,0,19,,,,,,,9.196,93.38,758.07059217164,31.824148,6,P-GPS,
12800,2023-09-22 21:45:25,40.0825200126334,-88.2014427512993,31.824148,,,758.07059217164,20.997376,0,0.76334976196,2.9100066548,28,10,20.42,759.38292817164,33.136484,0.7158208,1.04871394432,0,0,0.223694,92.5, -1.8, 1.8,0,0,1024,1024,1024,1024,0,0,0,0,0,0,0,19,,,,,,,9.196,93.38,758.07059217164,31.824148,6,P-GPS,
12900,2023-09-22 21:45:25,40.0825199779683,-88.2014427526751,31.496064,,,757.74250817164,20.997376,0,0.75115159884,2.92266085468,28,10,20.42,759.38292817164,33.136484,0.7158208,1.04871394432,0,0,0.447388,92.5, -1.9, 2,0,0,1024,1024,1024,1024,0,0,0,0,0,0,0,19,,,,,,,9.196,93.38,757.74250817164,31.496064,6,P-GPS,
13000,2023-09-22 21:45:26,40.0825199967562,-88.2014427856541,31.496064,,,757.74250817164,20.997376,0,0.76004595608,2.934137233,28,10,20.42,759.38292817164,33.136484,0.7158208,1.04871394432,0,0,0.447388,92.5, -1.1, 2.3,0,0,1024,1024,1024,1024,0,0,0,0,0,0,0,19,,,,,,,9.196,93.38,757.74250817164,31.496064,6,P-GPS,
13100,2023-09-22 21:45:26,40.0825199620448,-88.2014427853808,31.496064,,,757.74250817164,20.997376,0,0.74776577196,2.94680455624,28,10,20.42,759.38292817164,33.136484,0.7158208,1.04871394432,0,0,0.447388,92.5, -0.1, 2.4,0,0,1024,1024,1024,1024,0,0,0,0,0,0,0,19,,,,,,,9.196,93.38,757.74250817164,31.496064,6,P-GPS,
13200,2023-09-22 21:45:26,40.0825199256645,-88.2014428128689,31.496064,,,757.74250817164,20.997376,0,0.7369422808,2.96213592156,28,10,20.42,759.38292817164,33.136484,0.7158208,1.04871394432,0,0,0.223694,92.4, -0.1, 1.9,0,0,1024,1024,1024,1024,0,0,0,0,0,0,0,19,,,,,,,9.196,93.38,757.74250817164,31.496064,6,P-GPS,
13300,2023-09-22 21:45:26,40.0825199038373,-88.2014428678448,31.16798,,,757.41442417164,20.997376,0,0.73355317308,2.97942594836,28,10,20.42,759.38292817164,33.136484,0.7158208,1.04871394432,0,0,0.223694,92.2, -1.3, 1.5,0,0,1024,1024,1024,1024,0,0,0,0,0,0,0,19,,,,,,,9.196,93.38,757.41442417164,31.16798,6,P-GPS,
13400,2023-09-22 21:45:26,40.0825199854904,-88.2014429275725,31.16798,,,757.41442417164,20.997376,0,0.76692587756,3.01356308856,28,10,20.42,759.38292817164,33.136484,0.7158208,1.04871394432,0,0,0.223694,92.2, -2.7, 1.6,0,0,1024,1024,1024,1024,0,0,0,0,0,0,0,19,,,,,,,9.196,93.38,757.41442417164,31.16798,6,P-GPS,
13500,2023-09-22 21:45:26,40.082519974502,-88.2014429907422,31.16798,,,757.41442417164,20.997376,0,0.76856629756,3.03164707864,28,10,20.5555,759.38292817164,33.136484,0.7158208,1.04871394432,0,0,0,92.2, -3.1, 2.1,0,0,1024,1024,679,1024,0,0,-52,0,0,0,0,19,,,,,,,6.832,93.38,757.41442417164,31.16798,6,P-GPS,
13600,2023-09-22 21:45:26,40.0825199497451,-88.2014430483283,31.16798,,,757.41442417164,20.997376,0,0.76537732108,3.05008868028,28,10,20.5555,759.38292817164,33.136484,0.7158208,1.04871394432,0,0,0,92.2, -2.8, 2.4,0,0,1024,1024,466,1024,0,0,-85,0,0,0,0,19,,,,,,,6.832,93.38,757.41442417164,31.16798,6,P-GPS,
13700,2023-09-22 21:45:26,40.0825200017185,-88.2014431114857,31.16798,,,757.41442417164,20.997376,0,0.78929464468,3.07598106956,28,10,20.5555,759.38292817164,33.136484,0.7158208,1.04871394432,0,0,0.223694,92.2, -2.5, 2.6,0,0,1024,1024,1062,1024,0,0,6,0,0,0,0,19,,,,,,,6.832,93.38,757.41442417164,31.16798,6,P-GPS,
13800,2023-09-22 21:45:26,40.0825199766418,-88.2014431299357,31.16798,,,757.41442417164,20.997376,0,0.78260829276,3.08647975756,28,10,20.5555,759.38292817164,33.136484,0.7158208,1.04871394432,0,0,0.671082,92.2, -2.7, 2.7,0,0,1024,1024,1024,1024,0,0,0,0,0,0,0,19,,,,,,,6.832,93.38,757.41442417164,31.16798,6,P-GPS,
13900,2023-09-22 21:45:27,40.0825199490389,-88.201443122555,30.839896,,,757.08634017164,20.997376,0,0.77248362052,3.09675862928,28,10,20.5555,759.38292817164,33.136484,0.7158208,1.04871394432,0,0,0.671082,92.1, -2, 2.9,0,0,1024,1024,1024,1024,0,0,0,0,0,0,0,19,,,,,,,6.832,93.38,757.08634017164,30.839896,6,P-GPS,
14000,2023-09-22 21:45:27,40.0825199035749,-88.2014431003321,30.839896,,,757.08634017164,20.997376,0,0.7547736462,3.1144686036,28,10,20.5555,759.38292817164,33.136484,0.7158208,1.04871394432,0,0,0.447388,92, -0.9, 2.3,0,0,1024,1024,1024,1024,0,0,0,0,0,0,0,19,,,,,,,6.832,93.38,757.08634017164,30.839896,6,P-GPS,
14100,2023-09-22 21:45:27,40.082519909869,-88.2014430975022,30.839896,,,757.08634017164,20.997376,0,0.75662403996,3.1168964252,28,10,20.5555,759.38292817164,33.136484,0.7158208,1.04871394432,0,0,0.447388,91.9, -0.7, 1.5,0,0,1024,1024,1024,1024,0,0,0,0,0,0,0,19,,,,,,,6.832,93.38,757.08634017164,30.839896,6,P-GPS,
14200,2023-09-22 21:45:27,40.0825198535036,-88.2014431206971,30.839896,,,757.08634017164,20.997376,0,0.7399606536,3.13845810568,28,10,20.5555,759.38292817164,33.136484,0.7158208,1.04871394432,0,0,0.223694,91.9, -1.2, 1.2,0,0,1024,1024,796,1024,0,0,-35,0,0,0,0,19,,,,,,,6.832,93.38,757.08634017164,30.839896,6,P-GPS,
14300,2023-09-22 21:45:27,40.0825198202263,-88.2014431355183,30.511812,,,756.75825617164,20.997376,0,0.73036747744,3.15128290924,28,10,20.5555,759.38292817164,33.136484,0.7158208,1.04871394432,0,0,0.223694,91.9, -1.8, 1.2,0,0,1024,1024,517,1024,0,0,-77,0,0,0,0,19,,,,,,,6.832,93.38,756.75825617164,30.511812,6,P-GPS,
14400,2023-09-22 21:45:27,40.0825198891142,-88.2014431159056,30.511812,,,756.75825617164,20.997376,0,0.75148624452,3.17700797568,28,10,20.5555,759.38292817164,33.136484,0.7158208,1.04871394432,0,0,0.223694,91.9, -2.2, 1.4,0,0,1024,1024,1024,1024,0,0,0,0,0,0,0,19,,,,,,,6.832,93.38,756.75825617164,30.511812,6,P-GPS,
14500,2023-09-22 21:45:27,40.0825198740539,-88.2014431053895,30.511812,,,756.75825617164,20.997376,0,0.7452920186,3.18323501,28,10,20.408,759.38292817164,33.136484,0.7158208,1.04871394432,0,0,0.671082,92.1, -2.7, 1.8,0,0,1024,1024,1024,1024,0,0,0,0,0,0,0,19,,,,,,,11.09,93.38,756.75825617164,30.511812,6,P-GPS,
14600,2023-09-22 21:45:27,40.0825198502959,-88.201443076998,30.511812,,,756.75825617164,20.997376,0,0.7343012046,3.1949804172,28,10,20.408,759.38292817164,33.136484,0.7158208,1.04871394432,0,0,0.894776,92.1, -2.2, 2.2,0,0,1024,1024,1024,1024,0,0,0,0,0,0,0,19,,,,,,,11.09,93.38,756.75825617164,30.511812,6,P-GPS,
14700,2023-09-22 21:45:27,40.0825198314937,-88.201443004469,30.183728,,,756.43017217164,20.997376,0,0.72065619104,3.21635837064,28,10,20.408,759.38292817164,33.136484,0.7158208,1.04871394432,0,0,0.671082,92.1, -1.1, 2.3,0,0,1024,1024,1024,1024,0,0,0,0,0,0,0,19,,,,,,,11.09,93.38,756.43017217164,30.183728,6,P-GPS,
14800,2023-09-22 21:45:27,40.0825199073817,-88.2014429155743,30.183728,,,756.43017217164,20.997376,0,0.7387467428,3.25354013036,28,10,20.408,759.38292817164,33.136484,0.7158208,1.04871394432,0,0,0.447388,92.1, -0.2, 2.1,0,0,1024,1024,1024,1024,0,0,0,0,0,0,0,19,,,,,,,11.09,93.38,756.43017217164,30.183728,6,P-GPS,
14900,2023-09-22 21:45:28,40.0825198850035,-88.201442833737,30.183728,,,756.43017217164,20.997376,0,0.7242618342,3.27779866132,28,10,20.408,759.38292817164,33.136484,0.7158208,1.04871394432,0,0,0.447388,92, 0, 1.6,0,0,1024,1024,1024,1024,0,0,0,0,0,0,0,19,,,,,,,11.09,93.38,756.43017217164,30.183728,6,P-GPS,
15000,2023-09-22 21:45:28,40.082519861865,-88.2014427614805,29.855644,,,756.10208817164,20.997376,0,0.71072180752,3.2996720216,28,10,20.408,759.38292817164,33.136484,0.7158208,1.04871394432,0,0,0.223694,92, -0.3, 1.1,0,0,1024,1024,1024,1024,0,0,0,0,0,0,0,19,,,,,,,11.09,93.38,756.10208817164,29.855644,6,P-GPS,
15100,2023-09-22 21:45:28,40.0825199390787,-88.2014427025421,29.855644,,,756.10208817164,20.997376,0,0.73409779252,3.3322835712,28,10,20.408,759.38292817164,33.136484,0.7158208,1.04871394432,0,0,0.223694,92, -0.8, 1.1,0,0,1024,1024,1024,1024,0,0,0,0,0,0,0,19,,,,,,,11.09,93.38,756.10208817164,29.855644,6,P-GPS,
15200,2023-09-22 21:45:28,40.0825199205114,-88.2014426216229,29.855644,,,756.10208817164,20.997376,0,0.722687031,3.3558728108,28,10,20.408,759.38292817164,33.136484,0.7158208,1.04871394432,0,0,0,92, -0.9, 1.5,0,0,1024,1024,1024,1024,0,0,0,0,0,0,0,19,,,,,,,11.09,93.38,756.10208817164,29.855644,6,P-GPS,
15300,2023-09-22 21:45:28,40.0825198941898,-88.2014425325771,29.855644,,,756.10208817164,20.997376,0,0.70870737176,3.3825132316,28,10,20.408,759.38292817164,33.136484,0.7158208,1.04871394432,0,0,0,92, -0.3, 2,0,0,1024,1024,1024,1024,0,0,0,0,0,0,0,19,,,,,,,11.09,93.38,756.10208817164,29.855644,6,P-GPS,
15400,2023-09-22 21:45:28,40.0825198794627,-88.2014424551856,29.855644,,,756.10208817164,20.997376,0,0.7000984476,3.4047901352,28,10,20.408,759.38292817164,33.136484,0.7158208,1.04871394432,0,0,0,92, 0.3, 2.5,0,0,1024,1024,1024,1024,0,0,0,0,0,0,0,19,,,,,,,11.09,93.38,756.10208817164,29.855644,6,P-GPS,
15500,2023-09-22 21:45:28,40.0825199099279,-88.2014423963133,29.855644,,,756.10208817164,20.997376,0,0.70906170248,3.4246392172,28,10,20.37,759.38292817164,33.136484,0.7158208,1.04871394432,0,0,0,92, 0.5, 2.5,0,0,1024,1024,1024,1024,0,0,0,0,0,0,0,19,,,,,,,10.878,93.38,756.10208817164,29.855644,6,P-GPS,
15600,2023-09-22 21:45:28,40.08251988308,-88.2014423065747,29.855644,,,756.10208817164,20.997376,0,0.69689634776,3.4515092968,28,10,20.37,759.38292817164,33.136484,0.7158208,1.04871394432,0,0,0,92, 0.4, 2.3,0,0,1024,1024,1024,1024,0,0,0,0,0,0,0,19,,,,,,,10.878,93.38,756.10208817164,29.855644,6,P-GPS,
15700,2023-09-22 21:45:28,40.0825198560848,-88.201442236567,29.855644,,,756.10208817164,20.997376,0,0.68578414268,3.4733924996,28,10,20.37,759.38292817164,33.136484,0.7158208,1.04871394432,0,0,0,92.1, 0, 2.2,0,0,1024,1024,1024,1024,0,0,0,0,0,0,0,19,,,,,,,10.878,93.38,756.10208817164,29.855644,6,P-GPS,
15800,2023-09-22 21:45:28,40.0825199102794,-88.2014421542539,29.855644,,,756.10208817164,20.997376,0,0.70474411704,3.5037074612,28,10,20.37,759.38292817164,33.136484,0.7158208,1.04871394432,0,0,0,92, -0.2, 1.9,0,0,1024,1024,1024,1024,0,0,0,0,0,0,0,19,,,,,,,10.878,93.38,756.10208817164,29.855644,6,P-GPS,
15900,2023-09-22 21:45:29,40.0825198640988,-88.2014421078952,29.855644,,,756.10208817164,20.997376,0,0.6877788934,3.5249673044,28,10,20.37,759.38292817164,33.136484,0.7158208,1.04871394432,0,0,0,92, -0.2, 1.6,0,0,1024,1024,1024,1024,0,0,0,0,0,0,0,19,,,,,,,10.878,93.38,756.10208817164,29.855644,6,P-GPS,
16000,2023-09-22 21:45:29,40.0825198123741,-88.2014420698956,29.855644,,,756.10208817164,20.997376,0,0.6689960844,3.5466208484,28,10,20.37,759.38292817164,33.136484,0.7158208,1.04871394432,0,0,0,92, -0.1, 1.8,0,0,1024,1024,1024,1024,0,0,0,0,0,0,0,19,,,,,,,10.878,93.38,756.10208817164,29.855644,6,P-GPS,
16100,2023-09-22 21:45:29,40.0825197625167,-88.2014420452318,29.855644,,,756.10208817164,20.997376,0,0.65095802608,3.5660762296,28,10,20.37,759.38292817164,33.136484,0.7158208,1.04871394432,0,0,0,92.1, 0, 2.2,0,0,1024,1024,1024,1024,0,0,0,0,0,0,0,19,,,,,,,10.878,93.38,756.10208817164,29.855644,6,P-GPS,
16200,2023-09-22 21:45:29,40.0825197761043,-88.2014420473991,29.855644,,,756.10208817164,20.997376,0,0.65589897112,3.5710631064,28,10,20.37,759.38292817164,33.136484,0.7158208,1.04871394432,0,0,0,92.1, 0, 2.3,0,0,1024,1024,1024,1024,0,0,0,0,0,0,0,19,,,,,,,10.878,93.38,756.10208817164,29.855644,6,P-GPS,
16300,2023-09-22 21:45:29,40.0825197193938,-88.2014420513322,29.855644,,,756.10208817164,20.997376,0,0.6351870282,3.5917652068,28,10,20.37,759.38292817164,33.136484,0.7158208,1.04871394432,0,0,0,92.1, -0.2, 2.1,0,0,1024,1024,1024,1024,0,0,0,0,0,0,0,19,,,,,,,10.878,93.38,756.10208817164,29.855644,6,P-GPS,
16400,2023-09-22 21:45:29,40.082519658168,-88.2014420661038,29.855644,,,756.10208817164,20.997376,0,0.6127624868,3.614501428,28,10,20.37,759.38292817164,33.136484,0.7158208,1.04871394432,0,0,0,92.1, -0.6, 1.8,0,0,1024,1024,1024,1024,0,0,0,0,0,0,0,19,,,,,,,10.878,93.38,756.10208817164,29.855644,6,P-GPS,
16500,2023-09-22 21:45:29,40.0825196674438,-88.201442101355,29.855644,,,756.10208817164,20.997376,0,0.61603348428,3.6249016908,28,10,20.392,759.38292817164,33.136484,0.7158208,1.04871394432,0,0,0,92.1, -0.9, 1.7,0,0,1024,1024,1024,1024,0,0,0,0,0,0,0,19,,,,,,,8.682,93.38,756.10208817164,29.855644,6,P-GPS,
16600,2023-09-22 21:45:29,40.0825195919818,-88.2014421119075,29.855644,,,756.10208817164,20.997376,0,0.588500675,3.6525919804,28,10,20.392,759.38292817164,33.136484,0.7158208,1.04871394432,0,0,0,92.1, -1, 1.7,0,0,1024,1024,1024,1024,0,0,0,0,0,0,0,19,,,,,,,8.682,93.38,756.10208817164,29.855644,6,P-GPS,
16700,2023-09-22 21:45:29,40.0825195194325,-88.2014421166097,29.855644,,,756.10208817164,20.997376,0,0.56203413872,3.6791011676,28,10,20.392,759.38292817164,33.136484,0.7158208,1.04871394432,0,0,0,92.1, -0.8, 1.8,0,0,1024,1024,1024,1024,0,0,0,0,0,0,0,19,,,,,,,8.682,93.38,756.10208817164,29.855644,6,P-GPS,
16800,2023-09-22 21:45:29,40.0825194377476,-88.2014421178609,29.855644,,,756.10208817164,20.997376,0,0.53223098816,3.7088911948,28,10,20.392,759.38292817164,33.136484,0.7158208,1.04871394432,0,0,0,92, -0.7, 1.7,0,0,1024,1024,1024,1024,0,0,0,0,0,0,0,19,,,,,,,8.682,93.38,756.10208817164,29.855644,6,P-GPS,
16900,2023-09-22 21:45:30,40.0825194039233,-88.2014421324103,29.855644,,,756.10208817164,20.997376,0,0.51992783816,3.7218833212,28,10,20.392,759.38292817164,33.136484,0.7158208,1.04871394432,0,0,0,92, -0.6, 1.7,0,0,1024,1024,1024,1024,0,0,0,0,0,0,0,19,,,,,,,8.682,93.38,756.10208817164,29.855644,6,P-GPS,
17000,2023-09-22 21:45:30,40.0825193438935,-88.2014421249844,29.855644,,,756.10208817164,20.997376,0,0.49800526528,3.7438977576,28,10,20.392,759.38292817164,33.136484,0.7158208,1.04871394432,0,0,0,91.9, -0.6, 1.6,0,0,1024,1024,1024,1024,0,0,0,0,0,0,0,19,,,,,,,8.682,93.38,756.10208817164,29.855644,6,P-GPS,
17100,2023-09-22 21:45:30,40.082519292509,-88.2014421206678,29.855644,,,756.10208817164,20.997376,0,0.479248703,3.7626641624,28,10,20.392,759.38292817164,33.136484,0.7158208,1.04871394432,0,0,0,91.9, -0.4, 1.5,0,0,1024,1024,1024,1024,0,0,0,0,0,0,0,19,,,,,,,8.682,93.38,756.10208817164,29.855644,6,P-GPS,
17200,2023-09-22 21:45:30,40.0825193245722,-88.2014421518057,29.855644,,,756.10208817164,20.997376,0,0.49108269288,3.777231092,28,10,20.392,759.38292817164,33.136484,0.7158208,1.04871394432,0,0,0,91.9, -0.1, 1.4,0,0,1024,1024,1024,1024,0,0,0,0,0,0,0,19,,,,,,,8.682,93.38,756.10208817164,29.855644,6,P-GPS,
17300,2023-09-22 21:45:30,40.0825192806844,-88.201442137159,29.855644,,,756.10208817164,20.997376,0,0.47498689184,3.7937665256,28,10,20.392,759.38292817164,33.136484,0.7158208,1.04871394432,0,0,0,92, 0.1, 1.4,0,0,1024,1024,1024,1024,0,0,0,0,0,0,0,19,,,,,,,8.682,93.38,756.10208817164,29.855644,6,P-GPS,
17400,2023-09-22 21:45:30,40.0825192372603,-88.2014421186408,29.855644,,,756.10208817164,20.997376,0,0.4590879412,3.8104331928,28,10,20.392,759.38292817164,33.136484,0.7158208,1.04871394432,0,0,0,92.1, 0, 1.5,0,0,1024,1024,1024,1024,0,0,0,0,0,0,0,19,,,,,,,8.682,93.38,756.10208817164,29.855644,6,P-GPS,
17500,2023-09-22 21:45:30,40.0825191966324,-88.2014421146136,29.855644,,,756.10208817164,20.997376,0,0.4442585444,3.825295398,28,10,20.379,759.38292817164,33.136484,0.7158208,1.04871394432,0,0,0,92.2, -0.1, 1.6,0,0,1024,1024,1024,1024,0,0,0,0,0,0,0,19,,,,,,,8.802,93.38,756.10208817164,29.855644,6,P-GPS,
17600,2023-09-22 21:45:30,40.0825192251288,-88.2014421830233,29.855644,,,756.10208817164,20.997376,0,0.45512468648,3.8470473672,28,10,20.379,759.38292817164,33.136484,0.7158208,1.04871394432,0,0,0,92.3, 0.1, 1.5,0,0,1024,1024,1024,1024,0,0,0,0,0,0,0,19,,,,,,,8.802,93.38,756.10208817164,29.855644,6,P-GPS,
17700,2023-09-22 21:45:30,40.0825191901156,-88.2014421894431,29.855644,,,756.10208817164,20.997376,0,0.44245080156,3.8599410684,28,10,20.379,759.38292817164,33.136484,0.7158208,1.04871394432,0,0,0,92.3, 0.3, 1.6,0,0,1024,1024,1024,1024,0,0,0,0,0,0,0,19,,,,,,,8.802,93.38,756.10208817164,29.855644,6,P-GPS,
17800,2023-09-22 21:45:30,40.0825191557923,-88.2014422045709,29.855644,,,756.10208817164,20.997376,0,0.43018702164,3.8731628536,28,10,20.379,759.38292817164,33.136484,0.7158208,1.04871394432,0,0,0,92.2, 0.4, 1.7,0,0,1024,1024,1024,1024,0,0,0,0,0,0,0,19,,,,,,,8.802,93.38,756.10208817164,29.855644,6,P-GPS,
17900,2023-09-22 21:45:31,40.0825191895578,-88.2014422713329,29.855644,,,756.10208817164,20.997376,0,0.44400263888,3.895505374,28,10,20.379,759.38292817164,33.136484,0.7158208,1.04871394432,0,0,0,92.2, 0.3, 2,0,0,1024,1024,1024,1024,0,0,0,0,0,0,0,19,,,,,,,8.802,93.38,756.10208817164,29.855644,6,P-GPS,
18000,2023-09-22 21:45:31,40.0825191639272,-88.2014422979326,29.855644,,,756.10208817164,20.997376,0,0.43553807168,3.9074476316,28,10,20.379,759.38292817164,33.136484,0.7158208,1.04871394432,0,0,0,92.1, 0, 2.1,0,0,1024,1024,1024,1024,0,0,0,0,0,0,0,19,,,,,,,8.802,93.38,756.10208817164,29.855644,6,P-GPS,
18100,2023-09-22 21:45:31,40.0825191400061,-88.201442326462,29.855644,,,756.10208817164,20.997376,0,0.42793308456,3.9192586556,28,10,20.379,759.38292817164,33.136484,0.7158208,1.04871394432,0,0,0,92, -0.3, 2,0,0,1024,1024,1024,1024,0,0,0,0,0,0,0,19,,,,,,,8.802,93.38,756.10208817164,29.855644,6,P-GPS,
18200,2023-09-22 21:45:31,40.0825191139662,-88.2014423522808,29.855644,,,756.10208817164,20.997376,0,0.41963912104,3.9312009132,28,10,20.379,759.38292817164,33.136484,0.7158208,1.04871394432,0,0,0,92, -0.3, 1.8,0,0,1024,1024,1024,1024,0,0,0,0,0,0,0,19,,,,,,,8.802,93.38,756.10208817164,29.855644,6,P-GPS,
18300,2023-09-22 21:45:31,40.0825191377121,-88.2014423810943,29.855644,,,756.10208817164,20.997376,0,0.42954069616,3.9430119372,28,10,20.379,759.38292817164,33.136484,0.7158208,1.04871394432,0,0,0,91.9, -0.2, 1.7,0,0,1024,1024,1024,1024,0,0,0,0,0,0,0,19,,,,,,,8.802,93.38,756.10208817164,29.855644,6,P-GPS,
18400,2023-09-22 21:45:31,40.0825191240119,-88.2014423964757,29.855644,,,756.10208817164,20.997376,0,0.42541339944,3.9496064256,28,10,20.379,759.38292817164,33.136484,0.7158208,1.04871394432,0,0,0,91.9, -0.2, 1.9,0,0,1024,1024,1024,1024,0,0,0,0,0,0,0,19,,,,,,,8.802,93.38,756.10208817164,29.855644,6,P-GPS,
18500,2023-09-22 21:45:31,40.0825191219361,-88.2014424109127,29.855644,,,756.10208817164,20.997376,0,0.42544948868,3.9537074756,28,10,20.3725,759.38292817164,33.136484,0.7158208,1.04871394432,0,0,0,91.9, -0.3, 2.1,0,0,1024,1024,1024,1024,0,0,0,0,0,0,0,19,,,,,,,8.908,93.38,756.10208817164,29.855644,6,P-GPS,
18600,2023-09-22 21:45:31,40.0825192099128,-88.2014424332962,29.855644,,,756.10208817164,20.997376,0,0.45814962096,3.986384642,28,10,20.3725,759.38292817164,33.136484,0.7158208,1.04871394432,0,0,0,91.9, -0.5, 2.2,0,0,1024,1024,1024,1024,0,0,0,0,0,0,0,19,,,,,,,8.908,93.38,756.10208817164,29.855644,6,P-GPS,
18700,2023-09-22 21:45:31,40.0825192018969,-88.2014424523661,29.855644,,,756.10208817164,20.997376,0,0.45637140568,3.9924870044,28,10,20.3725,759.38292817164,33.136484,0.7158208,1.04871394432,0,0,0,91.9, -0.5, 2.4,0,0,1024,1024,1024,1024,0,0,0,0,0,0,0,19,,,,,,,8.908,93.38,756.10208817164,29.855644,6,P-GPS,
18800,2023-09-22 21:45:31,40.0825191777151,-88.2014424753871,29.855644,,,756.10208817164,20.997376,0,0.44916996188,4.0033793932,28,10,20.3725,759.38292817164,33.136484,0.7158208,1.04871394432,0,0,0,92, -0.3, 2.2,0,0,1024,1024,1024,1024,0,0,0,0,0,0,0,19,,,,,,,8.908,93.38,756.10208817164,29.855644,6,P-GPS,
18900,2023-09-22 21:45:31,40.0825191595243,-88.2014424980128,29.855644,,,756.10208817164,20.997376,0,0.44421589348,4.0125329368,28,10,20.3725,759.38292817164,33.136484,0.7158208,1.04871394432,0,0,0,92, -0.1, 2.1,0,0,1024,1024,1024,1024,0,0,0,0,0,0,0,19,,,,,,,8.908,93.38,756.10208817164,29.855644,6,P-GPS,
19000,2023-09-22 21:45:32,40.0825192153889,-88.2014425483182,29.855644,,,756.10208817164,20.997376,0,0.46749345328,4.0373032788,28,10,20.3725,759.38292817164,33.136484,0.7158208,1.04871394432,0,0,0,92, -0.2, 2.1,0,0,1024,1024,1024,1024,0,0,0,0,0,0,0,19,,,,,,,8.908,93.38,756.10208817164,29.855644,6,P-GPS,
19100,2023-09-22 21:45:32,40.0825191972018,-88.2014425755607,29.855644,,,756.10208817164,20.997376,0,0.46317586784,4.047408266,28,10,20.3725,759.38292817164,33.136484,0.7158208,1.04871394432,0,0,0,92.1, -0.6, 2.2,0,0,1024,1024,1024,1024,0,0,0,0,0,0,0,19,,,,,,,8.908,93.38,756.10208817164,29.855644,6,P-GPS,
19200,2023-09-22 21:45:32,40.0825191684859,-88.2014425961268,29.855644,,,756.10208817164,20.997376,0,0.45481628752,4.0593505236,28,10,20.3725,759.38292817164,33.136484,0.7158208,1.04871394432,0,0,0,92.1, -0.7, 2.2,0,0,1024,1024,1024,1024,0,0,0,0,0,0,0,19,,,,,,,8.908,93.38,756.10208817164,29.855644,6,P-GPS,
