time(millisecond),datetime(utc),latitude,longitude,height_above_takeoff(feet),height_above_ground_at_drone_location(feet),ground_elevation_at_drone_location(feet),altitude_above_seaLevel(feet),height_sonar(feet),speed(mph),distance(feet),mileage(feet),satellites,gpslevel,voltage(v),max_altitude(feet),max_ascent(feet),max_speed(mph),max_distance(feet), xSpeed(mph), ySpeed(mph), zSpeed(mph), compass_heading(degrees), pitch(degrees), roll(degrees),isPhoto,isVideo,rc_elevator,rc_aileron,rc_throttle,rc_rudder,rc_elevator(percent),rc_aileron(percent),rc_throttle(percent),rc_rudder(percent),gimbal_heading(degrees),gimbal_pitch(degrees),gimbal_roll(degrees),battery_percent,voltageCell1,voltageCell2,voltageCell3,voltageCell4,voltageCell5,voltageCell6,current(A),battery_temperature(f),altitude(feet),ascent(feet),flycStateRaw,flycState,message
0,2023-09-22 19:34:19,40.0825681957448,-88.200658996195,0,Available with any HD 360 subscription,Available with any HD 360 subscription,729.07743015462,0.328084,0,0,0,28,10,0,729.07743015462,0,0,0,0,0,0,188.4, -0.1, -1.2,0,0,364,364,364,1684,-100,-100,-100,100,0,0,0,48,,,,,,,0,77.54,729.07743015462,0,41,Motors_Started,"GEO: You are in a Warning Zone (Airport). Fly with caution."
100,2023-09-22 19:34:19,40.082568193163,-88.2006589966908,0,,,729.07743015462,0.328084,0,0.0009520833638,0.0009520833638,28,10,0,729.07743015462,0,0,0.0009520833638,0,0,0,188.4, -0.1, -1.2,0,0,364,364,364,1684,-100,-100,-100,100,0,0,0,48,,,,,,,0,77.54,729.07743015462,0,41,Motors_Started,
200,2023-09-22 19:34:19,40.0825681978801,-88.200658995315,0,,,729.07743015462,0.328084,0,0.00081686026236,0.0027154364386,28,10,0,729.07743015462,0,0,0.0009520833638,0,0,0,188.4, -0.1, -1.2,0,0,364,364,364,1684,-100,-100,-100,100,0,0,0,48,,,,,,,0,77.54,729.07743015462,0,41,Motors_Started,
300,2023-09-22 19:34:19,40.082568200275,-88.2006589920204,0,,,729.07743015462,0.328084,0,0.0020223589886,0.0039840552456,28,10,0,729.07743015462,0,0,0.0020223589886,0,0,0,188.4, -0.1, -1.2,0,0,364,364,364,1684,-100,-100,-100,100,0,0,0,48,,,,,,,0,77.54,729.07743015462,0,41,Motors_Started,
400,2023-09-22 19:34:19,40.0825682040548,-88.200658974758,0,,,729.07743015462,0.328084,0,0.0067084319732,0.0089963257472,28,10,0,729.07743015462,0,0,0.0067084319732,0,0,0,188.4, -0.1, -1.2,0,0,364,364,364,1684,-100,-100,-100,100,0,0,0,48,,,,,,,0,77.54,729.07743015462,0,41,Motors_Started,"Setting new Return-To-Home altitude to 100m (328 ft). Data Recorder File Index is 12. Setting new Maximum Flight Altitude to 120m (394 ft)"
500,2023-09-22 19:34:20,40.0825682253892,-88.2006589562709,0,,,729.07743015462,0.328084,0,0.0155302826492,0.0183355648912,28,10,0,729.07743015462,0,0,0.0155302826492,0,0,0,188.4, -0.1, -1.2,0,0,439,577,640,1342,-89,-68,-58,48,0,0,0,48,,,,,,,0,77.54,729.07743015462,0,41,Motors_Started,
600,2023-09-22 19:34:20,40.08256826319,-88.2006589264829,0,,,729.07743015462,0.328084,0,0.0313723435236,0.034439961732,28,10,0,729.07743015462,0,0,0.0313723435236,0,0,0,188.4, -0.1, -1.2,0,0,1024,1024,1024,1024,0,0,0,0,0,0,0,48,,,,,,,0,77.54,729.07743015462,0,41,Motors_Started,
700,2023-09-22 19:34:20,40.0825682879155,-88.2006589016026,0,,,729.07743015462,0.328084,0,0.042756563048,0.0458251327,28,10,0,729.07743015462,0,0,0.042756563048,0,0,0,188.4, -0.1, -1.2,0,0,1024,1024,1024,1024,0,0,0,0,0,0,0,48,,,,,,,0,77.54,729.07743015462,0,41,Motors_Started,"Infrared sensors blocked"
800,2023-09-22 19:34:20,40.0825683338258,-88.2006588422079,0,,,729.07743015462,0.328084,0,0.06622539582,0.069393703008,28,10,0,729.07743015462,0,0,0.06622539582,0,0,0,188.4, -0.1, -1.2,0,0,1024,1024,1024,1024,0,0,0,0,0,0,0,48,,,,,,,0,77.54,729.07743015462,0,41,Motors_Started,
900,2023-09-22 19:34:20,40.0825683423529,-88.2006588259042,0,,,729.07743015462,0.328084,0,0.071560697828,0.07490649846,28,10,0,729.07743015462,0,0,0.071560697828,0,0,0,188.4, -0.1, -1.2,0,0,1024,1024,1024,1024,0,0,0,0,0,0,0,48,,,,,,,0,77.54,729.07743015462,0,41,Motors_Started,
1000,2023-09-22 19:34:20,40.0825683480061,-88.2006588110424,0,,,729.07743015462,0.328084,0,0.075878283268,0.079539700708,28,10,0,729.07743015462,0,0,0.075878283268,0,0,0,188.3, -0.1, -1.2,0,0,1024,1024,1024,1024,0,0,0,0,0,0,0,48,,,,,,,0,77.54,729.07743015462,0,41,Motors_Started,
1100,2023-09-22 19:34:20,40.0825683391149,-88.2006588038699,0,,,729.07743015462,0.328084,0,0.07495735148,0.083351708704,28,10,0,729.07743015462,0,0,0.075878283268,0,0,0,188.2, -0.1, -1.2,0,0,1024,1024,1024,1024,0,0,0,0,0,0,0,48,,,,,,,0,77.54,729.07743015462,0,41,Motors_Started,
1200,2023-09-22 19:34:20,40.0825683462103,-88.2006588001291,0,,,729.07743015462,0.328084,0,0.077520015604,0.08614337546,28,10,0,729.07743015462,0,0,0.077520015604,0,0,0,188.2, -0.1, -1.2,0,0,1024,1024,1024,1024,0,0,0,0,0,0,0,48,,,,,,,0,77.54,729.07743015462,0,41,Motors_Started,
1300,2023-09-22 19:34:20,40.0825683469586,-88.2006588002023,0,,,729.07743015462,0.328084,0,0.077699149468,0.086416997516,28,10,0,729.07743015462,0,0,0.077699149468,0,0,0,188.3, -0.1, -1.2,0,0,1024,1024,1024,1024,0,0,0,0,0,0,0,48,,,,,,,0,77.54,729.07743015462,0,41,Motors_Started,
1400,2023-09-22 19:34:20,40.082568346726,-88.2006588035564,0,,,729.07743015462,0.328084,0,0.076981957844,0.08735728626,28,10,21.4805,729.07743015462,0,0,0.077699149468,0,0,0,188.3, -0.1, -1.2,0,0,1024,1024,1024,1024,0,0,0,0,0,0,0,48,,,,,,,2.767,77.54,729.07743015462,0,41,Motors_Started,
1500,2023-09-22 19:34:21,40.0825683304074,-88.2006588266075,0,,,729.07743015462,0.656168,0,0.068228020556,0.09612369074,28,10,21.4805,729.07743015462,0,0,0.077699149468,0,0,0,188.3, -0.1, -1.2,0,0,1024,1024,1024,1024,0,0,0,0,0,0,0,48,,,,,,,2.767,77.54,729.07743015462,0,41,Motors_Started,
1600,2023-09-22 19:34:21,40.0825683253249,-88.2006588447145,0,,,729.07743015462,0.328084,0,0.063429135888,0.101507877264,28,10,21.4805,729.07743015462,0,0,0.077699149468,0,0,0,188.3, -0.1, -1.2,0,0,1024,1024,1024,1024,0,0,0,0,0,0,0,48,,,,,,,2.767,77.54,729.07743015462,0,41,Motors_Started,
1700,2023-09-22 19:34:21,40.0825683243317,-88.2006588579794,0,,,729.07743015462,0.328084,0,0.060742784096,0.105228349824,28,10,21.4805,729.07743015462,0,0,0.077699149468,0,0,0,188.3, -0.1, -1.2,0,0,1024,1024,1024,1024,0,0,0,0,0,0,0,48,,,,,,,2.767,77.54,729.07743015462,0,41,Motors_Started,
1800,2023-09-22 19:34:21,40.0825683164709,-88.2006588924423,0,,,729.07743015462,0.328084,0,0.052715880952,0.11526739214,28,10,21.4805,729.07743015462,0,0,0.077699149468,0,0,0,188.3, 0, -1.2,0,0,1024,1024,1024,1024,0,0,0,0,0,0,0,48,,,,,,,2.767,77.54,729.07743015462,0,41,Motors_Started,
1900,2023-09-22 19:34:21,40.0825683170706,-88.2006588957408,0,,,729.07743015462,0.328084,0,0.052400264144,0.116213586396,28,10,21.4805,729.07743015462,0,0,0.077699149468,0,0,0,188.3, -0.1, -1.2,0,0,1024,1024,1024,1024,0,0,0,0,0,0,0,48,,,,,,,2.767,77.54,729.07743015462,0,41,Motors_Started,
2000,2023-09-22 19:34:21,40.0825683121974,-88.2006588916082,0,,,729.07743015462,0.328084,0,0.05155183892,0.118333009036,28,10,21.4805,729.07743015462,0,0,0.077699149468,0,0,0,188.3, -0.1, -1.2,0,0,1024,1024,1024,1024,0,0,0,0,0,0,0,48,,,,,,,2.767,77.54,729.07743015462,0,10,Assisted_Takeoff,
2100,2023-09-22 19:34:21,40.0825683110926,-88.2006588865945,0,,,729.07743015462,0.328084,0,0.052030513476,0.119789701996,28,10,21.4805,729.07743015462,0,0,0.077699149468,0,0,0,188.3, 0, -1.2,0,0,1024,1024,1024,1024,0,0,0,0,0,0,0,48,,,,,,,2.767,77.54,729.07743015462,0,10,Assisted_Takeoff,
2200,2023-09-22 19:34:21,40.0825682943371,-88.2006588751281,0,,,729.07743015462,0.328084,0,0.04935695696,0.126689964684,28,10,21.4805,729.07743015462,0,0,0.077699149468,0,0,0,188.3, -0.1, -1.2,0,0,1024,1024,1024,1024,0,0,0,0,0,0,0,48,,,,,,,2.767,77.54,729.07743015462,0,10,Assisted_Takeoff,
2300,2023-09-22 19:34:21,40.0825682967248,-88.2006588751691,0,,,729.07743015462,0.328084,0,0.049987862492,0.127561355788,28,10,21.4805,729.07743015462,0,0,0.077699149468,0,0,0,188.3, 0, -1.2,0,0,1024,1024,1024,1024,0,0,0,0,0,0,0,48,,,,,,,2.767,77.54,729.07743015462,0,10,Assisted_Takeoff,
2400,2023-09-22 19:34:21,40.0825682969299,-88.2006588743919,0,,,729.07743015462,0.328084,0,0.050189634152,0.127790686504,28,10,21.4905,729.07743015462,0,0,0.077699149468,0,0,0,188.3, -0.1, -1.2,0,0,1024,1024,1024,1024,0,0,0,0,0,0,0,48,,,,,,,0.914,77.54,729.07743015462,0,10,Assisted_Takeoff,
2500,2023-09-22 19:34:22,40.0825682883388,-88.200658890408,0,,,729.07743015462,0.328084,0,0.04487040826,0.133250988516,28,10,21.4905,729.07743015462,0,0,0.077699149468,0,0,0,188.3, -0.1, -1.2,0,0,1024,1024,1024,1024,0,0,0,0,0,0,0,48,,,,,,,0.914,77.54,729.07743015462,0,10,Assisted_Takeoff,
2600,2023-09-22 19:34:22,40.0825682868961,-88.2006589088839,0,,,729.07743015462,0.328084,0,0.041231628616,0.138435371884,28,10,21.4905,729.07743015462,0,0,0.077699149468,0,0,0,188.3, -0.1, -1.2,0,0,1024,1024,1024,1024,0,0,0,0,0,0,0,48,,,,,,,0.914,77.54,729.07743015462,0,10,Assisted_Takeoff,
2700,2023-09-22 19:34:22,40.0825682888407,-88.2006589259406,0,,,729.07743015462,0.328084,0,0.039221129864,0.143249348416,28,10,21.4905,729.07743015462,0,0,0.077699149468,0,0,0,188.3, -0.1, -1.2,0,0,1024,1024,1024,1024,0,0,0,0,0,0,0,48,,,,,,,0.914,77.54,729.07743015462,0,10,Assisted_Takeoff,
2800,2023-09-22 19:34:22,40.0825682910887,-88.2006589440281,0,,,729.07743015462,0.328084,0,0.037711287296,0.148364834144,28,10,21.4905,729.07743015462,0,0,0.077699149468,0,0,0,188.3, 0, -1.2,0,0,1024,1024,1024,1024,0,0,0,0,0,0,0,48,,,,,,,0.914,77.54,729.07743015462,0,10,Assisted_Takeoff,
2900,2023-09-22 19:34:22,40.0825682924374,-88.2006589660987,0,,,729.07743015462,0.328084,0,0.03626476494,0.15454560862,28,10,21.4905,729.07743015462,0,0,0.077699149468,0,0,0,188.3, -0.1, -1.2,0,0,1024,1024,1024,1024,0,0,0,0,0,0,0,48,,,,,,,0.914,77.54,729.07743015462,0,10,Assisted_Takeoff,
3000,2023-09-22 19:34:22,40.0825682953089,-88.2006589777968,0,,,729.07743015462,0.328084,0,0.036687009048,0.157975070672,28,10,21.4905,729.07743015462,0,0,0.077699149468,0,0,0,188.3, -0.1, -1.2,0,0,1024,1024,1024,1024,0,0,0,0,0,0,0,48,,,,,,,0.914,77.54,729.07743015462,0,10,Assisted_Takeoff,
3100,2023-09-22 19:34:22,40.0825682970321,-88.2006589798118,0,,,729.07743015462,0.328084,0,0.037236549748,0.158818574636,28,10,21.4905,729.07743015462,0,0,0.077699149468,0,0,0,188.3, -0.1, -1.2,0,0,1024,1024,1024,1024,0,0,0,0,0,0,0,48,,,,,,,0.914,77.54,729.07743015462,0,10,Assisted_Takeoff,
3200,2023-09-22 19:34:22,40.0825682933436,-88.2006589645011,0,,,729.07743015462,0.656168,0,0.036691602224,0.163299545908,28,10,21.4905,729.07743015462,0,0,0.077699149468,0,0,0,188.3, -0.1, -1.2,0,0,1024,1024,1024,1024,0,0,0,0,0,0,0,48,,,,,,,0.914,77.54,729.07743015462,0,10,Assisted_Takeoff,
3300,2023-09-22 19:34:22,40.0825682899172,-88.2006589655442,0,,,729.07743015462,0.328084,0,0.035408137616,0.164583010516,28,10,21.4905,729.07743015462,0,0,0.077699149468,0,0,0,188.3, -0.1, -1.2,0,0,1024,1024,1024,1024,0,0,0,0,0,0,0,48,,,,,,,0.914,77.54,729.07743015462,0,10,Assisted_Takeoff,
3400,2023-09-22 19:34:22,40.0825682833949,-88.2006589703913,0,,,729.07743015462,0.328084,0,0.0327803160096,0.167320543412,28,10,21.4905,729.07743015462,0,0,0.077699149468,0,0,0,188.3, -0.1, -1.2,0,0,1024,1024,1024,1024,0,0,0,0,0,0,0,48,,,,,,,0.914,77.54,729.07743015462,0,10,Assisted_Takeoff,
3500,2023-09-22 19:34:23,40.0825682741645,-88.2006589724938,0,,,729.07743015462,0.328084,0,0.0293664051392,0.170738850608,28,10,21.4905,729.07743015462,0,0,0.077699149468,0,0,0,188.3, -0.1, -1.2,0,0,1024,1024,1024,1024,0,0,0,0,0,0,0,48,,,,,,,0.914,77.54,729.07743015462,0,10,Assisted_Takeoff,
3600,2023-09-22 19:34:23,40.0825682437124,-88.20065896016,0,,,729.07743015462,0.328084,0,0.0201859586512,0.182370740744,28,10,21.4905,729.07743015462,0,0,0.077699149468,0,0,0,188.3, -0.1, -1.2,0,0,1024,1024,1024,1024,0,0,0,0,0,0,0,48,,,,,,,0.914,77.54,729.07743015462,0,10,Assisted_Takeoff,
3700,2023-09-22 19:34:23,40.0825682362032,-88.2006589594906,0,,,729.07743015462,0.328084,0,0.0179687341708,0.185116803824,28,10,21.4905,729.07743015462,0,0,0.077699149468,0,0,0,188.3, -0.1, -1.2,0,0,1024,1024,1024,1024,0,0,0,0,0,0,0,48,,,,,,,0.914,77.54,729.07743015462,0,10,Assisted_Takeoff,
3800,2023-09-22 19:34:23,40.0825682332808,-88.2006589590631,0,,,729.07743015462,0.328084,0,0.0171754270588,0.186189638504,28,10,21.4905,729.07743015462,0,0,0.077699149468,0,0,0,188.3, -0.1, -1.2,0,0,1024,1024,1024,1024,0,0,0,0,0,0,0,48,,,,,,,0.914,77.54,729.07743015462,0,10,Assisted_Takeoff,
3900,2023-09-22 19:34:23,40.0825682301947,-88.2006589529518,0,,,729.07743015462,0.328084,0,0.0174269690616,0.188233601824,28,10,21.4905,729.07743015462,0,0,0.077699149468,0,0,0,188.3, -0.1, -1.2,0,0,1024,1024,1024,1024,0,0,0,0,0,0,0,48,,,,,,,0.914,77.54,729.07743015462,0,10,Assisted_Takeoff,
4000,2023-09-22 19:34:23,40.0825682294833,-88.2006589563062,0,,,729.07743015462,0.328084,0,0.01659858977,0.189205386632,28,10,21.4905,729.07743015462,0,0,0.077699149468,0,0,0,188.3, -0.1, -1.2,0,0,1024,1024,1034,1024,0,0,2,0,0,0,0,48,,,,,,,0.914,77.54,729.07743015462,0,10,Assisted_Takeoff,
4100,2023-09-22 19:34:23,40.0825682313161,-88.200658955434,0,,,729.07743015462,0.328084,0,0.0172599086888,0.189917000828,28,10,21.4905,729.07743015462,0,0,0.077699149468,0,0,0,188.3, -0.1, -1.2,0,0,1024,1024,1024,1024,0,0,0,0,0,0,0,48,,,,,,,0.914,77.54,729.07743015462,0,10,Assisted_Takeoff,
4200,2023-09-22 19:34:23,40.0825682362701,-88.2006589517531,0,,,729.07743015462,0.328084,0,0.0193009192528,0.191996069136,28,10,21.4905,729.07743015462,0,0,0.077699149468,0,0,0,188.3, -0.1, -1.2,0,0,1024,1024,1024,1024,0,0,0,0,0,0,0,48,,,,,,,0.914,77.54,729.07743015462,0,10,Assisted_Takeoff,
4300,2023-09-22 19:34:23,40.0825682454617,-88.2006589438307,0,,,729.07743015462,0.328084,0,0.0232959981208,0.196013129632,28,10,21.4905,729.07743015462,0,0,0.077699149468,0,0,0,188.3, -0.1, -1.2,0,0,1024,1024,1024,1024,0,0,0,0,0,0,0,48,,,,,,,0.914,77.54,729.07743015462,0,10,Assisted_Takeoff,
4400,2023-09-22 19:34:23,40.0825682483114,-88.2006589435722,0,,,729.07743015462,0.328084,0,0.0241582356812,0.1970554525,28,10,21.4905,729.07743015462,0,0,0.077699149468,0,0,0,188.3, -0.1, -1.2,0,0,1024,1024,1024,1024,0,0,0,0,0,0,0,48,,,,,,,0.914,77.54,729.07743015462,0,10,Assisted_Takeoff,
4500,2023-09-22 19:34:24,40.0825682483323,-88.2006589373878,0,,,729.07743015462,0.328084,0,0.0252510178684,0.198781830508,28,10,21.4905,729.07743015462,0,0,0.077699149468,0,0,0,188.3, -0.1, -1.2,0,0,1024,1024,1024,1024,0,0,0,0,0,0,0,48,,,,,,,0.914,77.54,729.07743015462,0,10,Assisted_Takeoff,
4600,2023-09-22 19:34:24,40.0825682420288,-88.2006589144514,0,,,729.07743015462,0.328084,0,0.0283877305672,0.205584980332,28,10,21.4905,729.07743015462,0,0,0.077699149468,0,0,0,188.3, -0.1, -1.2,0,0,1024,1024,1024,1024,0,0,0,0,0,0,0,48,,,,,,,0.914,77.54,729.07743015462,0,10,Assisted_Takeoff,
4700,2023-09-22 19:34:24,40.0825682370231,-88.200658905281,0,,,729.07743015462,0.328084,0,0.0295110573748,0.208729665472,28,10,21.4925,729.07743015462,0,0,0.077699149468,0,0,0,188.3, -0.1, -1.2,0,0,1024,1024,1064,1024,0,0,6,0,0,0,0,48,,,,,,,0.927,77.54,729.07743015462,0,10,Assisted_Takeoff,
4800,2023-09-22 19:34:24,40.0825682314682,-88.2006588964973,0,,,729.07743015462,0.328084,0,0.03073162828,0.21191109602,28,10,21.4925,729.07743015462,0,0,0.077699149468,0,0,0,188.3, -0.1, -1.2,0,0,1024,1024,1171,1024,0,0,22,0,0,0,0,48,,,,,,,0.927,77.54,729.07743015462,0,10,Assisted_Takeoff,
4900,2023-09-22 19:34:24,40.0825682294785,-88.2006588916964,0,,,729.07743015462,0.328084,0,0.0316611886772,0.2134350462,28,10,21.4925,729.07743015462,0,0,0.077699149468,0,0,0,188.3, -0.1, -1.2,0,0,1024,1024,1262,1024,0,0,36,0,0,0,0,48,,,,,,,0.927,77.54,729.07743015462,0,10,Assisted_Takeoff,
5000,2023-09-22 19:34:24,40.0825682264973,-88.200658882266,0,,,729.07743015462,0.328084,0,0.033724738612,0.216283471488,28,10,21.4925,729.07743015462,0,0,0.077699149468,0,0,0,188.3, 0, -1.2,0,0,1024,1024,1320,1024,0,0,45,0,0,0,0,48,,,,,,,0.927,77.54,729.07743015462,0,10,Assisted_Takeoff,
5100,2023-09-22 19:34:24,40.082568225397,-88.2006588782698,0,,,729.07743015462,0.328084,0,0.034651247828,0.217469167064,28,10,21.4925,729.07743015462,0,0,0.077699149468,0,0,0,188.3, 0, -1.2,0,0,1024,1024,1418,1024,0,0,60,0,0,0,0,48,,,,,,,0.927,77.54,729.07743015462,0,10,Assisted_Takeoff,
5200,2023-09-22 19:34:24,40.0825682234748,-88.200658870246,0,,,729.07743015462,0.328084,0,0.036585631092,0.21981628,28,10,21.4925,729.07743015462,0,0,0.077699149468,0,0,0,188.3, 0, -1.3,0,0,1024,1024,1422,1024,0,0,60,0,0,0,0,48,,,,,,,0.927,77.54,729.07743015462,0,10,Assisted_Takeoff,
5300,2023-09-22 19:34:24,40.0825682220362,-88.2006588566197,0,,,729.07743015462,0.328084,0,0.04012631362,0.223656175136,28,10,21.4925,729.07743015462,0,0,0.077699149468,0,0,0,188.3, 0, -1.2,0,0,1024,1024,1396,1024,0,0,56,0,0,0,0,48,,,,,,,0.927,77.54,729.07743015462,0,10,Assisted_Takeoff,
5400,2023-09-22 19:34:24,40.082568229342,-88.2006588478611,0,,,729.07743015462,0.328084,0,0.0431840565,0.227272973152,28,10,21.4925,729.07743015462,0,0,0.077699149468,0,0,0,188.3, 0.2, -1.3,0,0,1024,1024,1388,1024,0,0,55,0,0,0,0,48,,,,,,,0.927,77.54,729.07743015462,0,10,Assisted_Takeoff,
5500,2023-09-22 19:34:25,40.0825682372609,-88.2006588473986,0,,,729.07743015462,0.328084,0,0.04421259984,0.230165033612,28,10,21.4925,729.07743015462,0,0,0.077699149468,0,0,0,188.3, 0.5, -1.3,0,0,1024,1024,1389,1024,0,0,55,0,0,0,0,48,,,,,,,0.927,77.54,729.07743015462,0,10,Assisted_Takeoff,
5600,2023-09-22 19:34:25,40.0825682526326,-88.2006588546334,0,,,729.07743015462,0.328084,0,0.044636484368,0.236125991808,28,10,21.4925,729.07743015462,0,0,0.077699149468,0,0,0,188.2, 1.2, -1.3,0,0,1024,1024,1411,1024,0,0,59,0,0,0,0,48,,,,,,,0.927,77.54,729.07743015462,0,10,Assisted_Takeoff,
5700,2023-09-22 19:34:25,40.0825682983956,-88.2006588659889,0,,,729.07743015462,0.656168,0,0.0521899623,0.253121071092,28,10,21.2145,729.07743015462,0,0,0.077699149468,0,0,0,188.2, 2.6, -1.2,0,0,1024,1024,1421,1024,0,0,60,0,0,0,0,48,,,,,,,5.742,77.54,729.07743015462,0,10,Assisted_Takeoff,
5800,2023-09-22 19:34:25,40.0825684212535,-88.2006588684987,0,,,729.07743015462,0.656168,0.223694,0.08966699762,0.29795112502,28,10,21.2145,729.07743015462,0,0.223694,0.08966699762,0.223694,0,-0.223694,187.7, 4.7, -1.4,0,0,1024,1024,1397,1024,0,0,57,0,0,0,0,48,,,,,,,5.742,77.54,729.07743015462,0,10,Assisted_Takeoff,
5900,2023-09-22 19:34:25,40.0825686322024,-88.2006588691257,0,,,729.07743015462,0.656168,0.223694,0.163144034092,0.37491471016,28,10,21.2145,729.07743015462,0,0.223694,0.163144034092,0.447388,0,-0.671082,187.3, 4.6, -1.4,0,0,1024,1024,1408,1024,0,0,58,0,0,0,0,48,,,,,,,5.742,77.54,729.07743015462,0,6,P-GPS,
6000,2023-09-22 19:34:25,40.0825689636184,-88.200658893168,0,,,729.07743015462,0.656168,0.894776,0.28163058644,0.49602035708,28,10,21.2145,729.07743015462,0,0.894776,0.28163058644,0.894776,0,-1.11847,186.9, 3.3, -2,0,0,1024,1024,1418,1024,0,0,60,0,0,0,0,48,,,,,,,5.742,77.54,729.07743015462,0,6,P-GPS,
6100,2023-09-22 19:34:25,40.0825693621152,-88.2006588825246,0.328084,,,729.40551415462,0.984252,0.894776,0.42673229712,0.64144030924,28,10,21.2145,729.40551415462,0.328084,0.894776,0.42673229712,0.894776,0,-1.789552,186.8, 0.8, -1.1,0,0,1024,1024,1285,1024,0,0,40,0,0,0,0,48,,,,,,,5.742,77.54,729.40551415462,0.328084,6,P-GPS,
6200,2023-09-22 19:34:25,40.0825698316065,-88.2006588929833,0.656168,,,729.73359815462,0.984252,1.11847,0.5975393892,0.81275921236,28,10,21.2145,729.73359815462,0.656168,1.11847,0.5975393892,1.11847,0,-2.23694,186.8, -2.6, -0.4,0,0,1024,1024,1038,1024,0,0,2,0,0,0,0,48,,,,,,,5.742,77.54,729.73359815462,0.656168,6,P-GPS,
6300,2023-09-22 19:34:25,40.0825702610334,-88.2006589590963,0.984252,,,730.06168215462,1.312336,0.894776,0.75358926296,0.97051840376,28,10,21.2145,730.06168215462,0.984252,1.11847,0.75358926296,0.894776,0,-2.684328,187, -6.9, -0.7,0,0,1024,1024,1072,1024,0,0,7,0,0,0,0,48,,,,,,,5.742,77.54,730.06168215462,0.984252,6,P-GPS,
6400,2023-09-22 19:34:25,40.0825706146396,-88.2006590953388,1.312336,,,730.38976615462,1.312336,0.7158208,0.88296590752,1.1050197204,28,10,21.2145,730.38976615462,1.312336,1.11847,0.88296590752,0.671082,-0.223694,-2.684328,187.4, -8.7, -2,0,0,1024,1024,1024,1024,0,0,0,0,0,0,0,48,,,,,,,5.742,77.54,730.38976615462,1.312336,6,P-GPS,
6500,2023-09-22 19:34:26,40.082570868192,-88.2006592660565,1.968504,,,731.04593415462,1.312336,0.4921268,0.97794622552,1.20908140352,28,10,21.2145,731.04593415462,1.968504,1.11847,0.97794622552,0.447388,-0.223694,-2.684328,187.7, -8, -3,0,0,1024,1024,1024,1024,0,0,0,0,0,0,0,48,,,,,,,5.742,77.54,731.04593415462,1.968504,6,P-GPS,
6600,2023-09-22 19:34:26,40.0825710593797,-88.2006594678087,2.296588,,,731.37401815462,0.984252,0.4921268,1.05305777648,1.2987369182,28,10,21.2145,731.37401815462,2.296588,1.11847,1.05305777648,0.447388,-0.223694,-2.460634,188, -6.1, -3.9,0,0,1024,1024,1024,1024,0,0,0,0,0,0,0,48,,,,,,,5.742,77.54,731.37401815462,2.296588,6,P-GPS,
6700,2023-09-22 19:34:26,40.0825712359711,-88.2006596218033,2.624672,,,731.70210215462,0.656168,0.3131716,1.12288717504,1.37619098892,28,10,21.2415,731.70210215462,2.624672,1.11847,1.12288717504,0.223694,-0.223694,-2.23694,188.1, -4.7, -4.7,0,0,1024,1024,1024,1024,0,0,0,0,0,0,0,48,,,,,,,7.882,77.54,731.70210215462,2.624672,6,P-GPS,
6800,2023-09-22 19:34:26,40.0825713368286,-88.2006597849218,2.952756,,,732.03018615462,0.656168,0.3131716,1.16698166464,1.43473429788,28,10,21.2415,732.03018615462,2.952756,1.11847,1.16698166464,0.223694,-0.223694,-1.789552,188, -3.8, -5.1,0,0,1024,1024,1024,1024,0,0,0,0,0,0,0,48,,,,,,,7.882,77.54,732.03018615462,2.952756,6,P-GPS,
6900,2023-09-22 19:34:26,40.0825714186965,-88.2006599199951,3.28084,,,732.35827015462,0.328084,0.3131716,1.2038386212,1.48283797396,28,10,21.2415,732.35827015462,3.28084,1.11847,1.2038386212,0.223694,-0.223694,-1.342164,188, -3.8, -4.9,0,0,1024,1024,1024,1024,0,0,0,0,0,0,0,48,,,,,,,7.882,77.54,732.35827015462,3.28084,6,P-GPS,
7000,2023-09-22 19:34:26,40.0825714906376,-88.2006600490291,3.28084,,,732.35827015462,0.328084,0.223694,1.23754597136,1.52740818536,28,10,21.2415,732.35827015462,3.28084,1.11847,1.23754597136,0,-0.223694,-0.894776,187.9, -4.2, -4.8,0,0,1024,1024,1024,1024,0,0,0,0,0,0,0,48,,,,,,,7.882,77.54,732.35827015462,3.28084,6,P-GPS,
7100,2023-09-22 19:34:26,40.0825715615384,-88.2006601652242,3.608924,,,732.68635415462,0.328084,0.223694,1.27062996192,1.56889440716,28,10,21.2415,732.68635415462,3.608924,1.11847,1.27062996192,0,-0.223694,-0.671082,187.9, -4.2, -4.7,0,0,1024,1024,1024,1024,0,0,0,0,0,0,0,48,,,,,,,7.882,77.54,732.68635415462,3.608924,6,P-GPS,
7200,2023-09-22 19:34:26,40.0825716342273,-88.2006602899574,3.608924,,,732.68635415462,0,0.223694,1.3054790444,1.6126640936,28,10,21.2415,732.68635415462,3.608924,1.11847,1.3054790444,0,-0.223694,-0.223694,187.8, -3.7, -4.7,0,0,1024,1024,1024,1024,0,0,0,0,0,0,0,48,,,,,,,7.882,77.54,732.68635415462,3.608924,6,P-GPS,
7300,2023-09-22 19:34:26,40.0825716919516,-88.2006604162447,3.608924,,,732.68635415462,0,0.223694,1.33576447844,1.65373036788,28,10,21.2415,732.68635415462,3.608924,1.11847,1.33576447844,0,-0.223694,0,187.7, -3.2, -4.9,0,0,1024,1024,1024,1024,0,0,0,0,0,0,0,48,,,,,,,7.882,77.54,732.68635415462,3.608924,6,P-GPS,
7400,2023-09-22 19:34:26,40.0825718046256,-88.2006605409702,3.608924,,,732.68635415462,0,0.223694,1.3855151362,1.70760176068,28,10,21.2415,732.68635415462,3.608924,1.11847,1.3855151362,0,-0.223694,0,187.7, -2.7, -5,0,0,1024,1024,1024,1024,0,0,0,0,0,0,0,48,,,,,,,7.882,77.54,732.68635415462,3.608924,6,P-GPS,
7500,2023-09-22 19:34:27,40.082571832085,-88.2006606465112,3.608924,,,732.68635415462,0.328084,0.223694,1.40442589796,1.73872052808,28,10,21.2415,732.68635415462,3.608924,1.11847,1.40442589796,0,-0.223694,0,187.7, -2.3, -5.1,0,0,1024,1024,1024,1024,0,0,0,0,0,0,0,48,,,,,,,7.882,77.54,732.68635415462,3.608924,6,P-GPS,
7600,2023-09-22 19:34:27,40.082571845463,-88.2006607363182,3.608924,,,732.68635415462,0.328084,0.223694,1.41743114772,1.76426186748,28,10,21.2415,732.68635415462,3.608924,1.11847,1.41743114772,0,-0.223694,0.223694,187.8, -2.3, -5.1,0,0,1024,1024,1024,1024,0,0,0,0,0,0,0,48,,,,,,,7.882,77.54,732.68635415462,3.608924,6,P-GPS,
7700,2023-09-22 19:34:27,40.0825718545978,-88.2006608094118,3.608924,,,732.68635415462,0.328084,0.223694,1.42767064936,1.78493444032,28,10,21.2415,732.68635415462,3.608924,1.11847,1.42767064936,0,-0.223694,0.223694,187.8, -2.2, -5.1,0,0,1024,1024,1024,1024,0,0,0,0,0,0,0,48,,,,,,,7.882,77.54,732.68635415462,3.608924,6,P-GPS,
7800,2023-09-22 19:34:27,40.0825718489801,-88.2006608486129,3.608924,,,732.68635415462,0.328084,0.223694,1.4296752426,1.79606961128,28,10,21.2415,732.68635415462,3.608924,1.11847,1.4296752426,0,-0.223694,0.223694,187.8, -2.4, -5.2,0,0,1024,1024,1024,1024,0,0,0,0,0,0,0,48,,,,,,,7.882,77.54,732.68635415462,3.608924,6,P-GPS,
7900,2023-09-22 19:34:27,40.0825718620137,-88.200660921548,3.28084,,,732.35827015462,0.328084,0.223694,1.44157484928,1.8169784046,28,10,21.2415,732.68635415462,3.608924,1.11847,1.44157484928,0,-0.223694,0.223694,187.7, -2.3, -5.5,0,0,1024,1024,1024,1024,0,0,0,0,0,0,0,48,,,,,,,7.882,77.54,732.35827015462,3.28084,6,P-GPS,
8000,2023-09-22 19:34:27,40.0825718805533,-88.2006609966035,3.28084,,,732.35827015462,0.328084,0,1.45576120144,1.838992841,28,10,21.2415,732.68635415462,3.608924,1.11847,1.45576120144,0,0,0.223694,187.7, -2.3, -5.8,0,0,1024,1024,1024,1024,0,0,0,0,0,0,0,48,,,,,,,7.882,77.54,732.35827015462,3.28084,6,P-GPS,
8100,2023-09-22 19:34:27,40.0825718754064,-88.2006610772446,3.28084,,,732.35827015462,0.656168,0,1.46282156912,1.8615814244,28,10,21.2415,732.68635415462,3.608924,1.11847,1.46282156912,0,0,0.223694,187.7, -2.2, -5.9,0,0,1024,1024,1024,1024,0,0,0,0,0,0,0,48,,,,,,,7.882,77.54,732.35827015462,3.28084,6,P-GPS,
8200,2023-09-22 19:34:27,40.0825718811997,-88.2006611202664,3.28084,,,732.35827015462,0.656168,0,1.46956697616,1.87377630668,28,10,21.2415,732.68635415462,3.608924,1.11847,1.46956697616,0,0,0,187.7, -2.2, -5.7,0,0,1024,1024,1024,1024,0,0,0,0,0,0,0,48,,,,,,,7.882,77.54,732.35827015462,3.28084,6,P-GPS,
8300,2023-09-22 19:34:27,40.0825718824321,-88.2006611471306,3.28084,,,732.35827015462,0.656168,0,1.47301841984,1.88128943028,28,10,21.2415,732.68635415462,3.608924,1.11847,1.47301841984,0,0,0,187.7, -2.5, -5.2,0,0,1024,1024,1024,1024,0,0,0,0,0,0,0,48,,,,,,,7.882,77.54,732.35827015462,3.28084,6,P-GPS,
8400,2023-09-22 19:34:27,40.0825718763367,-88.2006611699945,3.28084,,,732.35827015462,0.656168,0,1.4736056902,1.88804796068,28,10,21.147,732.68635415462,3.608924,1.11847,1.4736056902,0,0,0,187.8, -2.9, -4.8,0,0,1024,1024,1024,1024,0,0,0,0,0,0,0,48,,,,,,,8.239,77.54,732.35827015462,3.28084,6,P-GPS,
8500,2023-09-22 19:34:28,40.0825718583547,-88.2006611861002,3.28084,,,732.35827015462,0.656168,0,1.46949151684,1.89600071684,28,10,21.147,732.68635415462,3.608924,1.11847,1.4736056902,0,0,0,187.8, -3.1, -4.7,0,0,1024,1024,1024,1024,0,0,0,0,0,0,0,48,,,,,,,8.239,77.54,732.35827015462,3.28084,6,P-GPS,
8600,2023-09-22 19:34:28,40.0825718399804,-88.2006611911536,3.28084,,,732.35827015462,0.656168,0,1.46398954816,1.90285111076,28,10,21.147,732.68635415462,3.608924,1.11847,1.4736056902,0,0,0,187.8, -3, -4.8,0,0,1024,1024,1024,1024,0,0,0,0,0,0,0,48,,,,,,,8.239,77.54,732.35827015462,3.28084,6,P-GPS,
8700,2023-09-22 19:34:28,40.0825718018725,-88.2006612049936,3.28084,,,732.35827015462,0.656168,0,1.45300857668,1.91728352592,28,10,21.147,732.68635415462,3.608924,1.11847,1.4736056902,0,0,0,187.8, -2.8, -4.9,0,0,1024,1024,1024,1024,0,0,0,0,0,0,0,48,,,,,,,8.239,77.54,732.35827015462,3.28084,6,P-GPS,
8800,2023-09-22 19:34:28,40.0825717339433,-88.2006611956267,3.28084,,,732.35827015462,0.656168,0,1.42948167304,1.94220478656,28,10,21.147,732.68635415462,3.608924,1.11847,1.4736056902,0,0,0,187.8, -2.5, -4.8,0,0,1024,1024,1024,1024,0,0,0,0,0,0,0,48,,,,,,,8.239,77.54,732.35827015462,3.28084,6,P-GPS,
8900,2023-09-22 19:34:28,40.0825716640191,-88.2006612017782,3.28084,,,732.35827015462,0.656168,0,1.407234297,1.96777565352,28,10,21.147,732.68635415462,3.608924,1.11847,1.4736056902,0,0,0,187.8, -2.2, -4.3,0,0,1024,1024,1024,1024,0,0,0,0,0,0,0,48,,,,,,,8.239,77.54,732.35827015462,3.28084,6,P-GPS,
9000,2023-09-22 19:34:28,40.0825715814114,-88.2006612136593,3.28084,,,732.35827015462,0.656168,0,1.38167983424,1.9980971768,28,10,21.147,732.68635415462,3.608924,1.11847,1.4736056902,0,0,0,187.8, -2.2, -4,0,0,1024,1024,1024,1024,0,0,0,0,0,0,0,48,,,,,,,8.239,77.54,732.35827015462,3.28084,6,P-GPS,
9100,2023-09-22 19:34:28,40.0825714966464,-88.2006612407427,3.28084,,,732.35827015462,0.656168,0,1.35757550276,2.02993116732,28,10,21.147,732.68635415462,3.608924,1.11847,1.4736056902,0,0,0,187.9, -2.5, -4.4,0,0,1024,1024,1024,1024,0,0,0,0,0,0,0,48,,,,,,,8.239,77.54,732.35827015462,3.28084,6,P-GPS,
9200,2023-09-22 19:34:28,40.0825713455187,-88.2006612650181,3.28084,,,732.35827015462,0.656168,0,1.31216539632,2.08548563104,28,10,21.147,732.68635415462,3.608924,1.11847,1.4736056902,0,0,0,187.8, -2.2, -5,0,0,1024,1024,1024,1024,0,0,0,0,0,0,0,48,,,,,,,8.239,77.54,732.35827015462,3.28084,6,P-GPS,
9300,2023-09-22 19:34:28,40.0825712551703,-88.2006613093275,3.28084,,,732.35827015462,0.656168,0,1.28954072368,2.12069560592,28,10,21.147,732.68635415462,3.608924,1.11847,1.4736056902,0,0,0,187.8, -1.5, -5.3,0,0,1024,1024,1024,1024,0,0,0,0,0,0,0,48,,,,,,,8.239,77.54,732.35827015462,3.28084,6,P-GPS,
9400,2023-09-22 19:34:28,40.0825711737148,-88.2006613449823,3.28084,,,732.35827015462,0.656168,0,1.26901906948,2.1520341896,28,10,21.147,732.68635415462,3.608924,1.11847,1.4736056902,0,0,0,187.9, -1.4, -5.3,0,0,1024,1024,1024,1024,0,0,0,0,0,0,0,48,,,,,,,8.239,77.54,732.35827015462,3.28084,6,P-GPS,
9500,2023-09-22 19:34:29,40.0825710691368,-88.2006613324969,3.28084,,,732.35827015462,0.656168,0,1.234662113,2.19035111996,28,10,21.147,732.68635415462,3.608924,1.11847,1.4736056902,0,0,0,187.9, -1.7, -5.1,0,0,1024,1024,1024,1024,0,0,0,0,0,0,0,48,,,,,,,8.239,77.54,732.35827015462,3.28084,6,P-GPS,
9600,2023-09-22 19:34:29,40.0825709807476,-88.2006613241792,3.28084,,,732.35827015462,0.656168,0,1.20614833256,2.22268051732,28,10,21.147,732.68635415462,3.608924,1.11847,1.4736056902,0,0,0,187.9, -2.1, -5,0,0,1024,1024,1024,1024,0,0,0,0,0,0,0,48,,,,,,,8.239,77.54,732.35827015462,3.28084,6,P-GPS,
9700,2023-09-22 19:34:29,40.0825708908344,-88.2006613080001,3.28084,,,732.35827015462,0.656168,0,1.17616145496,2.25579731628,28,10,21.116,732.68635415462,3.608924,1.11847,1.4736056902,0,0,0,187.9, -1.8, -5,0,0,1024,1024,1024,1024,0,0,0,0,0,0,0,48,,,,,,,8.764,77.54,732.35827015462,3.28084,6,P-GPS,
9800,2023-09-22 19:34:29,40.0825707947223,-88.2006612754954,3.28084,,,732.35827015462,0.656168,0,1.14192588956,2.29201778988,28,10,21.116,732.68635415462,3.608924,1.11847,1.4736056902,0,0,0,188, -1.9, -4.6,0,0,1024,1024,1024,1024,0,0,0,0,0,0,0,48,,,,,,,8.764,77.54,732.35827015462,3.28084,6,P-GPS,
9900,2023-09-22 19:34:29,40.082570676048,-88.2006612313176,3.28084,,,732.35827015462,0.656168,0,1.09918638688,2.33703747636,28,10,21.116,732.68635415462,3.608924,1.11847,1.4736056902,0,0,0,188, -1.8, -3.8,0,0,1024,1024,1024,1024,0,0,0,0,0,0,0,48,,,,,,,8.764,77.54,732.35827015462,3.28084,6,P-GPS,
10000,2023-09-22 19:34:29,40.0825705669122,-88.2006611975898,3.28084,,,732.35827015462,0.656168,0.223694,1.06116473212,2.377952832,28,10,21.116,732.68635415462,3.608924,1.11847,1.4736056902,-0.223694,0,0,188, -1.4, -3.4,0,0,1024,1024,1024,1024,0,0,0,0,0,0,0,48,,,,,,,8.764,77.54,732.35827015462,3.28084,6,P-GPS,
10100,2023-09-22 19:34:29,40.0825704561456,-88.2006611784858,3.28084,,,732.35827015462,0.656168,0.223694,1.02530843176,2.418717269,28,10,21.116,732.68635415462,3.608924,1.11847,1.4736056902,-0.223694,0,0,187.9, -0.9, -3.6,0,0,1024,1024,1024,1024,0,0,0,0,0,0,0,48,,,,,,,8.764,77.54,732.35827015462,3.28084,6,P-GPS,
10200,2023-09-22 19:34:29,40.0825703159787,-88.2006611514193,3.28084,,,732.35827015462,0.656168,0,0.97998362716,2.47041346488,28,10,21.116,732.68635415462,3.608924,1.11847,1.4736056902,0,0,0,187.9, -0.5, -4.3,0,0,1024,1024,1024,1024,0,0,0,0,0,0,0,48,,,,,,,8.764,77.54,732.35827015462,3.28084,6,P-GPS,
10300,2023-09-22 19:34:29,40.0825702243649,-88.2006611450941,3.28084,,,732.35827015462,0.656168,0,0.95271000424,2.50388459456,28,10,21.116,732.68635415462,3.608924,1.11847,1.4736056902,0,0,0,187.9, -0.9, -4.7,0,0,1024,1024,1024,1024,0,0,0,0,0,0,0,48,,,,,,,8.764,77.54,732.35827015462,3.28084,6,P-GPS,
10400,2023-09-22 19:34:29,40.0825701394709,-88.2006611339569,3.28084,,,732.35827015462,0.656168,0,0.92684714252,2.53501320448,28,10,21.116,732.68635415462,3.608924,1.11847,1.4736056902,0,0,0,187.9, -1.1, -4.5,0,0,1024,1024,1024,1024,0,0,0,0,0,0,0,48,,,,,,,8.764,77.54,732.35827015462,3.28084,6,P-GPS,
10500,2023-09-22 19:34:30,40.0825700789519,-88.2006611299567,3.28084,,,732.35827015462,0.656168,0,0.90933073776,2.55712278524,28,10,21.116,732.68635415462,3.608924,1.11847,1.4736056902,0,0,0,187.9, -1.3, -4.2,0,0,1024,1024,1024,1024,0,0,0,0,0,0,0,48,,,,,,,8.764,77.54,732.35827015462,3.28084,6,P-GPS,
10600,2023-09-22 19:34:30,40.0825700263828,-88.2006611436009,3.28084,,,732.35827015462,0.656168,0,0.89746722032,2.57667659164,28,10,21.116,732.68635415462,3.608924,1.11847,1.4736056902,0,0,0,188, -1.4, -4.4,0,0,1024,1024,1024,1024,0,0,0,0,0,0,0,48,,,,,,,8.764,77.54,732.35827015462,3.28084,6,P-GPS,
10700,2023-09-22 19:34:30,40.0825699734637,-88.2006611578501,3.28084,,,732.35827015462,0.656168,0,0.88589569764,2.59638787836,28,10,21.116,732.68635415462,3.608924,1.11847,1.4736056902,0,0,0,188, -1.2, -4.7,0,0,1024,1024,1024,1024,0,0,0,0,0,0,0,48,,,,,,,8.764,77.54,732.35827015462,3.28084,6,P-GPS,
10800,2023-09-22 19:34:30,40.0825699161483,-88.2006611658156,3.28084,,,732.35827015462,0.656168,0,0.8722441224,2.61741806276,28,10,21.116,732.68635415462,3.608924,1.11847,1.4736056902,0,0,0,188, -1.2, -5.1,0,0,1024,1024,1024,1024,0,0,0,0,0,0,0,48,,,,,,,8.764,77.54,732.35827015462,3.28084,6,P-GPS,
10900,2023-09-22 19:34:30,40.0825698404401,-88.2006611668773,3.28084,,,732.35827015462,0.656168,0,0.85279202204,2.64504273556,28,10,21.116,732.68635415462,3.608924,1.11847,1.4736056902,0,0,0,188, -1.3, -4.7,0,0,1024,1024,1024,1024,0,0,0,0,0,0,0,48,,,,,,,8.764,77.54,732.35827015462,3.28084,6,P-GPS,
11000,2023-09-22 19:34:30,40.0825697751753,-88.2006611620002,3.28084,,,732.35827015462,0.656168,0,0.83522312384,2.66889444236,28,10,21.116,732.68635415462,3.608924,1.11847,1.4736056902,0,0,0,188, -1.2, -4.5,0,0,1024,1024,1024,1024,0,0,0,0,0,0,0,48,,,,,,,8.764,77.54,732.35827015462,3.28084,6,P-GPS,
11100,2023-09-22 19:34:30,40.0825697165192,-88.2006611587153,3.28084,,,732.35827015462,0.656168,0,0.81992784776,2.69031504672,28,10,21.116,732.68635415462,3.608924,1.11847,1.4736056902,0,0,0,188, -1, -4.5,0,0,1024,1024,1024,1024,0,0,0,0,0,0,0,48,,,,,,,8.764,77.54,732.35827015462,3.28084,6,P-GPS,
11200,2023-09-22 19:34:30,40.082569659565,-88.2006611594301,3.28084,,,732.35827015462,0.656168,0,0.80616144312,2.71109260644,28,10,21.116,732.68635415462,3.608924,1.11847,1.4736056902,0,0,0,188, -0.9, -4.6,0,0,1024,1024,1024,1024,0,0,0,0,0,0,0,48,,,,,,,8.764,77.54,732.35827015462,3.28084,6,P-GPS,
11300,2023-09-22 19:34:30,40.0825695955899,-88.2006611565324,3.28084,,,732.35827015462,0.656168,0,0.79027561584,2.7344489064,28,10,21.116,732.68635415462,3.608924,1.11847,1.4736056902,0,0,0,188, -0.7, -4.8,0,0,1024,1024,1024,1024,0,0,0,0,0,0,0,48,,,,,,,8.764,77.54,732.35827015462,3.28084,6,P-GPS,
11400,2023-09-22 19:34:30,40.082569548586,-88.200661154848,3.28084,,,732.35827015462,0.656168,0,0.7789370328,2.75160441876,28,10,21.1,732.68635415462,3.608924,1.11847,1.4736056902,0,0,0,188, -0.9, -5,0,0,1024,1024,1024,1024,0,0,0,0,0,0,0,48,,,,,,,8.344,77.54,732.35827015462,3.28084,6,P-GPS,
11500,2023-09-22 19:34:31,40.0825695079382,-88.2006611438239,3.28084,,,732.35827015462,0.656168,0,0.76721787232,2.76675205704,28,10,21.1,732.68635415462,3.608924,1.11847,1.4736056902,0,0,0,188.1, -1, -4.6,0,0,1024,1024,1024,1024,0,0,0,0,0,0,0,48,,,,,,,8.344,77.54,732.35827015462,3.28084,6,P-GPS,
11600,2023-09-22 19:34:31,40.0825694457888,-88.2006611277876,3.28084,,,732.35827015462,0.656168,0,0.74971787176,2.78986557484,28,10,21.1,732.68635415462,3.608924,1.11847,1.4736056902,0,0,0,188.1, -0.8, -3.9,0,0,1024,1024,1024,1024,0,0,0,0,0,0,0,48,,,,,,,8.344,77.54,732.35827015462,3.28084,6,P-GPS,
11700,2023-09-22 19:34:31,40.0825694215724,-88.2006611242048,3.28084,,,732.35827015462,0.656168,0,0.74357942012,2.79875665124,28,10,21.1,732.68635415462,3.608924,1.11847,1.4736056902,0,0,0,188.1, -0.6, -3.9,0,0,1024,1024,1024,1024,0,0,0,0,0,0,0,48,,,,,,,8.344,77.54,732.35827015462,3.28084,6,P-GPS,
11800,2023-09-22 19:34:31,40.0825694165618,-88.2006611321394,3.28084,,,732.35827015462,0.656168,0,0.74425199232,2.80162738624,28,10,21.1,732.68635415462,3.608924,1.11847,1.4736056902,0,0,0,188.2, -1.1, -4.5,0,0,1024,1024,1024,1024,0,0,0,0,0,0,0,48,,,,,,,8.344,77.54,732.35827015462,3.28084,6,P-GPS,
11900,2023-09-22 19:34:31,40.0825694205942,-88.2006611519205,3.28084,,,732.35827015462,0.656168,0,0.74956039144,2.80734260952,28,10,21.1,732.68635415462,3.608924,1.11847,1.4736056902,0,0,0,188.2, -1.5, -5.2,0,0,1024,1024,1024,1024,0,0,0,0,0,0,0,48,,,,,,,8.344,77.54,732.35827015462,3.28084,6,P-GPS,
12000,2023-09-22 19:34:31,40.0825694177029,-88.2006611769576,3.28084,,,732.35827015462,0.656168,0,0.7545603916,2.81440953888,28,10,21.1,732.68635415462,3.608924,1.11847,1.4736056902,0,0,0,188.1, -1.6, -5.2,0,0,1024,1024,1024,1024,0,0,0,0,0,0,0,48,,,,,,,8.344,77.54,732.35827015462,3.28084,6,P-GPS,
12100,2023-09-22 19:34:31,40.0825694294175,-88.2006611946082,3.28084,,,732.35827015462,0.656168,0,0.76105973564,2.8209318488,28,10,21.1,732.68635415462,3.608924,1.11847,1.4736056902,0,0,0,188, -1.7, -5.4,0,0,1024,1024,1024,1024,0,0,0,0,0,0,0,48,,,,,,,8.344,77.54,732.35827015462,3.28084,6,P-GPS,
12200,2023-09-22 19:34:31,40.0825694476375,-88.2006612076725,3.28084,,,732.35827015462,0.656168,0,0.76793965712,2.82851715088,28,10,21.1,732.68635415462,3.608924,1.11847,1.4736056902,0,0,0,188, -1.9, -5.4,0,0,1024,1024,1024,1024,0,0,0,0,0,0,0,48,,,,,,,8.344,77.54,732.35827015462,3.28084,6,P-GPS,
12300,2023-09-22 19:34:31,40.0825694499058,-88.2006612129077,3.28084,,,732.35827015462,0.656168,0,0.76960632384,2.83019366012,28,10,21.1,732.68635415462,3.608924,1.11847,1.4736056902,0,0,0,188, -2, -5.4,0,0,1024,1024,1024,1024,0,0,0,0,0,0,0,48,,,,,,,8.344,77.54,732.35827015462,3.28084,6,P-GPS,
12400,2023-09-22 19:34:31,40.0825694674588,-88.2006612199281,3.28084,,,732.35827015462,0.656168,0,0.7750000248,2.8368931354,28,10,21.0915,732.68635415462,3.608924,1.11847,1.4736056902,0,0,0,188.1, -2.2, -5.4,0,0,1024,1024,1024,1024,0,0,0,0,0,0,0,48,,,,,,,8.21,77.54,732.35827015462,3.28084,6,P-GPS,
12500,2023-09-22 19:34:32,40.0825694793323,-88.2006612215341,3.28084,,,732.35827015462,0.656168,0,0.77795934248,2.84124681008,28,10,21.0915,732.68635415462,3.608924,1.11847,1.4736056902,0,0,0,188, -2.5, -5.5,0,0,1024,1024,1024,1024,0,0,0,0,0,0,0,48,,,,,,,8.21,77.54,732.35827015462,3.28084,6,P-GPS,
12600,2023-09-22 19:34:32,40.0825694841095,-88.2006612148308,3.28084,,,732.35827015462,0.656168,0,0.77751970992,2.84380586528,28,10,21.0915,732.68635415462,3.608924,1.11847,1.4736056902,0,0,0,187.9, -2.6, -5.3,0,0,1024,1024,1024,1024,0,0,0,0,0,0,0,48,,,,,,,8.21,77.54,732.35827015462,3.28084,6,P-GPS,
12700,2023-09-22 19:34:32,40.0825694702345,-88.2006612066184,3.28084,,,732.35827015462,0.656168,0,0.77263782,2.84936360824,28,10,21.0915,732.68635415462,3.608924,1.11847,1.4736056902,0,0,0,187.8, -2.5, -5.2,0,0,1024,1024,1024,1024,0,0,0,0,0,0,0,48,,,,,,,8.21,77.54,732.35827015462,3.28084,6,P-GPS,
12800,2023-09-22 19:34:32,40.082569456405,-88.2006611924363,3.28084,,,732.35827015462,0.656168,0,0.76644031324,2.8557743696,28,10,21.0915,732.68635415462,3.608924,1.11847,1.4736056902,0,0,0,187.9, -2.1, -5.3,0,0,1024,1024,1024,1024,0,0,0,0,0,0,0,48,,,,,,,8.21,77.54,732.35827015462,3.28084,6,P-GPS,
12900,2023-09-22 19:34:32,40.0825694463977,-88.2006611749356,3.28084,,,732.35827015462,0.656168,0,0.76034123168,2.86187345116,28,10,21.0915,732.68635415462,3.608924,1.11847,1.4736056902,0,0,0,187.8, -1.6, -5.3,0,0,1024,1024,1024,1024,0,0,0,0,0,0,0,48,,,,,,,8.21,77.54,732.35827015462,3.28084,6,P-GPS,
13000,2023-09-22 19:34:32,40.0825694369741,-88.2006611507357,3.28084,,,732.35827015462,0.656168,0,0.75287403984,2.8694554724,28,10,21.0915,732.68635415462,3.608924,1.11847,1.4736056902,0,0,0,187.9, -1.5, -4.9,0,0,1024,1024,1024,1024,0,0,0,0,0,0,0,48,,,,,,,8.21,77.54,732.35827015462,3.28084,6,P-GPS,
13100,2023-09-22 19:34:32,40.0825694401459,-88.2006611226791,3.28084,,,732.35827015462,0.656168,0,0.74733598192,2.87737213932,28,10,21.0915,732.68635415462,3.608924,1.11847,1.4736056902,0,0,0,188, -1.8, -4.6,0,0,1024,1024,1024,1024,0,0,0,0,0,0,0,48,,,,,,,8.21,77.54,732.35827015462,3.28084,6,P-GPS,
13200,2023-09-22 19:34:32,40.0825694431864,-88.200661092046,3.28084,,,732.35827015462,0.656168,0,0.74124346204,2.88599418684,28,10,21.0915,732.68635415462,3.608924,1.11847,1.4736056902,0,0,0,187.9, -1.9, -4.5,0,0,1024,1024,1024,1024,0,0,0,0,0,0,0,48,,,,,,,8.21,77.54,732.35827015462,3.28084,6,P-GPS,
13300,2023-09-22 19:34:32,40.0825694420489,-88.2006610640815,3.28084,,,732.35827015462,0.656168,0,0.73483926236,2.89381242856,28,10,21.0915,732.68635415462,3.608924,1.11847,1.4736056902,0,0,0,188, -1.9, -4.9,0,0,1024,1024,1024,1024,0,0,0,0,0,0,0,48,,,,,,,8.21,77.54,732.35827015462,3.28084,6,P-GPS,
13400,2023-09-22 19:34:32,40.0825694246124,-88.2006610268571,3.28084,,,732.35827015462,0.656168,0,0.72273952444,2.90599746832,28,10,21.0825,732.68635415462,3.608924,1.11847,1.4736056902,0,0,0,187.9, -1.7, -5,0,0,1024,1024,1024,1024,0,0,0,0,0,0,0,48,,,,,,,8.33,77.54,732.35827015462,3.28084,6,P-GPS,
13500,2023-09-22 19:34:33,40.0825694073389,-88.2006609760473,3.28084,,,732.35827015462,0.656168,0,0.70771655808,2.92151584152,28,10,21.0825,732.68635415462,3.608924,1.11847,1.4736056902,0,0,0,187.9, -1.7, -4.7,0,0,1024,1024,1024,1024,0,0,0,0,0,0,0,48,,,,,,,8.33,77.54,732.35827015462,3.28084,6,P-GPS,
13600,2023-09-22 19:34:33,40.082569382694,-88.2006609145282,3.28084,,,732.35827015462,0.656168,0,0.68870080944,2.94090232508,28,10,21.0825,732.68635415462,3.608924,1.11847,1.4736056902,0,0,0,187.9, -1.7, -4.3,0,0,1024,1024,1024,1024,0,0,0,0,0,0,0,48,,,,,,,8.33,77.54,732.35827015462,3.28084,6,P-GPS,
13700,2023-09-22 19:34:33,40.0825693421465,-88.2006608481267,3.28084,,,732.35827015462,0.656168,0,0.66498361708,2.9646162366,28,10,21.0825,732.68635415462,3.608924,1.11847,1.4736056902,0,0,0,187.8, -1.8, -4.3,0,0,1024,1024,1024,1024,0,0,0,0,0,0,0,48,,,,,,,8.33,77.54,732.35827015462,3.28084,6,P-GPS,
13800,2023-09-22 19:34:33,40.082569320597,-88.2006607963946,3.28084,,,732.35827015462,0.656168,0,0.6488189184,2.98105980668,28,10,21.0825,732.68635415462,3.608924,1.11847,1.4736056902,0,0,0,187.8, -1.7, -4.5,0,0,1024,1024,1024,1024,0,0,0,0,0,0,0,48,,,,,,,8.33,77.54,732.35827015462,3.28084,6,P-GPS,
13900,2023-09-22 19:34:33,40.0825692960243,-88.2006607515028,3.28084,,,732.35827015462,0.656168,0,0.63344162132,2.99646991216,28,10,21.0825,732.68635415462,3.608924,1.11847,1.4736056902,0,0,0,187.9, -1.3, -4.6,0,0,1024,1024,1024,1024,0,0,0,0,0,0,0,48,,,,,,,8.33,77.54,732.35827015462,3.28084,6,P-GPS,
14000,2023-09-22 19:34:33,40.0825692693112,-88.2006607014786,3.28084,,,732.35827015462,0.656168,0,0.61646655516,3.01349747176,28,10,21.0825,732.68635415462,3.608924,1.11847,1.4736056902,0,0,0,187.9, -1.3, -4.6,0,0,1024,1024,1024,1024,0,0,0,0,0,0,0,48,,,,,,,8.33,77.54,732.35827015462,3.28084,6,P-GPS,
14100,2023-09-22 19:34:33,40.082569229501,-88.2006606448813,3.28084,,,732.35827015462,0.656168,0,0.59503938912,3.03496072704,28,10,21.0825,732.68635415462,3.608924,1.11847,1.4736056902,0,0,0,187.9, -0.8, -4.4,0,0,1024,1024,1024,1024,0,0,0,0,0,0,0,48,,,,,,,8.33,77.54,732.35827015462,3.28084,6,P-GPS,
14200,2023-09-22 19:34:33,40.0825692012848,-88.2006605899877,3.28084,,,732.35827015462,0.656168,0,0.57666340428,3.05341873288,28,10,21.0825,732.68635415462,3.608924,1.11847,1.4736056902,0,0,0,188, -0.8, -4.2,0,0,1024,1024,1024,1024,0,0,0,0,0,0,0,48,,,,,,,8.33,77.54,732.35827015462,3.28084,6,P-GPS,
14300,2023-09-22 19:34:33,40.0825691812844,-88.2006605486693,3.28084,,,732.35827015462,0.656168,0,0.5631233776,3.06706702728,28,10,21.0825,732.68635415462,3.608924,1.11847,1.4736056902,0,0,0,188.3, -1.3, -4.4,0,0,1024,1024,1024,1024,0,0,0,0,0,0,0,48,,,,,,,8.33,77.54,732.35827015462,3.28084,6,P-GPS,
14400,2023-09-22 19:34:33,40.0825691248116,-88.2006605009912,3.28084,,,732.35827015462,0.656168,0,0.53977363932,3.09159786796,28,10,21.0705,732.68635415462,3.608924,1.11847,1.4736056902,0,0,0,188.5, -1.3, -4.7,0,0,1024,1024,1024,1024,0,0,0,0,0,0,0,48,,,,,,,8.33,77.54,732.35827015462,3.28084,6,P-GPS,
14500,2023-09-22 19:34:34,40.0825690982788,-88.2006604736575,3.28084,,,732.35827015462,0.656168,0,0.52776576492,3.10392398384,28,10,21.0705,732.68635415462,3.608924,1.11847,1.4736056902,0,0,0,188.5, -1.1, -4.6,0,0,1024,1024,1024,1024,0,0,0,0,0,0,0,48,,,,,,,8.33,77.54,732.35827015462,3.28084,6,P-GPS,
14600,2023-09-22 19:34:34,40.0825690758168,-88.2006604473619,3.28084,,,732.35827015462,0.656168,0,0.51691930788,3.11492464036,28,10,21.0705,732.68635415462,3.608924,1.11847,1.4736056902,0,0,0,188.5, -1, -4.6,0,0,1024,1024,1024,1024,0,0,0,0,0,0,0,48,,,,,,,8.33,77.54,732.35827015462,3.28084,6,P-GPS,
14700,2023-09-22 19:34:34,40.0825690486921,-88.2006604086715,3.28084,,,732.35827015462,0.656168,0,0.50230972736,3.12957359096,28,10,21.0705,732.68635415462,3.608924,1.11847,1.4736056902,0,0,0,188.3, -0.8, -4.7,0,0,1024,1024,1024,1024,0,0,0,0,0,0,0,48,,,,,,,8.33,77.54,732.35827015462,3.28084,6,P-GPS,
14800,2023-09-22 19:34:34,40.0825690348776,-88.200660361865,2.952756,,,732.03018615462,0.656168,0,0.48894686604,3.14357949692,28,10,21.0705,732.68635415462,3.608924,1.11847,1.4736056902,0,0,0,188.1, -0.5, -4.4,0,0,1024,1024,1024,1024,0,0,0,0,0,0,0,48,,,,,,,8.33,77.54,732.03018615462,2.952756,6,P-GPS,
14900,2023-09-22 19:34:34,40.0825690060125,-88.2006603065203,2.952756,,,732.03018615462,0.656168,0,0.470308414,3.16227700408,28,10,21.0705,732.68635415462,3.608924,1.11847,1.4736056902,0,0,0,188, -0.4, -3.9,0,0,1024,1024,1024,1024,0,0,0,0,0,0,0,48,,,,,,,8.33,77.54,732.03018615462,2.952756,6,P-GPS,
15000,2023-09-22 19:34:34,40.0825689809792,-88.2006602508199,2.952756,,,732.03018615462,0.656168,0,0.45248361028,3.18030850072,28,10,21.0705,732.68635415462,3.608924,1.11847,1.4736056902,0,0,0,188, -0.9, -3.8,0,0,1024,1024,1024,1024,0,0,0,0,0,0,0,48,,,,,,,8.33,77.54,732.03018615462,2.952756,6,P-GPS,
15100,2023-09-22 19:34:34,40.0825689517053,-88.2006601904885,2.952756,,,732.03018615462,0.656168,0,0.43269030256,3.20025272708,28,10,21.0705,732.68635415462,3.608924,1.11847,1.4736056902,0,0,0,188, -1, -4.2,0,0,1024,1024,1024,1024,0,0,0,0,0,0,0,48,,,,,,,8.33,77.54,732.03018615462,2.952756,6,P-GPS,
15200,2023-09-22 19:34:34,40.0825689352742,-88.2006601457075,2.952756,,,732.03018615462,0.656168,0,0.41925198192,3.21411755692,28,10,21.0705,732.68635415462,3.608924,1.11847,1.4736056902,0,0,0,187.9, -1, -4.9,0,0,1024,1024,1024,1024,0,0,0,0,0,0,0,48,,,,,,,8.33,77.54,732.03018615462,2.952756,6,P-GPS,
15300,2023-09-22 19:34:34,40.0825689170067,-88.2006600901725,2.952756,,,732.03018615462,0.656168,0,0.40312665332,3.23099091704,28,10,21.0705,732.68635415462,3.608924,1.11847,1.4736056902,0,0,0,187.8, -1.3, -5.1,0,0,1024,1024,1024,1024,0,0,0,0,0,0,0,48,,,,,,,8.33,77.54,732.03018615462,2.952756,6,P-GPS,
15400,2023-09-22 19:34:34,40.0825688937579,-88.2006600115168,2.952756,,,732.03018615462,0.656168,0,0.3810367576,3.25453094404,28,10,21.0395,732.68635415462,3.608924,1.11847,1.4736056902,0,0,0,187.7, -1.3, -4.2,0,0,1024,1024,1024,1024,0,0,0,0,0,0,0,48,,,,,,,8.464,77.54,732.03018615462,2.952756,6,P-GPS,
15500,2023-09-22 19:34:35,40.0825688712343,-88.2006599250834,2.952756,,,732.03018615462,0.656168,0,0.35773623192,3.28001979,28,10,21.0395,732.68635415462,3.608924,1.11847,1.4736056902,0,0,0,187.6, -1.3, -3.2,0,0,1024,1024,1024,1024,0,0,0,0,0,0,0,48,,,,,,,8.464,77.54,732.03018615462,2.952756,6,P-GPS,
15600,2023-09-22 19:34:35,40.0825688584846,-88.2006598643378,2.952756,,,732.03018615462,0.656168,0,0.34234253064,3.2976050924,28,10,21.0395,732.68635415462,3.608924,1.11847,1.4736056902,0,0,0,187.6, -1.2, -2.8,0,0,1024,1024,1024,1024,0,0,0,0,0,0,0,48,,,,,,,8.464,77.54,732.03018615462,2.952756,6,P-GPS,
15700,2023-09-22 19:34:35,40.0825688448763,-88.2006598215881,2.952756,,,732.03018615462,0.656168,0,0.33042323892,3.310531602,28,10,21.0395,732.68635415462,3.608924,1.11847,1.4736056902,0,0,0,187.7, -0.9, -2.9,0,0,1024,1024,1024,1024,0,0,0,0,0,0,0,48,,,,,,,8.464,77.54,732.03018615462,2.952756,6,P-GPS,
15800,2023-09-22 19:34:35,40.0825688383908,-88.2006598011252,2.952756,,,732.03018615462,0.656168,0,0.3247539474,3.3166995812,28,10,21.0395,732.68635415462,3.608924,1.11847,1.4736056902,0,0,0,187.9, -0.9, -3.4,0,0,1024,1024,1024,1024,0,0,0,0,0,0,0,48,,,,,,,8.464,77.54,732.03018615462,2.952756,6,P-GPS,
15900,2023-09-22 19:34:35,40.0825688419109,-88.2006597833969,2.952756,,,732.03018615462,0.656168,0,0.322287739972,3.3218176916,28,10,21.0395,732.68635415462,3.608924,1.11847,1.4736056902,0,0,0,188, -1, -4.1,0,0,1024,1024,1024,1024,0,0,0,0,0,0,0,48,,,,,,,8.464,77.54,732.03018615462,2.952756,6,P-GPS,
16000,2023-09-22 19:34:35,40.0825688515356,-88.2006597597758,2.952756,,,732.03018615462,0.656168,0,0.320441939388,3.3292980068,28,10,21.0395,732.68635415462,3.608924,1.11847,1.4736056902,0,0,0,188, -1.1, -4.5,0,0,1024,1024,1059,1024,0,0,5,0,0,0,0,48,,,,,,,8.464,77.54,732.03018615462,2.952756,6,P-GPS,
16100,2023-09-22 19:34:35,40.0825688596465,-88.2006597177137,2.952756,,,732.03018615462,0.656168,0,0.315023960212,3.3414043064,28,10,21.0395,732.68635415462,3.608924,1.11847,1.4736056902,0,0,0,188.1, -0.9, -4.5,0,0,1024,1024,1186,1024,0,0,25,0,0,0,0,48,,,,,,,8.464,77.54,732.03018615462,2.952756,6,P-GPS,
16200,2023-09-22 19:34:35,40.0825688587483,-88.200659641108,2.952756,,,732.03018615462,0.656168,0,0.301536755056,3.3627953832,28,10,21.0395,732.68635415462,3.608924,1.11847,1.4736056902,0,0,0,188.1, -1, -4.2,0,0,1024,1024,1245,1024,0,0,33,0,0,0,0,48,,,,,,,8.464,77.54,732.03018615462,2.952756,6,P-GPS,
16300,2023-09-22 19:34:35,40.0825688667373,-88.2006595606624,3.28084,,,732.35827015462,0.656168,0,0.29113846076,3.3854331792,28,10,21.0395,732.68635415462,3.608924,1.11847,1.4736056902,0,0,-0.223694,188.1, -1.2, -3.9,0,0,1024,1024,1245,1024,0,0,33,0,0,0,0,48,,,,,,,8.464,77.54,732.35827015462,3.28084,6,P-GPS,
16400,2023-09-22 19:34:35,40.0825688713149,-88.2006594635677,3.28084,,,732.35827015462,0.656168,0,0.278881898688,3.4125985344,28,10,21.0395,732.68635415462,3.608924,1.11847,1.4736056902,0,0,-0.671082,188.1, -1.3, -3.6,0,0,1024,1024,1242,1024,0,0,33,0,0,0,0,48,,,,,,,8.464,77.54,732.35827015462,3.28084,6,P-GPS,
16500,2023-09-22 19:34:36,40.0825688632758,-88.2006593785126,3.28084,,,732.35827015462,0.656168,0,0.265905848404,3.436515858,28,10,21.0395,732.68635415462,3.608924,1.11847,1.4736056902,0,0,-1.11847,188, -1.3, -3.4,0,0,1024,1024,1242,1024,0,0,33,0,0,0,0,48,,,,,,,8.464,77.54,732.35827015462,3.28084,6,P-GPS,
16600,2023-09-22 19:34:36,40.0825688645124,-88.2006593034174,3.608924,,,732.68635415462,0.984252,0,0.258632554208,3.4574804256,28,10,21.0395,732.68635415462,3.608924,1.11847,1.4736056902,0,0,-1.342164,187.9, -1.5, -3.1,0,0,1024,1024,1289,1024,0,0,40,0,0,0,0,48,,,,,,,8.464,77.54,732.68635415462,3.608924,6,P-GPS,
16700,2023-09-22 19:34:36,40.0825688577414,-88.2006592452863,3.937008,,,733.01443815462,0.984252,0,0.251339246888,3.4738846256,28,10,21.0395,733.01443815462,3.937008,1.11847,1.4736056902,0,0,-1.789552,187.8, -1.6, -3.2,0,0,1024,1024,1270,1024,0,0,37,0,0,0,0,48,,,,,,,8.464,77.54,733.01443815462,3.937008,6,P-GPS,
16800,2023-09-22 19:34:36,40.0825688417026,-88.2006591925257,4.265092,,,733.34252215462,0.984252,0,0.241965887008,3.4897310828,28,10,21.0395,733.34252215462,4.265092,1.11847,1.4736056902,0,0,-2.013246,187.6, -1.3, -3.4,0,0,1024,1024,1219,1024,0,0,30,0,0,0,0,48,,,,,,,8.464,77.54,733.34252215462,4.265092,6,P-GPS,
16900,2023-09-22 19:34:36,40.0825688112363,-88.200659150878,4.593176,,,733.67060615462,0.984252,0,0.228675532252,3.5058400072,28,10,21.0395,733.67060615462,4.593176,1.11847,1.4736056902,0,0,-2.23694,187.6, -1.5, -2.9,0,0,1024,1024,1231,1024,0,0,31,0,0,0,0,48,,,,,,,8.464,77.54,733.67060615462,4.593176,6,P-GPS,
17000,2023-09-22 19:34:36,40.082568778786,-88.2006591393161,4.92126,,,733.99869015462,0.656168,0,0.216441607976,3.5181103488,28,10,21.0395,733.99869015462,4.92126,1.11847,1.4736056902,0,0,-2.23694,187.7, -1.7, -2.8,0,0,1024,1024,1220,1024,0,0,30,0,0,0,0,48,,,,,,,8.464,77.54,733.99869015462,4.92126,6,P-GPS,
17100,2023-09-22 19:34:36,40.0825687446832,-88.2006591379907,5.249344,,,734.32677415462,0.656168,0,0.204153877924,3.5305447324,28,10,21.0395,734.32677415462,5.249344,1.11847,1.4736056902,0,0,-2.23694,187.7, -1.5, -3.2,0,0,1024,1024,1137,1024,0,0,17,0,0,0,0,48,,,,,,,8.464,77.54,734.32677415462,5.249344,6,P-GPS,
17200,2023-09-22 19:34:36,40.0825686927507,-88.2006591457405,5.577428,,,734.65485815462,0.656168,0,0.186075465272,3.5496064128,28,10,21.0395,734.65485815462,5.577428,1.11847,1.4736056902,0,0,-2.013246,187.8, -1.4, -3.7,0,0,1024,1024,1024,1024,0,0,0,0,0,0,0,48,,,,,,,8.464,77.54,734.65485815462,5.577428,6,P-GPS,
17300,2023-09-22 19:34:36,40.0825686541675,-88.200659136773,5.577428,,,734.65485815462,0.328084,0,0.171797249592,3.5639108752,28,10,21.0395,734.65485815462,5.577428,1.11847,1.4736056902,0,0,-1.565858,187.8, -1.5, -3.7,0,0,1024,1024,1024,1024,0,0,0,0,0,0,0,48,,,,,,,8.464,77.54,734.65485815462,5.577428,6,P-GPS,
17400,2023-09-22 19:34:36,40.0825686098021,-88.2006591277674,5.905512,,,734.98294215462,0.328084,0,0.155469493164,3.5802822668,28,10,20.9425,734.98294215462,5.905512,1.11847,1.4736056902,0,0,-1.11847,187.8, -1.6, -3.5,0,0,1024,1024,1024,1024,0,0,0,0,0,0,0,48,,,,,,,11.828,77.54,734.98294215462,5.905512,6,P-GPS,
17500,2023-09-22 19:34:37,40.082568587319,-88.2006591157307,6.233596,,,735.31102615462,0.328084,0,0.146710634616,3.5891733432,28,10,20.9425,735.31102615462,6.233596,1.11847,1.4736056902,0,0,-0.894776,187.8, -1.6, -3.1,0,0,1024,1024,1024,1024,0,0,0,0,0,0,0,48,,,,,,,11.828,77.54,735.31102615462,6.233596,6,P-GPS,
17600,2023-09-22 19:34:37,40.0825685970942,-88.2006590944511,6.233596,,,735.31102615462,0,0,0.148978679308,3.5960959156,28,10,20.9425,735.31102615462,6.233596,1.11847,1.4736056902,0,0,-0.447388,187.8, -1.4, -2.8,0,0,1024,1024,1024,1024,0,0,0,0,0,0,0,48,,,,,,,11.828,77.54,735.31102615462,6.233596,6,P-GPS,
17700,2023-09-22 19:34:37,40.0825685839076,-88.2006590956971,6.233596,,,735.31102615462,0,0,0.14431923034,3.6009187504,28,10,20.9425,735.31102615462,6.233596,1.11847,1.4736056902,0,0,-0.223694,187.7, -0.8, -3,0,0,1024,1024,1024,1024,0,0,0,0,0,0,0,48,,,,,,,11.828,77.54,735.31102615462,6.233596,6,P-GPS,
17800,2023-09-22 19:34:37,40.0825685701378,-88.2006591045285,6.233596,,,735.31102615462,0,0,0.139904532036,3.6064961784,28,10,20.9425,735.31102615462,6.233596,1.11847,1.4736056902,0,0,0,187.7, -0.3, -3.5,0,0,1024,1024,1024,1024,0,0,0,0,0,0,0,48,,,,,,,11.828,77.54,735.31102615462,6.233596,6,P-GPS,
17900,2023-09-22 19:34:37,40.0825685605201,-88.2006591201926,6.233596,,,735.31102615462,0,0,0.137515752432,3.6121064148,28,10,20.9425,735.31102615462,6.233596,1.11847,1.4736056902,0,0,0,187.7, -0.3, -3.9,0,0,1024,1024,1024,1024,0,0,0,0,0,0,0,48,,,,,,,11.828,77.54,735.31102615462,6.233596,6,P-GPS,
18000,2023-09-22 19:34:37,40.082568554352,-88.2006591375159,6.233596,,,735.31102615462,0,0,0.136655844268,3.617454184,28,10,20.9425,735.31102615462,6.233596,1.11847,1.4736056902,0,0,0,187.7, -0.5, -3.9,0,0,1024,1024,1024,1024,0,0,0,0,0,0,0,48,,,,,,,11.828,77.54,735.31102615462,6.233596,6,P-GPS,
18100,2023-09-22 19:34:37,40.0825685487518,-88.2006591465589,6.233596,,,735.31102615462,0,0,0.135461618508,3.6207022156,28,10,20.9425,735.31102615462,6.233596,1.11847,1.4736056902,0,0,0,187.8, -0.7, -4,0,0,1024,1024,1024,1024,0,0,0,0,0,0,0,48,,,,,,,11.828,77.54,735.31102615462,6.233596,6,P-GPS,
18200,2023-09-22 19:34:37,40.0825685440532,-88.2006591458255,6.233596,,,735.31102615462,0.328084,0,0.133768705068,3.6224410608,28,10,20.9425,735.31102615462,6.233596,1.11847,1.4736056902,0,0,0,187.8, -0.8, -4.3,0,0,1024,1024,1024,1024,0,0,0,0,0,0,0,48,,,,,,,11.828,77.54,735.31102615462,6.233596,6,P-GPS,
18300,2023-09-22 19:34:37,40.0825685258405,-88.200659138576,6.233596,,,735.31102615462,0.328084,0,0.12682415104,3.6293636332,28,10,20.9425,735.31102615462,6.233596,1.11847,1.4736056902,0,0,0,187.9, -1.1, -4.1,0,0,1024,1024,1024,1024,0,0,0,0,0,0,0,48,,,,,,,11.828,77.54,735.31102615462,6.233596,6,P-GPS,
18400,2023-09-22 19:34:37,40.082568535401,-88.2006591059,6.233596,,,735.31102615462,0.328084,0,0.127651250804,3.6391405364,28,10,21.1065,735.31102615462,6.233596,1.11847,1.4736056902,0,0,0,187.9, -1.1, -3.4,0,0,1024,1024,1024,1024,0,0,0,0,0,0,0,48,,,,,,,8.66,77.54,735.31102615462,6.233596,6,P-GPS,
18500,2023-09-22 19:34:38,40.0825685483727,-88.2006590751723,6.233596,,,735.31102615462,0.328084,0,0.13053150024,3.648950248,28,10,21.1065,735.31102615462,6.233596,1.11847,1.4736056902,0,0,0,187.9, -0.6, -2.9,0,0,1024,1024,1024,1024,0,0,0,0,0,0,0,48,,,,,,,8.66,77.54,735.31102615462,6.233596,6,P-GPS,
18600,2023-09-22 19:34:38,40.0825685504421,-88.2006590614535,6.233596,,,735.31102615462,0.328084,0,0.130687012056,3.6528544476,28,10,21.1065,735.31102615462,6.233596,1.11847,1.4736056902,0,0,0,187.8, -0.5, -2.9,0,0,1024,1024,1024,1024,0,0,0,0,0,0,0,48,,,,,,,8.66,77.54,735.31102615462,6.233596,6,P-GPS,
18700,2023-09-22 19:34:38,40.082568583612,-88.2006590364168,6.233596,,,735.31102615462,0.328084,0,0.141958009792,3.6667980176,28,10,21.1065,735.31102615462,6.233596,1.11847,1.4736056902,0,0,0,187.8, -0.8, -2.7,0,0,1024,1024,1024,1024,0,0,0,0,0,0,0,48,,,,,,,8.66,77.54,735.31102615462,6.233596,6,P-GPS,
18800,2023-09-22 19:34:38,40.0825686260056,-88.2006590157954,6.233596,,,735.31102615462,0.328084,0,0.157075792428,3.6833334512,28,10,21.1065,735.31102615462,6.233596,1.11847,1.4736056902,0,0,0,187.8, -1.4, -2.2,0,0,1024,1024,1024,1024,0,0,0,0,0,0,0,48,,,,,,,8.66,77.54,735.31102615462,6.233596,6,P-GPS,
18900,2023-09-22 19:34:38,40.0825686620979,-88.2006590103454,6.233596,,,735.31102615462,0.328084,0,0.170194559252,3.6965880448,28,10,21.1065,735.31102615462,6.233596,1.11847,1.4736056902,0,0,0,187.9, -1.6, -2.1,0,0,1024,1024,1024,1024,0,0,0,0,0,0,0,48,,,,,,,8.66,77.54,735.31102615462,6.233596,6,P-GPS,
19000,2023-09-22 19:34:38,40.0825686625923,-88.2006590184553,6.233596,,,735.31102615462,0.328084,0,0.170442262672,3.6988518244,28,10,21.1065,735.31102615462,6.233596,1.11847,1.4736056902,0,0,0,188, -1.5, -2.5,0,0,1024,1024,1024,1024,0,0,0,0,0,0,0,48,,,,,,,8.66,77.54,735.31102615462,6.233596,6,P-GPS,
19100,2023-09-22 19:34:38,40.0825686849614,-88.2006590431733,6.233596,,,735.31102615462,0.328084,0,0.17897146242,3.7095473628,28,10,21.1065,735.31102615462,6.233596,1.11847,1.4736056902,0,0,0,188.1, -1.4, -2.9,0,0,1024,1024,1024,1024,0,0,0,0,0,0,0,48,,,,,,,8.66,77.54,735.31102615462,6.233596,6,P-GPS,
19200,2023-09-22 19:34:38,40.0825687041654,-88.2006590742559,6.233596,,,735.31102615462,0.328084,0,0.186772643772,3.7206694104,28,10,21.1065,735.31102615462,6.233596,1.11847,1.4736056902,0,0,0,188.1, -1.4, -3.3,0,0,1024,1024,1024,1024,0,0,0,0,0,0,0,48,,,,,,,8.66,77.54,735.31102615462,6.233596,6,P-GPS,
19300,2023-09-22 19:34:38,40.0825687127699,-88.200659106969,6.233596,,,735.31102615462,0.328084,0,0.191154205592,3.7303478884,28,10,21.1065,735.31102615462,6.233596,1.11847,1.4736056902,0,0,0,188.1, -1.2, -3.6,0,0,1024,1024,1024,1024,0,0,0,0,0,0,0,48,,,,,,,8.66,77.54,735.31102615462,6.233596,6,P-GPS,
19400,2023-09-22 19:34:38,40.0825687043557,-88.2006591385099,6.233596,,,735.31102615462,0.328084,0,0.189771331532,3.739665474,28,10,21.1065,735.31102615462,6.233596,1.11847,1.4736056902,0,0,0,188.1, -0.9, -3.5,0,0,1024,1024,1024,1024,0,0,0,0,0,0,0,48,,,,,,,8.66,77.54,735.31102615462,6.233596,6,P-GPS,
19500,2023-09-22 19:34:39,40.0825687053457,-88.2006591577779,6.233596,,,735.31102615462,0.328084,0,0.191320872264,3.7450460516,28,10,21.029,735.31102615462,6.233596,1.11847,1.4736056902,0,0,0,188.1, -0.7, -3.3,0,0,1024,1024,1024,1024,0,0,0,0,0,0,0,48,,,,,,,8.748,77.72,735.31102615462,6.233596,6,P-GPS,
