time(millisecond),datetime(utc),latitude,longitude,height_above_takeoff(feet),height_above_ground_at_drone_location(feet),ground_elevation_at_drone_location(feet),altitude_above_seaLevel(feet),height_sonar(feet),speed(mph),distance(feet),mileage(feet),satellites,gpslevel,voltage(v),max_altitude(feet),max_ascent(feet),max_speed(mph),max_distance(feet), xSpeed(mph), ySpeed(mph), zSpeed(mph), compass_heading(degrees), pitch(degrees), roll(degrees),isPhoto,isVideo,rc_elevator,rc_aileron,rc_throttle,rc_rudder,rc_elevator(percent),rc_aileron(percent),rc_throttle(percent),rc_rudder(percent),gimbal_heading(degrees),gimbal_pitch(degrees),gimbal_roll(degrees),battery_percent,voltageCell1,voltageCell2,voltageCell3,voltageCell4,voltageCell5,voltageCell6,current(A),battery_temperature(f),altitude(feet),ascent(feet),flycStateRaw,flycState,message
284300,2023-10-10 22:02:47,40.0688851265075,-88.2096436146481,0,Available with any HD 360 subscription,Available with any HD 360 subscription,706.45372142542,0.656168,0,0,0,22,10,0,706.45372142542,0,0,0,0,0,0,179.6, -0.9, -1.1,0,0,1024,1024,1024,1024,0,0,0,0,0,0,0,71,,,,,,,0,88.34,706.45372142542,0,41,Motors_Started,"GEO: You are in a Warning Zone (Airport). Fly with caution."
284400,2023-10-10 22:02:47,40.0688851287159,-88.2096436137078,0,,,706.45372142542,0.656168,0,0.00084741144444,0.00084741144444,22,10,0,706.45372142542,0,0,0.00084741144444,0,0,0,179.6, -0.9, -1.1,0,0,1024,1024,1024,1024,0,0,0,0,0,0,0,71,,,,,,,0,88.34,706.45372142542,0,41,Motors_Started,
284500,2023-10-10 22:02:47,40.0688851324417,-88.2096436073717,0,,,706.45372142542,0.656168,0,0.0029690289664,0.00307845154208,22,10,0,706.45372142542,0,0,0.0029690289664,0,0,0,179.6, -0.9, -1.1,0,0,1024,1024,1024,1024,0,0,0,0,0,0,0,71,,,,,,,0,88.34,706.45372142542,0,41,Motors_Started,
284600,2023-10-10 22:02:47,40.0688851424721,-88.2096436065881,0,,,706.45372142542,0.656168,0,0.0062442915384,0.0067445540216,22,10,0,706.45372142542,0,0,0.0062442915384,0,0,0,179.6, -0.9, -1.1,0,0,1024,1024,1024,1024,0,0,0,0,0,0,0,71,,,,,,,0,88.34,706.45372142542,0,41,Motors_Started,
284700,2023-10-10 22:02:47,40.0688851495038,-88.2096436055806,0,,,706.45372142542,0.656168,0,0.0087638126164,0.0093254268076,22,10,0,706.45372142542,0,0,0.0087638126164,0,0,0,179.6, -0.9, -1.1,0,0,1024,1024,1024,1024,0,0,0,0,0,0,0,71,,,,,,,0,88.34,706.45372142542,0,41,Motors_Started,
284800,2023-10-10 22:02:47,40.0688851553448,-88.2096436036104,0,,,706.45372142542,0.656168,0,0.0109633205608,0.0115263783216,22,10,0,706.45372142542,0,0,0.0109633205608,0,0,0,179.6, -0.9, -1,0,0,1024,1024,1024,1024,0,0,0,0,0,0,0,71,,,,,,,0,88.34,706.45372142542,0,41,Motors_Started,
284900,2023-10-10 22:02:48,40.0688851550616,-88.2096435971848,0,,,706.45372142542,0.656168,0,0.0115024938064,0.0133234584316,22,10,0,706.45372142542,0,0,0.0115024938064,0,0,0,179.6, -0.9, -1.1,0,0,1024,1024,1024,1024,0,0,0,0,0,0,0,71,,,,,,,0,88.34,706.45372142542,0,41,Motors_Started,
285000,2023-10-10 22:02:48,40.0688851557349,-88.2096435945205,0,,,706.45372142542,0.656168,0,0.01205380616,0.0141068574068,22,10,0,706.45372142542,0,0,0.01205380616,0,0,0,179.6, -0.8, -1,0,0,1024,1024,1024,1024,0,0,0,0,0,0,0,71,,,,,,,0,88.34,706.45372142542,0,41,Motors_Started,
285100,2023-10-10 22:02:48,40.0688851551024,-88.209643603991,0,,,706.45372142542,0.656168,0,0.0108488520532,0.0167611225836,22,10,0,706.45372142542,0,0,0.01205380616,0,0,0,179.6, -0.9, -1.1,0,0,1024,1024,1024,1024,0,0,0,0,0,0,0,71,,,,,,,0,88.34,706.45372142542,0,41,Motors_Started,
285200,2023-10-10 22:02:48,40.0688851574337,-88.2096436118495,0,,,706.45372142542,0.656168,0,0.0113104006244,0.0191143706904,22,10,0,706.45372142542,0,0,0.01205380616,0,0,0,179.6, -0.9, -1.1,0,0,1024,1024,1024,1024,0,0,0,0,0,0,0,71,,,,,,,0,88.34,706.45372142542,0,41,Motors_Started,"Home Point recorded. Return-to-Home Altitude:100.0 m"
285300,2023-10-10 22:02:48,40.068885151601,-88.2096436285963,0,,,706.45372142542,0.656168,0,0.0099492457252,0.0242517068128,22,10,0,706.45372142542,0,0,0.01205380616,0,0,0,179.6, -0.9, -1.1,0,0,1024,1024,1024,1024,0,0,0,0,0,0,0,71,,,,,,,0,88.34,706.45372142542,0,41,Motors_Started,
285400,2023-10-10 22:02:48,40.0688851459274,-88.2096436282605,0,,,706.45372142542,0.656168,0,0.008040354588,0.02632381974,22,10,0,706.45372142542,0,0,0.01205380616,0,0,0,179.5, -1, -1.1,0,0,1024,1024,1024,1024,0,0,0,0,0,0,0,71,,,,,,,0,88.34,706.45372142542,0,41,Motors_Started,
285500,2023-10-10 22:02:48,40.0688851453256,-88.2096436308352,0,,,706.45372142542,0.656168,0,0.008219816536,0.0270754929924,22,10,0,706.45372142542,0,0,0.01205380616,0,0,0,179.5, -1, -1,0,0,1024,1024,1024,1024,0,0,0,0,0,0,0,71,,,,,,,0,88.34,706.45372142542,0,41,Motors_Started,
285600,2023-10-10 22:02:48,40.0688851450437,-88.2096436319099,0,,,706.45372142542,0.656168,0,0.0083045606332,0.0273926846036,22,10,0,706.45372142542,0,0,0.01205380616,0,0,0,179.7, -1, -1.1,0,0,1024,1024,1024,1024,0,0,0,0,0,0,0,71,,,,,,,0,88.34,706.45372142542,0,41,Motors_Started,
285700,2023-10-10 22:02:48,40.0688851347367,-88.2096436433505,0,,,706.45372142542,0.656168,0,0.0085579399064,0.032326772688,22,10,0,706.45372142542,0,0,0.01205380616,0,0,0,179.7, -1, -1.1,0,0,1024,1024,1024,1024,0,0,0,0,0,0,0,71,,,,,,,0,88.34,706.45372142542,0,41,Motors_Started,
285800,2023-10-10 22:02:48,40.0688851342084,-88.2096436445595,0,,,706.45372142542,0.656168,0,0.0088114832216,0.0327154866112,22,10,22.8405,706.45372142542,0,0,0.01205380616,0,0,0,179.7, -0.9, -1.1,0,0,1024,1024,1024,1024,0,0,0,0,0,0,0,70,,,,,,,2.588,88.34,706.45372142542,0,41,Motors_Started,
285900,2023-10-10 22:02:49,40.0688851331741,-88.2096436439774,0,,,706.45372142542,0.656168,0,0.0085425855752,0.033126313396,22,10,22.8405,706.45372142542,0,0,0.01205380616,0,0,0,179.7, -0.9, -1.1,0,0,1024,1024,1024,1024,0,0,0,0,0,0,0,70,,,,,,,2.588,88.34,706.45372142542,0,41,Motors_Started,
286000,2023-10-10 22:02:49,40.0688851209624,-88.2096436438207,0,,,706.45372142542,0.656168,0,0.0083927496124,0.0375820222,22,10,22.8405,706.45372142542,0,0,0.01205380616,0,0,0,179.7, -1, -1.1,0,0,1024,1024,1024,1024,0,0,0,0,0,0,0,70,,,,,,,2.588,88.34,706.45372142542,0,41,Motors_Started,
286100,2023-10-10 22:02:49,40.0688851137172,-88.209643629156,0,,,706.45372142542,0.656168,0,0.0061793965232,0.04245571002,22,10,22.8405,706.45372142542,0,0,0.01205380616,0,0,0,179.7, -0.9, -1.1,0,0,1024,1024,1024,1024,0,0,0,0,0,0,0,70,,,,,,,2.588,88.34,706.45372142542,0,41,Motors_Started,
286200,2023-10-10 22:02:49,40.0688851060204,-88.2096436165287,0,,,706.45372142542,0.656168,0,0.0074931432844,0.046962928012,22,10,22.8405,706.45372142542,0,0,0.01205380616,0,0,0,179.7, -1, -1.1,0,0,1024,1024,1024,1024,0,0,0,0,0,0,0,71,,,,,,,2.588,88.34,706.45372142542,0,41,Motors_Started,
286300,2023-10-10 22:02:49,40.0688851012728,-88.2096436009461,0,,,706.45372142542,0.656168,0,0.0099700790592,0.051645999028,22,10,22.8405,706.45372142542,0,0,0.01205380616,0,0,0,179.7, -1, -1,0,0,1024,1024,1024,1024,0,0,0,0,0,0,0,71,,,,,,,2.588,88.34,706.45372142542,0,41,Motors_Started,
286400,2023-10-10 22:02:49,40.068885097768,-88.2096435793409,0,,,706.45372142542,0.656168,0,0.0143919952112,0.057812337808,22,10,22.8405,706.45372142542,0,0,0.0143919952112,0,0,0,179.7, -0.9, -1.1,0,0,1024,1024,1024,1024,0,0,0,0,0,0,0,71,,,,,,,2.588,88.34,706.45372142542,0,11,AutoTakeoff,
286500,2023-10-10 22:02:49,40.0688850998442,-88.2096435704302,0,,,706.45372142542,0.656168,0,0.0157181435476,0.060413059676,22,10,22.8405,706.45372142542,0,0,0.0157181435476,0,0,0,179.7, -0.9, -1.1,0,0,1024,1024,1024,1024,0,0,0,0,0,0,0,71,,,,,,,2.588,88.34,706.45372142542,0,11,AutoTakeoff,
286600,2023-10-10 22:02:49,40.0688851007851,-88.2096435593701,0,,,706.45372142542,0.656168,0,0.0180633864048,0.063520015156,22,10,22.8405,706.45372142542,0,0,0.0180633864048,0,0,0,179.7, -0.9, -1.1,0,0,1024,1024,1024,1024,0,0,0,0,0,0,0,71,,,,,,,2.588,88.34,706.45372142542,0,11,AutoTakeoff,
286700,2023-10-10 22:02:49,40.0688851131146,-88.2096435547133,0,,,706.45372142542,0.656168,0,0.0174331370408,0.068202758088,22,10,22.8405,706.45372142542,0,0,0.0180633864048,0,0,0,179.7, -0.9, -1,0,0,1024,1024,1024,1024,0,0,0,0,0,0,0,71,,,,,,,2.588,88.34,706.45372142542,0,11,AutoTakeoff,
286800,2023-10-10 22:02:49,40.0688851169172,-88.2096435428024,0,,,706.45372142542,0.656168,0,0.0203628287356,0.07180610466,22,10,22.8005,706.45372142542,0,0,0.0203628287356,0,0,0,179.7, -0.9, -1,0,0,1024,1024,1024,1024,0,0,0,0,0,0,0,70,,,,,,,3.411,88.34,706.45372142542,0,11,AutoTakeoff,
286900,2023-10-10 22:02:50,40.0688851222375,-88.2096435405187,0,,,706.45372142542,0.656168,0,0.0207561030264,0.073849411812,22,10,22.8005,706.45372142542,0,0,0.0207561030264,0,0,0,179.7, -0.8, -1,0,0,1024,1024,1024,1024,0,0,0,0,0,0,0,70,,,,,,,3.411,88.34,706.45372142542,0,11,AutoTakeoff,
287000,2023-10-10 22:02:50,40.0688851296173,-88.2096435450413,0,,,706.45372142542,0.656168,0,0.0194679140088,0.076823165188,22,10,22.8005,706.45372142542,0,0,0.0207561030264,0,0,0,179.7, -0.7, -1,0,0,1024,1024,1024,1024,0,0,0,0,0,0,0,70,,,,,,,3.411,88.34,706.45372142542,0,11,AutoTakeoff,
287100,2023-10-10 22:02:50,40.0688851374066,-88.2096435845799,0,,,706.45372142542,0.656168,0,0.0092894359928,0.088222771852,22,10,22.8005,706.45372142542,0,0,0.0207561030264,0,0,0,179.7, -0.2, -0.8,0,0,1024,1024,1024,1024,0,0,0,0,0,0,0,70,,,,,,,3.411,88.34,706.45372142542,0,11,AutoTakeoff,
287200,2023-10-10 22:02:50,40.0688851598979,-88.209643597252,0,,,706.45372142542,0.656168,0,0.0131150266664,0.09715879576,22,10,22.8005,706.45372142542,0,0,0.0207561030264,0,0,0,179.7, 1, -0.3,0,0,1024,1024,1024,1024,0,0,0,0,0,0,0,71,,,,,,,3.411,88.34,706.45372142542,0,11,AutoTakeoff,
287300,2023-10-10 22:02:50,40.0688852101967,-88.2096435965132,0,,,706.45372142542,0.656168,0,0.0309509196256,0.115511486636,22,10,22.8005,706.45372142542,0,0,0.0309509196256,0,0,-0.223694,179.7, 2.7, 0.8,0,0,1024,1024,1024,1024,0,0,0,0,0,0,0,71,,,,,,,3.411,88.34,706.45372142542,0,11,AutoTakeoff,
287400,2023-10-10 22:02:50,40.0688853004407,-88.2096436172452,0,,,706.45372142542,0.656168,0.223694,0.063463584708,0.1489419339,22,10,22.8005,706.45372142542,0,0.223694,0.063463584708,0.223694,0,-0.671082,179.7, 3.2, 1.5,0,0,1024,1024,1024,1024,0,0,0,0,0,0,0,71,,,,,,,3.411,88.34,706.45372142542,0,11,AutoTakeoff,
287500,2023-10-10 22:02:50,40.0688854615248,-88.2096436354025,0,,,706.45372142542,0.656168,0.223694,0.122368114152,0.207931765184,22,10,22.8005,706.45372142542,0,0.223694,0.122368114152,0.223694,0,-1.11847,179.6, 1.8, 1.9,0,0,1024,1024,1024,1024,0,0,0,0,0,0,0,71,,,,,,,3.411,88.34,706.45372142542,0,11,AutoTakeoff,
287600,2023-10-10 22:02:50,40.0688856505341,-88.2096436833593,0.328084,,,706.78180542542,0.984252,0.447388,0.192150924784,0.278179470844,22,10,22.8005,706.78180542542,0.328084,0.447388,0.192150924784,0.447388,0,-1.11847,179.6, -0.3, 0.9,0,0,1024,1024,1024,1024,0,0,0,0,0,0,0,71,,,,,,,3.411,88.34,706.78180542542,0.328084,11,AutoTakeoff,
287700,2023-10-10 22:02:50,40.0688858505577,-88.2096437336446,0.656168,,,707.10988942542,1.312336,0.447388,0.266250336604,0.35249673044,22,10,22.8005,707.10988942542,0.656168,0.447388,0.266250336604,0.447388,0,-1.342164,179.6, -2.3, -0.3,0,0,1024,1024,1024,1024,0,0,0,0,0,0,0,71,,,,,,,3.411,88.34,707.10988942542,0.656168,11,AutoTakeoff,
287800,2023-10-10 22:02:50,40.0688859943925,-88.2096437397344,0.656168,,,707.10988942542,1.64042,0.223694,0.318567595496,0.4050032938,22,10,22.6265,707.10988942542,0.656168,0.447388,0.318567595496,0.223694,0,-1.565858,179.7, -3.5, -1.1,0,0,1024,1024,1024,1024,0,0,0,0,0,0,0,70,,,,,,,10.797,88.34,707.10988942542,0.656168,11,AutoTakeoff,
287900,2023-10-10 22:02:51,40.0688861080192,-88.209643717368,0.984252,,,707.43797342542,1.968504,0,0.35925198,0.44692586732,22,10,22.6265,707.43797342542,0.984252,0.447388,0.35925198,0,0,-1.342164,179.7, -3.5, -0.9,0,0,1024,1024,1024,1024,0,0,0,0,0,0,0,70,,,,,,,10.797,88.34,707.43797342542,0.984252,11,AutoTakeoff,
288000,2023-10-10 22:02:51,40.0688861638825,-88.2096436476045,1.312336,,,707.76605742542,1.968504,0,0.37859909348,0.47511812544,22,10,22.6265,707.76605742542,1.312336,0.447388,0.37859909348,0,0,-1.342164,179.8, -2.6, -0.2,0,0,1024,1024,1024,1024,0,0,0,0,0,0,0,70,,,,,,,10.797,88.34,707.76605742542,1.312336,11,AutoTakeoff,
288100,2023-10-10 22:02:51,40.0688861608509,-88.2096434896738,1.312336,,,707.76605742542,2.296588,0.223694,0.37898951344,0.51922901924,22,10,22.6265,707.76605742542,1.312336,0.447388,0.37898951344,0,0.223694,-1.342164,179.9, -1.5, 0.8,0,0,1024,1024,1024,1024,0,0,0,0,0,0,0,70,,,,,,,10.797,88.34,707.76605742542,1.312336,11,AutoTakeoff,
288200,2023-10-10 22:02:51,40.0688861459965,-88.2096433447958,1.64042,,,708.09414142542,2.624672,0.223694,0.37951444784,0.560039388,22,10,22.6265,708.09414142542,1.64042,0.447388,0.37951444784,0,0.223694,-1.11847,179.9, -0.5, 1.5,0,0,1024,1024,1024,1024,0,0,0,0,0,0,0,71,,,,,,,10.797,88.34,708.09414142542,1.64042,11,AutoTakeoff,
288300,2023-10-10 22:02:51,40.0688861397658,-88.2096431978581,1.64042,,,708.09414142542,2.624672,0.223694,0.38756891004,0.60112862816,22,10,22.6265,708.09414142542,1.64042,0.447388,0.38756891004,0,0.223694,-1.11847,179.8, 0.1, 1.6,0,0,1024,1024,1024,1024,0,0,0,0,0,0,0,71,,,,,,,10.797,88.34,708.09414142542,1.64042,11,AutoTakeoff,
288400,2023-10-10 22:02:51,40.0688861419536,-88.2096430600326,1.968504,,,708.42222542542,2.952756,0.223694,0.40154528844,0.63961944304,22,10,22.6265,708.42222542542,1.968504,0.447388,0.40154528844,0,0.223694,-1.11847,179.6, 0, 2,0,0,1024,1024,1024,1024,0,0,0,0,0,0,0,71,,,,,,,10.797,88.34,708.42222542542,1.968504,11,AutoTakeoff,
288500,2023-10-10 22:02:51,40.0688861518545,-88.2096429105649,1.968504,,,708.42222542542,2.952756,0.223694,0.4226050004,0.68150920816,22,10,22.6265,708.42222542542,1.968504,0.447388,0.4226050004,0,0.223694,-1.11847,179.4, -0.7, 2.2,0,0,1024,1024,1024,1024,0,0,0,0,0,0,0,71,,,,,,,10.797,88.34,708.42222542542,1.968504,11,AutoTakeoff,
288600,2023-10-10 22:02:51,40.0688861603781,-88.2096428012627,2.296588,,,708.75030942542,2.952756,0.223694,0.44029857052,0.71218506216,22,10,22.6265,708.75030942542,2.296588,0.447388,0.44029857052,0,0,-1.11847,179.2, -1.2, 2.4,0,0,1024,1024,1024,1024,0,0,0,0,0,0,0,71,,,,,,,10.797,88.34,708.75030942542,2.296588,11,AutoTakeoff,
288700,2023-10-10 22:02:51,40.0688861751751,-88.2096427205063,2.624672,,,709.07839342542,3.28084,0,0.45685040832,0.73537075844,22,10,22.6265,709.07839342542,2.624672,0.447388,0.45685040832,0,0,-0.894776,179.2, -1.1, 2.3,0,0,1024,1024,1024,1024,0,0,0,0,0,0,0,71,,,,,,,10.797,88.34,709.07839342542,2.624672,11,AutoTakeoff,
288800,2023-10-10 22:02:51,40.0688861861142,-88.2096426491979,2.624672,,,709.07839342542,3.28084,0,0.47129594684,0.7556758772,22,10,22.6195,709.07839342542,2.624672,0.447388,0.47129594684,0,0,-0.894776,179.1, -0.7, 2.3,0,0,1024,1024,1024,1024,0,0,0,0,0,0,0,70,,,,,,,8.585,88.34,709.07839342542,2.624672,11,AutoTakeoff,
288900,2023-10-10 22:02:52,40.0688861867873,-88.2096425885466,2.624672,,,709.07839342542,3.608924,0,0.481381249,0.77261157328,22,10,22.6195,709.07839342542,2.624672,0.447388,0.481381249,0,0,-0.894776,179.1, -0.4, 1.7,0,0,1024,1024,1024,1024,0,0,0,0,0,0,0,70,,,,,,,8.585,88.34,709.07839342542,2.624672,14,Waypoint,
289000,2023-10-10 22:02:52,40.0688861932861,-88.209642523328,2.952756,,,709.40647742542,3.608924,0,0.49430119692,0.7909777156,22,10,22.6195,709.40647742542,2.952756,0.447388,0.49430119692,0,0,-0.894776,179, 0.2, 0.4,0,0,1024,1024,1024,1024,0,0,0,0,0,0,0,70,,,,,,,8.585,88.34,709.40647742542,2.952756,14,Waypoint,
289100,2023-10-10 22:02:52,40.0688861959772,-88.2096424052495,2.952756,,,709.40647742542,3.608924,0.223694,0.51602035772,0.82396000012,22,10,22.6195,709.40647742542,2.952756,0.447388,0.51602035772,0,0.223694,-0.671082,179.1, 0, 0.8,0,0,1024,1024,1024,1024,0,0,0,0,0,0,0,70,,,,,,,8.585,88.34,709.40647742542,2.952756,14,Waypoint,
289200,2023-10-10 22:02:52,40.0688862286311,-88.2096422850439,3.28084,,,709.73456142542,3.937008,0.223694,0.54727363956,0.85957351832,22,10,22.6195,709.73456142542,3.28084,0.447388,0.54727363956,0,0.223694,-0.447388,179, -0.1, 1.8,0,0,1024,1024,1024,1024,0,0,0,0,0,0,0,71,,,,,,,8.585,88.34,709.73456142542,3.28084,14,Waypoint,
289300,2023-10-10 22:02:52,40.0688862327368,-88.2096421614129,3.28084,,,709.73456142542,3.937008,0.223694,0.57230644876,0.89412404436,22,10,22.6195,709.73456142542,3.28084,0.447388,0.57230644876,0,0,-0.447388,179.1, -0.4, 2.1,0,0,1024,1024,1024,1024,0,0,0,0,0,0,0,71,,,,,,,8.585,88.34,709.73456142542,3.28084,14,Waypoint,
289400,2023-10-10 22:02:52,40.0688862314195,-88.2096420688352,3.28084,,,709.73456142542,3.937008,0,0.59058728924,0.91997706356,22,10,22.6195,709.73456142542,3.28084,0.447388,0.59058728924,0,0,-0.447388,179.3, -0.6, 2,0,0,1024,1024,1024,1024,0,0,0,0,0,0,0,71,,,,,,,8.585,88.34,709.73456142542,3.28084,14,Waypoint,
289500,2023-10-10 22:02:52,40.0688862292968,-88.2096420302593,3.28084,,,709.73456142542,3.937008,0,0.5979823026,0.93077758884,22,10,22.6195,709.73456142542,3.28084,0.447388,0.5979823026,0,0,-0.447388,179.4, -0.7, 1.4,0,0,1024,1024,1024,1024,0,0,0,0,0,0,0,71,,,,,,,8.585,88.34,709.73456142542,3.28084,14,Waypoint,
289600,2023-10-10 22:02:52,40.0688862073765,-88.2096419963178,3.608924,,,710.06264542542,3.937008,0,0.599737552,0.9431758832,22,10,22.6195,710.06264542542,3.608924,0.447388,0.599737552,0,0,-0.671082,179.5, -0.5, 0.9,0,0,1024,1024,1024,1024,0,0,0,0,0,0,0,71,,,,,,,8.585,88.34,710.06264542542,3.608924,14,Waypoint,
289700,2023-10-10 22:02:52,40.068886144745,-88.2096419443758,3.608924,,,710.06264542542,4.265092,0,0.59624017656,0.9702428132,22,10,22.6195,710.06264542542,3.608924,0.447388,0.599737552,0,0,-1.11847,179.5, 0.1, 0.8,0,0,1024,1024,1024,1024,0,0,0,0,0,0,0,71,,,,,,,8.585,88.34,710.06264542542,3.608924,14,Waypoint,
289800,2023-10-10 22:02:52,40.0688860915038,-88.2096418949413,3.937008,,,710.39072942542,4.593176,0,0.5954068432,0.99407155412,22,10,22.6195,710.39072942542,3.937008,0.447388,0.599737552,0,0,-1.342164,179.6, 0.6, 0.8,0,0,1024,1024,1024,1024,0,0,0,0,0,0,0,71,,,,,,,8.585,88.34,710.39072942542,3.937008,14,Waypoint,
289900,2023-10-10 22:02:53,40.0688861011442,-88.2096419110389,4.265092,,,710.71881342542,4.593176,0,0.59388781428,0.99977693488,22,10,22.6195,710.71881342542,4.265092,0.447388,0.599737552,0,0,-2.013246,179.6, 0.8, 0.9,0,0,1024,1024,1024,1024,0,0,0,0,0,0,0,71,,,,,,,8.585,88.34,710.71881342542,4.265092,14,Waypoint,
290000,2023-10-10 22:02:53,40.0688860987917,-88.2096418892321,4.593176,,,711.04689742542,4.92126,0,0.59826773568,1.00592850988,22,10,22.6195,711.04689742542,4.593176,0.447388,0.599737552,0,0,-2.460634,179.5, 0.6, 1,0,0,1024,1024,1024,1024,0,0,0,0,0,0,0,71,,,,,,,8.585,88.34,711.04689742542,4.593176,14,Waypoint,
290100,2023-10-10 22:02:53,40.0688860302804,-88.2096418288271,4.92126,,,711.37498142542,5.249344,0,0.5977854522,1.03608271032,22,10,22.6195,711.37498142542,4.92126,0.447388,0.599737552,0,0,-3.131716,179.5, 0.3, 0.9,0,0,1024,1024,1024,1024,0,0,0,0,0,0,0,71,,,,,,,8.585,88.34,711.37498142542,4.92126,14,Waypoint,
290200,2023-10-10 22:02:53,40.0688859199635,-88.2096418084757,5.249344,,,711.70306542542,5.905512,0,0.58148295824,1.07672903708,22,10,22.6195,711.70306542542,5.249344,0.447388,0.599737552,0,0,-3.802798,179.2, 0.4, 0.8,0,0,1024,1024,1024,1024,0,0,0,0,0,0,0,70,,,,,,,8.585,88.34,711.70306542542,5.249344,14,Waypoint,
290300,2023-10-10 22:02:53,40.0688859076994,-88.209641753153,5.905512,,,712.35923342542,6.56168,0,0.592765767,1.09281171476,22,10,22.6195,712.35923342542,5.905512,0.447388,0.599737552,0,0,-4.697574,178.9, 0.2, 0.4,0,0,1024,1024,1024,1024,0,0,0,0,0,0,0,70,,,,,,,8.585,88.34,712.35923342542,5.905512,14,Waypoint,
290400,2023-10-10 22:02:53,40.0688858993677,-88.2096416628813,6.889764,,,713.34348542542,6.889764,0.223694,0.6135826968,1.11819885468,22,10,22.6195,713.34348542542,6.889764,0.447388,0.6135826968,0,0.223694,-5.368656,178.7, -0.2, 0.6,0,0,1024,1024,1024,1024,0,0,0,0,0,0,0,70,,,,,,,8.585,88.34,713.34348542542,6.889764,14,Waypoint,
290500,2023-10-10 22:02:53,40.0688858755679,-88.2096415188989,7.545932,,,713.99965342542,7.545932,0.223694,0.64582679232,1.15932746492,22,10,22.6195,713.99965342542,7.545932,0.447388,0.64582679232,0,0.223694,-6.039738,178.7, -0.5, 1.2,0,0,1024,1024,1024,1024,0,0,0,0,0,0,0,70,,,,,,,8.585,88.34,713.99965342542,7.545932,14,Waypoint,
290600,2023-10-10 22:02:53,40.0688858382985,-88.2096413639908,8.530184,,,714.98390542542,8.2021,0.223694,0.67995080916,1.20466539288,22,10,22.6195,714.98390542542,8.530184,0.447388,0.67995080916,0,0.223694,-6.487126,178.9, -0.1, 2.1,0,0,1024,1024,1024,1024,0,0,0,0,0,0,0,70,,,,,,,8.585,88.34,714.98390542542,8.530184,14,Waypoint,
290700,2023-10-10 22:02:53,40.0688858051509,-88.2096411620661,9.514436,,,715.96815742542,8.858268,0.223694,0.72817259548,1.26232615588,22,10,22.6195,715.96815742542,9.514436,0.447388,0.72817259548,0,0.223694,-6.71082,179, 0.2, 3.1,0,0,1024,1024,1024,1024,0,0,0,0,0,0,0,70,,,,,,,8.585,88.34,715.96815742542,9.514436,14,Waypoint,
290800,2023-10-10 22:02:54,40.0688857738335,-88.2096409807615,10.498688,,,716.95240942542,9.186352,0.223694,0.77239831868,1.314222483,22,10,22.495,716.95240942542,10.498688,0.447388,0.77239831868,0,0.223694,-6.934514,178.9, 0.5, 4,0,0,1024,1024,1024,1024,0,0,0,0,0,0,0,70,,,,,,,11.769,88.34,716.95240942542,10.498688,14,Waypoint,
290900,2023-10-10 22:02:54,40.0688857192422,-88.2096408493616,11.48294,,,717.93666142542,9.514436,0.223694,0.80180776844,1.35596789116,22,10,22.495,717.93666142542,11.48294,0.447388,0.80180776844,0,0.223694,-7.158208,178.8, 0.5, 4.2,0,0,1024,1024,1024,1024,0,0,0,0,0,0,0,70,,,,,,,11.769,88.34,717.93666142542,11.48294,14,Waypoint,
291000,2023-10-10 22:02:54,40.0688856833458,-88.2096407543435,12.795276,,,719.24899742542,10.170604,0.223694,0.82405842532,1.38555450628,22,10,22.495,719.24899742542,12.795276,0.447388,0.82405842532,0,0.223694,-7.158208,178.8, 0.4, 3.9,0,0,1024,1024,1024,1024,0,0,0,0,0,0,0,70,,,,,,,11.769,88.34,719.24899742542,12.795276,14,Waypoint,
291100,2023-10-10 22:02:54,40.0688857006103,-88.2096407142899,13.779528,,,720.23324942542,10.498688,0,0.83645671968,1.39838915236,22,10,22.495,720.23324942542,13.779528,0.447388,0.83645671968,0,0,-7.158208,178.7, 0.4, 3.5,0,0,1024,1024,1024,1024,0,0,0,0,0,0,0,70,,,,,,,11.769,88.34,720.23324942542,13.779528,14,Waypoint,
291200,2023-10-10 22:02:54,40.0688857263509,-88.2096406771021,14.76378,,,721.21750142542,11.154856,0,0.8488845416,1.41239177748,22,10,22.495,721.21750142542,14.76378,0.447388,0.8488845416,0,0,-7.158208,178.7, 0.3, 3,0,0,1024,1024,1024,1024,0,0,0,0,0,0,0,70,,,,,,,11.769,88.34,721.21750142542,14.76378,14,Waypoint,
291300,2023-10-10 22:02:54,40.0688857809474,-88.2096406586313,15.748032,,,722.20175342542,11.811024,0.223694,0.85918966004,1.43296592512,22,10,22.495,722.20175342542,15.748032,0.447388,0.85918966004,0,0.223694,-7.158208,178.7, 0, 3,0,0,1024,1024,1024,1024,0,0,0,0,0,0,0,70,,,,,,,11.769,88.34,722.20175342542,15.748032,14,Waypoint,
291400,2023-10-10 22:02:54,40.0688857924209,-88.2096405685164,17.060368,,,723.51408942542,10.170604,0.223694,0.88452758736,1.45847445612,22,10,22.495,723.51408942542,17.060368,0.447388,0.88452758736,0,0.223694,-7.158208,178.7, 0, 3.4,0,0,1024,1024,1024,1024,0,0,0,0,0,0,0,70,,,,,,,11.769,88.34,723.51408942542,17.060368,14,Waypoint,
291500,2023-10-10 22:02:54,40.0688858051162,-88.2096404515349,18.04462,,,724.49834142542,10.826772,0.223694,0.91721787712,1.49146330232,22,10,22.495,724.49834142542,18.04462,0.447388,0.91721787712,0,0.223694,-7.158208,178.7, 0, 3.8,0,0,1024,1024,1024,1024,0,0,0,0,0,0,0,70,,,,,,,11.769,88.34,724.49834142542,18.04462,14,Waypoint,
291600,2023-10-10 22:02:54,40.0688858344639,-88.2096403364787,19.028872,,,725.48259342542,12.139108,0.223694,0.95104005668,1.52532485196,22,10,22.495,725.48259342542,19.028872,0.447388,0.95104005668,0,0.223694,-7.158208,178.7, -0.3, 3.9,0,0,1024,1024,1024,1024,0,0,0,0,0,0,0,70,,,,,,,11.769,88.34,725.48259342542,19.028872,14,Waypoint,
291700,2023-10-10 22:02:54,40.0688858360536,-88.2096402111686,20.013124,,,726.46684542542,8.2021,0.223694,0.98491144884,1.5603182914,22,10,22.495,726.46684542542,20.013124,0.447388,0.98491144884,0,0.223694,-6.934514,178.7, -0.7, 3.8,0,0,1024,1024,1024,1024,0,0,0,0,0,0,0,70,,,,,,,11.769,88.34,726.46684542542,20.013124,14,Waypoint,
291800,2023-10-10 22:02:54,40.0688858128915,-88.2096400987991,20.997376,,,727.45109742542,8.858268,0.223694,1.01309386444,1.59280844992,22,10,22.495,727.45109742542,20.997376,0.447388,1.01309386444,0,0.223694,-6.934514,178.9, -0.4, 4,0,0,1024,1024,1024,1024,0,0,0,0,0,0,0,70,,,,,,,11.769,88.34,727.45109742542,20.997376,14,Waypoint,
291900,2023-10-10 22:02:55,40.0688857609196,-88.2096400062662,22.309712,,,728.76343342542,9.84252,0,1.03374019056,1.62485569504,22,10,22.495,728.76343342542,22.309712,0.447388,1.03374019056,0,0,-6.934514,179, 0.1, 3.9,0,0,1024,1024,1024,1024,0,0,0,0,0,0,0,70,,,,,,,11.769,88.34,728.76343342542,22.309712,14,Waypoint,
292000,2023-10-10 22:02:55,40.068885704615,-88.2096399247933,23.293964,,,729.74768542542,10.498688,0,1.0516076452,1.65550858316,22,10,22.495,729.74768542542,23.293964,0.447388,1.0516076452,0,0,-6.934514,179, 0.7, 4,0,0,1024,1024,1024,1024,0,0,0,0,0,0,0,70,,,,,,,11.769,88.34,729.74768542542,23.293964,14,Waypoint,
292100,2023-10-10 22:02:55,40.0688856319042,-88.2096398427831,24.278216,,,730.73193742542,2.624672,0,1.06915685836,1.6905512352,22,10,22.495,730.73193742542,24.278216,0.447388,1.06915685836,0,0,-6.934514,179, 0.9, 4.1,0,0,1024,1024,1024,1024,0,0,0,0,0,0,0,70,,,,,,,11.769,88.34,730.73193742542,24.278216,14,Waypoint,
292200,2023-10-10 22:02:55,40.0688855787739,-88.209639781684,25.262468,,,731.71618942542,3.608924,0,1.08284452284,1.71637472684,22,10,22.495,731.71618942542,25.262468,0.447388,1.08284452284,0,0,-6.934514,178.9, 1, 4,0,0,1024,1024,1024,1024,0,0,0,0,0,0,0,70,,,,,,,11.769,88.34,731.71618942542,25.262468,14,Waypoint,
292300,2023-10-10 22:02:55,40.0688855371159,-88.2096397285554,26.24672,,,732.70044142542,4.593176,0,1.0953248382,1.73761160416,22,10,22.495,732.70044142542,26.24672,0.447388,1.0953248382,0,0,-6.934514,178.9, 0.9, 3.8,0,0,1024,1024,1024,1024,0,0,0,0,0,0,0,70,,,,,,,11.769,88.34,732.70044142542,26.24672,14,Waypoint,
292400,2023-10-10 22:02:55,40.0688855276507,-88.2096396981961,27.230972,,,733.68469342542,5.577428,0,1.10325790932,1.74676514776,22,10,22.495,733.68469342542,27.230972,0.447388,1.10325790932,0,0,-6.934514,178.9, 0.7, 3.8,0,0,1024,1024,1024,1024,0,0,0,0,0,0,0,70,,,,,,,11.769,88.34,733.68469342542,27.230972,14,Waypoint,
292500,2023-10-10 22:02:55,40.0688855203183,-88.2096396798373,28.215224,,,734.66894542542,6.56168,0,1.1079888806,1.75254598784,22,10,22.495,734.66894542542,28.215224,0.447388,1.1079888806,0,0,-6.934514,178.9, 0.4, 3.6,0,0,1024,1024,1024,1024,0,0,0,0,0,0,0,70,,,,,,,11.769,88.34,734.66894542542,28.215224,14,Waypoint,
292600,2023-10-10 22:02:55,40.0688855152469,-88.2096396562395,29.52756,,,735.98128142542,6.889764,0,1.11428481256,1.75938982008,22,10,22.495,735.98128142542,29.52756,0.447388,1.11428481256,0,0,-6.934514,178.9, 0.1, 3.5,0,0,1024,1024,1024,1024,0,0,0,0,0,0,0,70,,,,,,,11.769,88.34,735.98128142542,29.52756,14,Waypoint,
292700,2023-10-10 22:02:55,40.0688854972813,-88.2096396584336,30.511812,,,736.96553342542,6.889764,0,1.112860928,1.76597446596,22,10,22.495,736.96553342542,30.511812,0.447388,1.11428481256,0,0,-6.71082,178.8, 0.1, 3.9,0,0,1024,1024,1024,1024,0,0,0,0,0,0,0,70,,,,,,,11.769,88.34,736.96553342542,30.511812,14,Waypoint,
292800,2023-10-10 22:02:55,40.0688854796927,-88.2096396312088,31.496064,,,737.94978542542,6.889764,0,1.1196522668,1.77592197284,22,10,22.4935,737.94978542542,31.496064,0.447388,1.1196522668,0,0,-6.71082,178.7, 0.3, 4.1,0,0,1024,1024,1024,1024,0,0,0,0,0,0,0,70,,,,,,,10.768,88.34,737.94978542542,31.496064,14,Waypoint,
292900,2023-10-10 22:02:56,40.0688854425762,-88.2096396032676,32.480316,,,738.93403742542,6.889764,0,1.12593179456,1.7915518946,22,10,22.4935,738.93403742542,32.480316,0.447388,1.12593179456,0,0,-6.71082,178.8, 0.5, 3.9,0,0,1024,1024,1024,1024,0,0,0,0,0,0,0,70,,,,,,,10.768,88.34,738.93403742542,32.480316,14,Waypoint,
293000,2023-10-10 22:02:56,40.068885386978,-88.2096396037378,33.464568,,,739.91828942542,6.889764,0,1.12390751628,1.81183732832,22,10,22.4935,739.91828942542,33.464568,0.447388,1.12593179456,0,0,-6.71082,178.9, 0.6, 3.6,0,0,1024,1024,1024,1024,0,0,0,0,0,0,0,70,,,,,,,10.768,88.34,739.91828942542,33.464568,14,Waypoint,
293100,2023-10-10 22:02:56,40.068885350397,-88.2096395795131,34.44882,,,740.90254142542,6.889764,0,1.12960305452,1.82679795872,22,10,22.4935,740.90254142542,34.44882,0.447388,1.12960305452,0,0,-6.71082,178.9, 0.8, 3.7,0,0,1024,1024,1024,1024,0,0,0,0,0,0,0,70,,,,,,,10.768,88.34,740.90254142542,34.44882,14,Waypoint,
293200,2023-10-10 22:02:56,40.0688853182126,-88.2096395510569,35.433072,,,741.88679342542,6.889764,0,1.1367454432,1.8409777492,22,10,22.4935,741.88679342542,35.433072,0.447388,1.1367454432,0,0,-6.71082,178.9, 0.8, 3.9,0,0,1024,1024,1024,1024,0,0,0,0,0,0,0,70,,,,,,,10.768,88.34,741.88679342542,35.433072,14,Waypoint,
293300,2023-10-10 22:02:56,40.0688852915893,-88.209639524056,36.417324,,,742.87104542542,6.889764,0,1.1437172282,1.85327105668,22,10,22.4935,742.87104542542,36.417324,0.447388,1.1437172282,0,0,-6.71082,179, 0.8, 4.4,0,0,1024,1024,1024,1024,0,0,0,0,0,0,0,70,,,,,,,10.768,88.34,742.87104542542,36.417324,14,Waypoint,
293400,2023-10-10 22:02:56,40.0688852645392,-88.2096395214813,37.401576,,,743.85529742542,6.889764,0,1.14395672952,1.86316607012,22,10,22.4935,743.85529742542,37.401576,0.447388,1.14395672952,0,0,-6.71082,179, 0.8, 4.4,0,0,1024,1024,1024,1024,0,0,0,0,0,0,0,70,,,,,,,10.768,88.34,743.85529742542,37.401576,14,Waypoint,
293500,2023-10-10 22:02:56,40.0688852282376,-88.2096395059658,38.385828,,,744.83954942542,6.889764,0,1.14777890812,1.87710307844,22,10,22.4935,744.83954942542,38.385828,0.447388,1.14777890812,0,0,-6.71082,179, 0.9, 4.2,0,0,1024,1024,1024,1024,0,0,0,0,0,0,0,70,,,,,,,10.768,88.34,744.83954942542,38.385828,14,Waypoint,
293600,2023-10-10 22:02:56,40.0688851999272,-88.209639494458,39.37008,,,745.82380142542,6.889764,0,1.1507054174,1.88792000792,22,10,22.4935,745.82380142542,39.37008,0.447388,1.1507054174,0,0,-6.71082,179, 0.9, 3.9,0,0,1024,1024,1024,1024,0,0,0,0,0,0,0,70,,,,,,,10.768,88.34,745.82380142542,39.37008,14,Waypoint,
293700,2023-10-10 22:02:56,40.06888516232,-88.2096394940326,40.354332,,,746.80805342542,6.889764,0,1.15058730716,1.9016404808,22,10,22.4935,746.80805342542,40.354332,0.447388,1.1507054174,0,0,-6.71082,178.9, 1, 3.8,0,0,1024,1024,1024,1024,0,0,0,0,0,0,0,70,,,,,,,10.768,88.34,746.80805342542,40.354332,14,Waypoint,
293800,2023-10-10 22:02:56,40.0688851456486,-88.209639476323,41.338584,,,747.79230542542,6.889764,0,1.1554790396,1.90947840756,22,10,22.4935,747.79230542542,41.338584,0.447388,1.1554790396,0,0,-6.71082,178.8, 0.8, 3.9,0,0,1024,1024,1024,1024,0,0,0,0,0,0,0,70,,,,,,,10.768,88.34,747.79230542542,41.338584,14,Waypoint,
293900,2023-10-10 22:02:57,40.0688851335514,-88.2096394576284,42.322836,,,748.77655742542,6.889764,0,1.160679171,1.91631567812,22,10,22.4705,748.77655742542,42.322836,0.447388,1.160679171,0,0,-6.71082,178.8, 0.7, 4.3,0,0,1024,1024,1024,1024,0,0,0,0,0,0,0,70,,,,,,,10.632,88.16,748.77655742542,42.322836,14,Waypoint,
294000,2023-10-10 22:02:57,40.0688851200562,-88.2096394439264,43.307088,,,749.76080942542,6.889764,0,1.16450463044,1.92255255496,22,10,22.4705,749.76080942542,43.307088,0.447388,1.16450463044,0,0,-6.71082,178.9, 0.7, 4.6,0,0,1024,1024,1024,1024,0,0,0,0,0,0,0,70,,,,,,,10.632,88.16,749.76080942542,43.307088,14,Waypoint,
294100,2023-10-10 22:02:57,40.0688851058202,-88.2096394616584,44.29134,,,750.74506142542,6.889764,0,1.15957680876,1.92972775204,22,10,22.4705,750.74506142542,44.29134,0.447388,1.16450463044,0,0,-6.71082,178.9, 0.8, 4.5,0,0,1024,1024,1024,1024,0,0,0,0,0,0,0,70,,,,,,,10.632,88.16,750.74506142542,44.29134,14,Waypoint,
294200,2023-10-10 22:02:57,40.0688850981972,-88.2096394613449,45.275592,,,751.72931342542,6.889764,0,1.15968507648,1.93250990436,22,10,22.4705,751.72931342542,45.275592,0.447388,1.16450463044,0,0,-6.71082,178.9, 1, 4.3,0,0,1024,1024,1024,1024,0,0,0,0,0,0,0,70,,,,,,,10.632,88.16,751.72931342542,45.275592,14,Waypoint,
294300,2023-10-10 22:02:57,40.0688850958724,-88.2096394548298,46.259844,,,752.71356542542,6.889764,0,1.16151250436,1.93451777844,22,10,22.4705,752.71356542542,46.259844,0.447388,1.16450463044,0,0,-6.71082,178.9, 0.9, 4,0,0,1024,1024,1024,1024,0,0,0,0,0,0,0,70,,,,,,,10.632,88.16,752.71356542542,46.259844,14,Waypoint,
294400,2023-10-10 22:02:57,40.0688850913698,-88.2096394437473,47.244096,,,753.69781742542,6.889764,0,1.16462274068,1.93801843472,22,10,22.4705,753.69781742542,47.244096,0.447388,1.16462274068,0,0,-6.71082,178.9, 0.7, 3.9,0,0,1024,1024,1024,1024,0,0,0,0,0,0,0,70,,,,,,,10.632,88.16,753.69781742542,47.244096,14,Waypoint,
294500,2023-10-10 22:02:57,40.0688851062166,-88.209639403246,48.228348,,,754.68206942542,6.889764,0,1.17588258356,1.9505578052,22,10,22.4705,754.68206942542,48.228348,0.447388,1.17588258356,0,0,-6.71082,178.9, 0.6, 4.3,0,0,1024,1024,1024,1024,0,0,0,0,0,0,0,70,,,,,,,10.632,88.16,754.68206942542,48.228348,14,Waypoint,
294600,2023-10-10 22:02:57,40.0688851276102,-88.2096393547966,49.540684,,,755.99440542542,6.889764,0,1.189386521,1.96617788444,22,10,22.4705,755.99440542542,49.540684,0.447388,1.189386521,0,0,-6.71082,178.9, 0.3, 4.6,0,0,1024,1024,1024,1024,0,0,0,0,0,0,0,70,,,,,,,10.632,88.16,755.99440542542,49.540684,14,Waypoint,
294700,2023-10-10 22:02:57,40.068885158056,-88.2096393022053,50.524936,,,756.97865742542,6.889764,0,1.20412733512,1.98458995852,22,10,22.4705,756.97865742542,50.524936,0.447388,1.20412733512,0,0,-6.71082,178.9, 0.1, 4.7,0,0,1024,1024,1024,1024,0,0,0,0,0,0,0,70,,,,,,,10.632,88.16,756.97865742542,50.524936,14,Waypoint,
294800,2023-10-10 22:02:57,40.0688851834878,-88.2096392690475,51.509188,,,757.96290942542,6.889764,0,1.21350725668,1.99769691432,22,10,22.4705,757.96290942542,51.509188,0.447388,1.21350725668,0,0,-6.71082,178.9, 0.4, 4.9,0,0,1024,1024,1024,1024,0,0,0,0,0,0,0,70,,,,,,,10.632,88.16,757.96290942542,51.509188,14,Waypoint,
294900,2023-10-10 22:02:58,40.0688852108381,-88.2096392441063,52.49344,,,758.94716142542,6.889764,0,1.22068245376,2.00986554988,22,10,22.462,758.94716142542,52.49344,0.447388,1.22068245376,0,0,-6.71082,178.9, 0.6, 5.1,0,0,1024,1024,1024,1024,0,0,0,0,0,0,0,70,,,,,,,10.393,88.16,758.94716142542,52.49344,14,Waypoint,
295000,2023-10-10 22:02:58,40.0688852381006,-88.2096392329567,53.477692,,,759.93141342542,6.889764,0,1.22408468484,2.02028549772,22,10,22.462,759.93141342542,53.477692,0.447388,1.22408468484,0,0,-6.71082,179, 0.6, 5,0,0,1024,1024,1024,1024,0,0,0,0,0,0,0,70,,,,,,,10.393,88.16,759.93141342542,53.477692,14,Waypoint,
295100,2023-10-10 22:02:58,40.0688852700789,-88.2096392579426,54.461944,,,760.91566542542,6.889764,0,1.21755581324,2.03388129868,22,10,22.462,760.91566542542,54.461944,0.447388,1.22408468484,0,0,-6.71082,179, 0.5, 4.9,0,0,1024,1024,1024,1024,0,0,0,0,0,0,0,70,,,,,,,10.393,88.16,760.91566542542,54.461944,14,Waypoint,
295200,2023-10-10 22:02:58,40.0688853039813,-88.2096392662488,55.446196,,,761.89991742542,6.889764,0,1.21583665308,2.04646660092,22,10,22.462,761.89991742542,55.446196,0.447388,1.22408468484,0,0,-6.71082,179, 0.5, 4.7,0,0,1024,1024,1024,1024,0,0,0,0,0,0,0,70,,,,,,,10.393,88.16,761.89991742542,55.446196,14,Waypoint,
295300,2023-10-10 22:02:58,40.0688853452249,-88.2096392820777,56.430448,,,762.88416942542,6.889764,0,1.2123195926,2.06214901612,22,10,22.462,762.88416942542,56.430448,0.447388,1.22408468484,0,0,-6.71082,179, 0.4, 4.6,0,0,1024,1024,1024,1024,0,0,0,0,0,0,0,70,,,,,,,10.393,88.16,762.88416942542,56.430448,14,Waypoint,
295400,2023-10-10 22:02:58,40.0688853882653,-88.2096392958916,57.4147,,,763.86842142542,6.889764,0,1.20960961876,2.07832027648,22,10,22.462,763.86842142542,57.4147,0.447388,1.22408468484,0,0,-6.71082,179, 0.1, 4.5,0,0,1024,1024,1024,1024,0,0,0,0,0,0,0,70,,,,,,,10.393,88.16,763.86842142542,57.4147,14,Waypoint,
295500,2023-10-10 22:02:58,40.068885425571,-88.2096393049143,58.398952,,,764.85267342542,6.889764,0,1.208251351,2.09216214044,22,10,22.462,764.85267342542,58.398952,0.447388,1.22408468484,0,0,-6.71082,179.1, 0, 4.6,0,0,1024,1024,1024,1024,0,0,0,0,0,0,0,70,,,,,,,10.393,88.16,764.85267342542,58.398952,14,Waypoint,
295600,2023-10-10 22:02:58,40.0688854760172,-88.2096393029217,59.383204,,,765.83692542542,6.889764,0,1.21060699412,2.11057421452,22,10,22.462,765.83692542542,59.383204,0.447388,1.22408468484,0.223694,0,-6.71082,179.1, 0, 4.6,0,0,1024,1024,1024,1024,0,0,0,0,0,0,0,70,,,,,,,10.393,88.16,765.83692542542,59.383204,14,Waypoint,
295700,2023-10-10 22:02:58,40.0688855307675,-88.2096392964513,60.367456,,,766.82117742542,6.889764,0,1.2146653932,2.13063327028,22,10,22.462,766.82117742542,60.367456,0.447388,1.22408468484,0,0,-6.71082,179, -0.1, 4.7,0,0,1024,1024,1024,1024,0,0,0,0,0,0,0,70,,,,,,,10.393,88.16,766.82117742542,60.367456,14,Waypoint,
295800,2023-10-10 22:02:58,40.0688855737626,-88.209639264704,61.351708,,,767.80542942542,6.889764,0,1.22545607596,2.14864836272,22,10,22.462,767.80542942542,61.351708,0.447388,1.22545607596,0,0,-6.71082,178.9, -0.4, 5,0,0,1024,1024,1024,1024,0,0,0,0,0,0,0,70,,,,,,,10.393,88.16,767.80542942542,61.351708,14,Waypoint,
295900,2023-10-10 22:02:59,40.0688856142087,-88.2096392180905,62.33596,,,768.78968142542,6.889764,0,1.2403871788,2.16832684104,22,10,22.4435,768.78968142542,62.33596,0.447388,1.2403871788,0,0,-6.263432,178.9, -0.6, 5.7,0,0,1024,1024,1024,1024,0,0,0,0,0,0,0,70,,,,,,,10.873,88.34,768.78968142542,62.33596,14,Waypoint,
296000,2023-10-10 22:02:59,40.0688856380293,-88.2096391659246,63.320212,,,769.77393342542,6.889764,0,1.25606303232,2.185285503,22,10,22.4435,769.77393342542,63.320212,0.447388,1.25606303232,0,0,-5.816044,179, -0.6, 6.4,0,0,1024,1024,1024,1024,0,0,0,0,0,0,0,70,,,,,,,10.873,88.34,769.77393342542,63.320212,14,Waypoint,
296100,2023-10-10 22:02:59,40.0688856454253,-88.2096391292965,63.97638,,,770.43010142542,6.889764,0,1.26657812452,2.19586293116,22,10,22.4435,770.43010142542,63.97638,0.447388,1.26657812452,0,0,-5.368656,179.1, -0.5, 6.9,0,0,1024,1024,1024,1024,0,0,0,0,0,0,0,70,,,,,,,10.873,88.34,770.43010142542,63.97638,14,Waypoint,
296200,2023-10-10 22:02:59,40.0688856350175,-88.2096390980641,64.632548,,,771.08626942542,6.889764,0,1.27464571008,2.20537408632,22,10,22.4435,771.08626942542,64.632548,0.447388,1.27464571008,0,0,-4.697574,179.1, -0.1, 7.2,0,0,1024,1024,1024,1024,0,0,0,0,0,0,0,70,,,,,,,10.873,88.34,771.08626942542,64.632548,14,Waypoint,
296300,2023-10-10 22:02:59,40.0688855994562,-88.2096390673243,65.288716,,,771.74243742542,6.889764,0,1.28132550032,2.2209318296,22,10,22.4435,771.74243742542,65.288716,0.447388,1.28132550032,0,0,-4.026492,179.2, 0.2, 7.5,0,0,1024,1024,1024,1024,0,0,0,0,0,0,0,70,,,,,,,10.873,88.34,771.74243742542,65.288716,14,Waypoint,
296400,2023-10-10 22:02:59,40.0688855489512,-88.2096390456743,65.944884,,,772.39860542542,6.889764,0,1.2849737944,2.24032487484,22,10,22.4435,772.39860542542,65.944884,0.447388,1.2849737944,0,0,-3.131716,179.3, 0.5, 7.3,0,0,1024,1024,1024,1024,0,0,0,0,0,0,0,70,,,,,,,10.873,88.34,772.39860542542,65.944884,14,Waypoint,
296500,2023-10-10 22:02:59,40.0688854632695,-88.2096390293529,66.272968,,,772.72668942542,6.889764,0,1.28613521176,2.2719160832,22,10,22.4435,772.72668942542,66.272968,0.447388,1.28613521176,0,0,-2.460634,179.3, 1.1, 6.9,0,0,1024,1024,1024,1024,0,0,0,0,0,0,0,70,,,,,,,10.873,88.34,772.72668942542,66.272968,14,Waypoint,
296600,2023-10-10 22:02:59,40.0688853841149,-88.2096389909561,66.929136,,,773.38285742542,6.889764,0,1.29439308604,2.30271988996,22,10,22.4435,773.38285742542,66.929136,0.447388,1.29439308604,0,0,-2.013246,179.4, 1.3, 6.7,0,0,1024,1024,1024,1024,0,0,0,0,0,0,0,70,,,,,,,10.873,88.34,773.38285742542,66.929136,14,Waypoint,
296700,2023-10-10 22:02:59,40.0688852976464,-88.2096389376483,66.929136,,,773.38285742542,6.889764,0,1.30735240404,2.33760506168,22,10,22.4435,773.38285742542,66.929136,0.447388,1.30735240404,0,0,-1.342164,179.4, 1.5, 6.9,0,0,1024,1024,1024,1024,0,0,0,0,0,0,0,70,,,,,,,10.873,88.34,773.38285742542,66.929136,14,Waypoint,
296800,2023-10-10 22:03:00,40.0688852061615,-88.2096388884377,67.25722,,,773.71094142542,6.889764,0.223694,1.31991802124,2.37370086336,22,10,22.4435,773.71094142542,67.25722,0.447388,1.31991802124,-0.223694,0,-0.894776,179.4, 1.9, 7,0,0,1024,1024,1024,1024,0,0,0,0,0,0,0,70,,,,,,,10.873,88.34,773.71094142542,67.25722,14,Waypoint,
296900,2023-10-10 22:03:00,40.0688850880481,-88.2096388428317,67.25722,,,773.71094142542,6.889764,0.223694,1.33240489828,2.418635248,22,10,22.4435,773.71094142542,67.25722,0.447388,1.33240489828,-0.223694,0,-0.447388,179.4, 2.1, 7,0,0,1024,1024,1024,1024,0,0,0,0,0,0,0,70,,,,,,,10.873,88.34,773.71094142542,67.25722,14,Waypoint,
297000,2023-10-10 22:03:00,40.0688849802469,-88.2096388112411,67.25722,,,773.71094142542,6.889764,0.223694,1.34221460988,2.45894364824,22,10,22.4435,773.71094142542,67.25722,0.447388,1.34221460988,-0.223694,0,0,180.2, 2.4, 6.6,0,0,1024,1024,1024,1024,0,0,0,0,0,0,0,70,,,,,,,10.873,88.34,773.71094142542,67.25722,14,Waypoint,
297100,2023-10-10 22:03:00,40.0688848662408,-88.2096388356896,67.25722,,,773.71094142542,6.889764,0.223694,1.33770017404,2.50109588056,22,10,22.4435,773.71094142542,67.25722,0.447388,1.34221460988,-0.223694,0,0,186.2, 1.8, 5.4,0,0,1024,1024,1024,1024,0,0,0,0,0,0,0,70,,,,,,,10.873,88.34,773.71094142542,67.25722,14,Waypoint,
297200,2023-10-10 22:03:00,40.0688847476196,-88.2096388953558,67.25722,,,773.71094142542,6.889764,0.223694,1.32489833636,2.54746727312,22,10,22.4435,773.71094142542,67.25722,0.447388,1.34221460988,-0.223694,0,0,193.8, 1.2, 4.4,0,0,1024,1024,1024,1024,0,0,0,0,0,0,0,70,,,,,,,10.873,88.34,773.71094142542,67.25722,14,Waypoint,
297300,2023-10-10 22:03:00,40.0688846299927,-88.2096388732357,67.25722,,,773.71094142542,6.889764,0.223694,1.33618114512,2.59082685456,22,10,22.4435,773.71094142542,67.25722,0.447388,1.34221460988,-0.223694,0,0.223694,202.1, 1.2, 5.1,0,0,1024,1024,1024,1024,0,0,0,0,0,0,0,70,,,,,,,10.873,88.34,773.71094142542,67.25722,14,Waypoint,
297400,2023-10-10 22:03:00,40.0688845264157,-88.2096388097859,67.25722,,,773.71094142542,6.889764,0,1.35930778628,2.6325624202,22,10,22.4435,773.71094142542,67.25722,0.447388,1.35930778628,0,0,0.223694,210.5, 1.2, 5.9,0,0,1024,1024,1024,1024,0,0,0,0,0,0,0,70,,,,,,,10.873,88.34,773.71094142542,67.25722,14,Waypoint,
297500,2023-10-10 22:03:00,40.0688844195524,-88.2096387167604,67.25722,,,773.71094142542,6.889764,0.223694,1.39164374532,2.6794128154,22,10,22.4435,773.71094142542,67.25722,0.447388,1.39164374532,0,0.223694,0.447388,219, 0.7, 6.4,0,0,1024,1024,1024,1024,0,0,0,0,0,0,0,70,,,,,,,10.873,88.34,773.71094142542,67.25722,14,Waypoint,
297600,2023-10-10 22:03:00,40.0688843262183,-88.2096386129659,67.25722,,,773.71094142542,6.889764,0.223694,1.42671264408,2.72412738376,22,10,22.4435,773.71094142542,67.25722,0.447388,1.42671264408,0,0.447388,0.447388,227.5, -0.4, 6.9,0,0,1024,1024,1024,1024,0,0,0,0,0,0,0,70,,,,,,,10.873,88.34,773.71094142542,67.25722,14,Waypoint,
297700,2023-10-10 22:03:00,40.0688843080409,-88.2096384088472,67.25722,,,773.71094142542,6.889764,0.447388,1.48386159604,2.78150271368,22,10,22.4435,773.71094142542,67.25722,0.447388,1.48386159604,0,0.447388,0.447388,236, -1.9, 6.7,0,0,1024,1024,1024,1024,0,0,0,0,0,0,0,70,,,,,,,10.873,88.34,773.71094142542,67.25722,14,Waypoint,
297800,2023-10-10 22:03:00,40.0688843317871,-88.2096381611374,66.929136,,,773.38285742542,6.889764,0.671082,1.55002957716,2.85120744032,22,10,22.569,773.71094142542,67.25722,0.671082,1.55002957716,0,0.671082,0.447388,242.5, -3.5, 6.3,0,0,1024,1024,1024,1024,0,0,0,0,0,0,0,69,,,,,,,9.212,88.34,773.38285742542,66.929136,14,Waypoint,
297900,2023-10-10 22:03:01,40.0688844103314,-88.2096378482987,66.929136,,,773.38285742542,6.889764,0.7158208,1.63107944852,2.94313329628,22,10,22.569,773.71094142542,67.25722,0.7158208,1.63107944852,0.223694,0.671082,0.447388,246.8, -5.1, 6.3,0,0,1024,1024,1024,1024,0,0,0,0,0,0,0,69,,,,,,,9.212,88.34,773.38285742542,66.929136,14,Waypoint,
298000,2023-10-10 22:03:01,40.0688845043642,-88.2096374980482,66.929136,,,773.38285742542,6.889764,0.7158208,1.72282813912,3.04677175104,22,10,22.569,773.71094142542,67.25722,0.7158208,1.72282813912,0.223694,0.671082,0.447388,249.2, -6.9, 6.1,0,0,1024,1024,1024,1024,0,0,0,0,0,0,0,69,,,,,,,9.212,88.34,773.38285742542,66.929136,14,Waypoint,
298100,2023-10-10 22:03:01,40.0688846020725,-88.2096370975571,66.929136,,,773.38285742542,6.889764,0.7158208,1.82966213204,3.16413724036,22,10,22.569,773.71094142542,67.25722,0.7158208,1.82966213204,0.223694,0.671082,0.447388,250.5, -8.2, 5.8,0,0,1024,1024,1024,1024,0,0,0,0,0,0,0,69,,,,,,,9.212,88.34,773.38285742542,66.929136,14,Waypoint,
298200,2023-10-10 22:03:01,40.0688847036054,-88.2096367474633,66.601052,,,773.05477342542,6.889764,0.7158208,1.92357617704,3.26867136444,22,10,22.569,773.71094142542,67.25722,0.7158208,1.92357617704,0.223694,0.671082,0.447388,251.1, -9.2, 5.1,0,0,1024,1024,1024,1024,0,0,0,0,0,0,0,70,,,,,,,9.212,88.34,773.05477342542,66.601052,14,Waypoint,
298300,2023-10-10 22:03:01,40.068884824709,-88.2096363514052,66.601052,,,773.05477342542,6.889764,0.4921268,2.03094822772,3.3877625756,22,10,22.569,773.71094142542,67.25722,0.7158208,2.03094822772,0.223694,0.447388,0.223694,251.2, -9.5, 4.3,0,0,1024,1024,1024,1024,0,0,0,0,0,0,0,70,,,,,,,9.212,88.34,773.05477342542,66.601052,14,Waypoint,
298400,2023-10-10 22:03:01,40.0688849224112,-88.2096360998669,66.601052,,,773.05477342542,6.889764,0.4921268,2.09951450288,3.4665027356,22,10,22.569,773.71094142542,67.25722,0.7158208,2.09951450288,0.223694,0.447388,0.223694,251.1, -9.8, 3.7,0,0,1024,1024,1024,1024,0,0,0,0,0,0,0,70,,,,,,,9.212,88.34,773.05477342542,66.601052,14,Waypoint,
298500,2023-10-10 22:03:01,40.0688850034303,-88.2096359004498,66.601052,,,773.05477342542,6.889764,0.4921268,2.15434062012,3.5295604804,22,10,22.569,773.71094142542,67.25722,0.7158208,2.15434062012,0.223694,0.447388,0.223694,251.1, -10, 3.4,0,0,1024,1024,1024,1024,0,0,0,0,0,0,0,70,,,,,,,9.212,88.34,773.05477342542,66.601052,14,Waypoint,
298600,2023-10-10 22:03:01,40.0688850835756,-88.2096357561091,66.601052,,,773.05477342542,6.889764,0.223694,2.19422907284,3.5793308232,22,10,22.569,773.71094142542,67.25722,0.7158208,2.19422907284,0,0.223694,0.223694,250.9, -10.6, 3.6,0,0,1024,1024,1024,1024,0,0,0,0,0,0,0,70,,,,,,,9.212,88.34,773.05477342542,66.601052,14,Waypoint,
298700,2023-10-10 22:03:01,40.0688851181126,-88.2096356892561,66.272968,,,772.72668942542,6.889764,0,2.21284127816,3.601870194,22,10,22.569,773.71094142542,67.25722,0.7158208,2.21284127816,0,0,0.223694,250.8, -11.2, 3.7,0,0,1024,1024,1024,1024,0,0,0,0,0,0,0,70,,,,,,,9.212,88.34,772.72668942542,66.272968,14,Waypoint,
298800,2023-10-10 22:03:01,40.068885118071,-88.209635693286,66.272968,,,772.72668942542,6.889764,0,2.21171595004,3.6029856796,22,10,22.569,773.71094142542,67.25722,0.7158208,2.21284127816,0,0,0.223694,250.7, -12, 4.1,0,0,1024,1024,1024,1024,0,0,0,0,0,0,0,70,,,,,,,9.212,88.34,772.72668942542,66.272968,14,Waypoint,
298900,2023-10-10 22:03:02,40.0688850911216,-88.2096358069091,66.272968,,,772.72668942542,6.889764,0,2.18002631648,3.6361877804,22,10,22.569,773.71094142542,67.25722,0.7158208,2.21284127816,0,0,0.223694,250.7, -12.8, 4.2,0,0,1024,1024,1024,1024,0,0,0,0,0,0,0,70,,,,,,,9.212,88.34,772.72668942542,66.272968,14,Waypoint,
299000,2023-10-10 22:03:02,40.0688850590844,-88.209636072709,66.272968,,,772.72668942542,6.889764,0.223694,2.10591870256,3.7113190164,22,10,22.569,773.71094142542,67.25722,0.7158208,2.21284127816,0,-0.223694,0.223694,250.6, -13.7, 4.3,0,0,1024,1024,1024,1024,0,0,0,0,0,0,0,70,,,,,,,9.212,88.34,772.72668942542,66.272968,14,Waypoint,
299100,2023-10-10 22:03:02,40.0688849944095,-88.2096364415645,66.272968,,,772.72668942542,6.889764,0.4921268,2.00336620584,3.8169948728,22,10,22.569,773.71094142542,67.25722,0.7158208,2.21284127816,-0.223694,-0.447388,0,250.6, -14.9, 4.4,0,0,1024,1024,1024,1024,0,0,0,0,0,0,0,70,,,,,,,9.212,88.34,772.72668942542,66.272968,14,Waypoint,
299200,2023-10-10 22:03:02,40.0688849008338,-88.2096369370959,66.272968,,,772.72668942542,6.889764,0.9171454,1.86624677888,3.959481754,22,10,22.569,773.71094142542,67.25722,0.9171454,2.21284127816,-0.223694,-0.894776,0,250.5, -16.3, 4.3,0,0,1024,1024,1024,1024,0,0,0,0,0,0,0,70,,,,,,,9.212,88.34,772.72668942542,66.272968,14,Waypoint,
299300,2023-10-10 22:03:02,40.0688848113894,-88.2096377777508,66.272968,,,772.72668942542,6.889764,1.4092722,1.63376317564,4.1964568272,22,10,22.569,773.71094142542,67.25722,1.4092722,2.21284127816,-0.447388,-1.342164,0,250.4, -17.8, 4.1,0,0,1024,1024,1024,1024,0,0,0,0,0,0,0,70,,,,,,,9.212,88.34,772.72668942542,66.272968,14,Waypoint,
299400,2023-10-10 22:03:02,40.0688846270361,-88.2096386595115,66.272968,,,772.72668942542,6.889764,1.6329662,1.39546592392,4.4516733708,22,10,22.569,773.71094142542,67.25722,1.6329662,2.21284127816,-0.447388,-1.565858,0,250.4, -19.2, 3.8,0,0,1024,1024,1024,1024,0,0,0,0,0,0,0,70,,,,,,,9.212,88.34,772.72668942542,66.272968,14,Waypoint,
299500,2023-10-10 22:03:02,40.0688843555687,-88.2096398353492,66.272968,,,772.72668942542,6.889764,2.125093,1.09205712156,4.794619576,22,10,22.569,773.71094142542,67.25722,2.125093,2.21284127816,-0.671082,-2.013246,0,250.4, -20.6, 3.5,0,0,1024,1024,1024,1024,0,0,0,0,0,0,0,70,,,,,,,9.212,88.34,772.72668942542,66.272968,14,Waypoint,
299600,2023-10-10 22:03:02,40.0688840236911,-88.2096411873868,65.944884,,,772.39860542542,6.889764,2.8185444,0.7881561932,5.1910434732,22,10,22.569,773.71094142542,67.25722,2.8185444,2.21284127816,-0.894776,-2.684328,0,250.4, -21.9, 3.7,0,0,1024,1024,1024,1024,0,0,0,0,0,0,0,70,,,,,,,9.212,88.34,772.39860542542,65.944884,14,Waypoint,
299700,2023-10-10 22:03:02,40.0688835923589,-88.2096430454115,65.944884,,,772.39860542542,6.889764,3.3330406,0.58186025484,5.7331694748,22,10,22.569,773.71094142542,67.25722,3.3330406,2.21284127816,-1.11847,-3.131716,0.223694,250.4, -23.2, 3.8,0,0,1024,1024,1024,1024,0,0,0,0,0,0,0,70,,,,,,,9.212,88.34,772.39860542542,65.944884,14,Waypoint,
299800,2023-10-10 22:03:02,40.0688830895748,-88.209644943333,65.944884,,,772.39860542542,6.889764,4.026492,0.83062338616,6.2939306476,22,10,22.4645,773.71094142542,67.25722,4.026492,2.21284127816,-1.342164,-3.802798,0.223694,250.5, -23.8, 3.5,0,0,1024,1024,1024,1024,0,0,0,0,0,0,0,69,,,,,,,9.078,88.34,772.39860542542,65.944884,14,Waypoint,
299900,2023-10-10 22:03:03,40.0688824523816,-88.2096472393723,65.944884,,,772.39860542542,6.889764,4.5186188,1.405757919,6.9758532416,22,10,22.4645,773.71094142542,67.25722,4.5186188,2.21284127816,-1.565858,-4.250186,0.223694,250.6, -23.8, 3.6,0,0,1024,1024,1024,1024,0,0,0,0,0,0,0,69,,,,,,,9.078,88.34,772.39860542542,65.944884,14,Waypoint,
300000,2023-10-10 22:03:03,40.0688817338026,-88.2096498019505,65.944884,,,772.39860542542,6.889764,5.2344396,2.12523956932,7.7378939484,22,10,22.4645,773.71094142542,67.25722,5.2344396,2.21284127816,-1.789552,-4.921268,0.223694,250.6, -23.5, 3.5,0,0,1024,1024,1024,1024,0,0,0,0,0,0,0,69,,,,,,,9.078,88.34,772.39860542542,65.944884,14,Waypoint,
300100,2023-10-10 22:03:03,40.0688809153842,-88.2096527065288,65.944884,,,772.39860542542,6.889764,5.9502604,2.96728027868,8.6021000128,22,10,22.4645,773.71094142542,67.25722,5.9502604,2.96728027868,-2.013246,-5.59235,0.223694,250.6, -23.6, 3.3,0,0,1024,1024,1024,1024,0,0,0,0,0,0,0,69,,,,,,,9.078,88.34,772.39860542542,65.944884,14,Waypoint,
300200,2023-10-10 22:03:03,40.0688800543961,-88.209655739507,65.944884,,,772.39860542542,6.889764,6.4423872,3.8581366064,9.5053152648,22,10,22.4645,773.71094142542,67.25722,6.4423872,3.8581366064,-2.23694,-6.039738,0.223694,250.7, -23.7, 3.3,0,0,1024,1024,1024,1024,0,0,0,0,0,0,0,70,,,,,,,9.078,88.34,772.39860542542,65.944884,14,Waypoint,
300300,2023-10-10 22:03:03,40.068879063001,-88.2096592194777,65.944884,,,772.39860542542,6.889764,7.158208,4.886483096,10.5420935132,22,10,22.4645,773.71094142542,67.25722,7.158208,4.886483096,-2.460634,-6.71082,0,250.7, -23.7, 3.2,0,0,1024,1024,1024,1024,0,0,0,0,0,0,0,70,,,,,,,9.078,88.34,772.39860542542,65.944884,14,Waypoint,
300400,2023-10-10 22:03:03,40.0688780141986,-88.209662857256,65.944884,,,772.39860542542,6.889764,7.6503348,5.966535624,11.6274938104,22,10,22.4645,773.71094142542,67.25722,7.6503348,5.966535624,-2.684328,-7.158208,0,250.8, -23.7, 3.2,0,0,1024,1024,1024,1024,0,0,0,0,0,0,0,70,,,,,,,9.078,88.34,772.39860542542,65.944884,14,Waypoint,
300500,2023-10-10 22:03:03,40.0688768436412,-88.2096668585949,65.944884,,,772.39860542542,6.889764,8.1424616,7.1590225388,12.8235240324,22,10,22.4645,773.71094142542,67.25722,8.1424616,7.1590225388,-2.908022,-7.605596,0,250.7, -23.6, 3.6,0,0,1024,1024,1024,1024,0,0,0,0,0,0,0,70,,,,,,,9.078,88.34,772.39860542542,65.944884,14,Waypoint,
300600,2023-10-10 22:03:03,40.068875652796,-88.2096709086631,65.944884,,,772.39860542542,6.889764,8.8582824,8.367946462,14.034941394,22,10,22.4645,773.71094142542,67.25722,8.8582824,8.367946462,-3.131716,-8.276678,0,250.6, -23.5, 3.9,0,0,1024,1024,1024,1024,0,0,0,0,0,0,0,70,,,,,,,9.078,88.34,772.39860542542,65.944884,14,Waypoint,
300700,2023-10-10 22:03:03,40.0688743039103,-88.2096755607328,65.944884,,,772.39860542542,6.889764,9.2609316,9.7545606796,15.4239506248,22,10,22.4645,773.71094142542,67.25722,9.2609316,9.7545606796,-3.131716,-8.724066,0,250.6, -24, 4,0,0,1024,1024,1024,1024,0,0,0,0,0,0,0,70,,,,,,,9.078,88.34,772.39860542542,65.944884,14,Waypoint,
300800,2023-10-10 22:03:03,40.0688729936746,-88.2096801448748,65.944884,,,772.39860542542,6.889764,9.7754278,11.1187339516,16.7902564428,22,10,22.394,773.71094142542,67.25722,9.7754278,11.1187339516,-3.35541,-9.171454,0,250.5, -24.3, 3.8,0,0,1024,1024,1024,1024,0,0,0,0,0,0,0,69,,,,,,,11.425,88.34,772.39860542542,65.944884,14,Waypoint,
300900,2023-10-10 22:03:03,40.0688715383599,-88.2096852608294,65.6168,,,772.07052142542,6.889764,9.7754278,12.6407156276,18.3141738144,22,10,22.394,773.71094142542,67.25722,9.7754278,12.6407156276,-3.579104,-9.618842,0,250.7, -24.4, 3.5,0,0,1024,1024,1024,1024,0,0,0,0,0,0,0,69,,,,,,,11.425,88.34,772.07052142542,65.6168,14,Waypoint,
301000,2023-10-10 22:03:04,40.0688700962005,-88.2096903723511,65.6168,,,772.07052142542,6.889764,10.8938978,14.1601382484,19.8352368552,22,10,22.394,773.71094142542,67.25722,10.8938978,14.1601382484,-3.579104,-10.289924,0,250.7, -24.5, 3.4,0,0,1024,1024,1024,1024,0,0,0,0,0,0,0,69,,,,,,,11.425,88.34,772.07052142542,65.6168,14,Waypoint,
301100,2023-10-10 22:03:04,40.0688684797097,-88.2096962049826,65.6168,,,772.07052142542,6.889764,11.3860246,15.8902236056,21.567257908,22,10,22.394,773.71094142542,67.25722,11.3860246,15.8902236056,-3.802798,-10.737312,0,250.8, -24.3, 3.3,0,0,1024,1024,1024,1024,0,0,0,0,0,0,0,69,,,,,,,11.425,88.34,772.07052142542,65.6168,14,Waypoint,
301200,2023-10-10 22:03:04,40.0688669272962,-88.2097018340999,65.6168,,,772.07052142542,6.889764,11.8781514,17.559219722,23.2379272528,22,10,22.394,773.71094142542,67.25722,11.8781514,17.559219722,-4.026492,-11.1847,0,250.9, -23.7, 3.3,0,0,1024,1024,1024,1024,0,0,0,0,0,0,0,70,,,,,,,11.425,88.34,772.07052142542,65.6168,14,Waypoint,
301300,2023-10-10 22:03:04,40.0688652316123,-88.2097080114072,65.6168,,,772.07052142542,6.889764,12.30317,19.3900268672,25.0702763928,22,10,22.394,773.71094142542,67.25722,12.30317,19.3900268672,-4.026492,-11.632088,0,251, -22.1, 3.4,0,0,1024,1024,1024,1024,0,0,0,0,0,0,0,70,,,,,,,11.425,88.34,772.07052142542,65.6168,14,Waypoint,
301400,2023-10-10 22:03:04,40.0688635243782,-88.2097142256001,65.6168,,,772.07052142542,6.889764,12.7952968,21.2322185272,26.9137475804,22,10,22.394,773.71094142542,67.25722,12.7952968,21.2322185272,-4.250186,-12.079476,0,251.1, -20.7, 3.6,0,0,1024,1024,1024,1024,0,0,0,0,0,0,0,70,,,,,,,11.425,88.34,772.07052142542,65.6168,14,Waypoint,
301500,2023-10-10 22:03:04,40.068861732451,-88.2097207996484,65.6168,,,772.07052142542,6.889764,13.0189908,23.1794298756,28.8622384564,22,10,22.394,773.71094142542,67.25722,13.0189908,23.1794298756,-4.250186,-12.30317,0,251.3, -18.5, 3.6,0,0,1024,1024,1024,1024,0,0,0,0,0,0,0,70,,,,,,,11.425,88.34,772.07052142542,65.6168,14,Waypoint,
301600,2023-10-10 22:03:04,40.0688600044276,-88.2097271678875,65.6168,,,772.07052142542,6.889764,13.0189908,25.06479739,30.7487870732,22,10,22.394,773.71094142542,67.25722,13.0189908,25.06479739,-4.250186,-12.526864,0,251.4, -16.1, 3.4,0,0,1024,1024,1024,1024,0,0,0,0,0,0,0,70,,,,,,,11.425,88.34,772.07052142542,65.6168,14,Waypoint,
301700,2023-10-10 22:03:04,40.0688581805892,-88.2097339539355,65.6168,,,772.07052142542,6.889764,13.309793,27.0717200264,32.7569564288,22,10,22.394,773.71094142542,67.25722,13.309793,27.0717200264,-4.47388,-12.526864,0,251.4, -13.6, 3.4,0,0,1024,1024,1024,1024,0,0,0,0,0,0,0,70,,,,,,,11.425,88.34,772.07052142542,65.6168,14,Waypoint,
301800,2023-10-10 22:03:04,40.0688564197101,-88.209740523271,65.6168,,,772.07052142542,6.889764,13.309793,29.01410854,34.700460428,22,10,22.43,773.71094142542,67.25722,13.309793,29.01410854,-4.47388,-12.526864,0,251.5, -11.4, 3.3,0,0,1024,1024,1024,1024,0,0,0,0,0,0,0,69,,,,,,,10.513,88.34,772.07052142542,65.6168,14,Waypoint,
301900,2023-10-10 22:03:05,40.0688545778602,-88.2097472864264,65.6168,,,772.07052142542,6.889764,13.309793,31.0177503364,36.704725584,22,10,22.43,773.71094142542,67.25722,13.309793,31.0177503364,-4.47388,-12.526864,0,251.5, -10.1, 3.5,0,0,1024,1024,1024,1024,0,0,0,0,0,0,0,69,,,,,,,10.513,88.34,772.07052142542,65.6168,14,Waypoint,
302000,2023-10-10 22:03:05,40.0688528270299,-88.2097536671306,65.6168,,,772.07052142542,6.889764,13.309793,32.909777956,38.59744218,22,10,22.43,773.71094142542,67.25722,13.309793,32.909777956,-4.47388,-12.30317,0,251.5, -9, 3.3,0,0,1024,1024,1024,1024,0,0,0,0,0,0,0,69,,,,,,,10.513,88.34,772.07052142542,65.6168,14,Waypoint,
302100,2023-10-10 22:03:05,40.0688509456679,-88.2097604125766,65.6168,,,772.07052142542,6.889764,13.0189908,34.914043112,40.60203542,22,10,22.43,773.71094142542,67.25722,13.309793,34.914043112,-4.250186,-12.30317,0,251.4, -7.8, 3.3,0,0,1024,1024,1024,1024,0,0,0,0,0,0,0,69,,,,,,,10.513,88.34,772.07052142542,65.6168,14,Waypoint,
302200,2023-10-10 22:03:05,40.0688492050556,-88.2097666532052,65.6168,,,772.07052142542,6.889764,12.7952968,36.76837388,42.456366188,22,10,22.43,773.71094142542,67.25722,13.309793,36.76837388,-4.250186,-12.079476,0,251.4, -6.3, 3.6,0,0,1024,1024,1024,1024,0,0,0,0,0,0,0,70,,,,,,,10.513,88.34,772.07052142542,65.6168,14,Waypoint,
302300,2023-10-10 22:03:05,40.0688473948705,-88.2097731218751,65.6168,,,772.07052142542,6.889764,12.5939722,38.691274204,44.379594596,22,10,22.43,773.71094142542,67.25722,13.309793,38.691274204,-4.250186,-11.855782,0,251.4, -4.3, 3.9,0,0,1024,1024,1024,1024,0,0,0,0,0,0,0,70,,,,,,,10.513,88.34,772.07052142542,65.6168,14,Waypoint,
302400,2023-10-10 22:03:05,40.0688457097943,-88.2097791477447,65.6168,,,772.07052142542,6.889764,12.30317,40.482612844,46.170933236,22,10,22.43,773.71094142542,67.25722,13.309793,40.482612844,-4.026492,-11.632088,0,251.5, -2.2, 4.2,0,0,1024,1024,1024,1024,0,0,0,0,0,0,0,70,,,,,,,10.513,88.34,772.07052142542,65.6168,14,Waypoint,
302500,2023-10-10 22:03:05,40.0688439006586,-88.2097855126537,65.6168,,,772.07052142542,6.889764,12.30317,42.378282196,48.066602588,22,10,22.43,773.71094142542,67.25722,13.309793,42.378282196,-4.026492,-11.1847,0,251.8, -0.8, 4.4,0,0,1024,1024,1024,1024,0,0,0,0,0,0,0,70,,,,,,,10.513,88.34,772.07052142542,65.6168,14,Waypoint,
302600,2023-10-10 22:03:05,40.0688423173726,-88.2097912458065,65.6168,,,772.07052142542,6.889764,11.6768268,44.07972582,49.768374296,22,10,22.43,773.71094142542,67.25722,13.309793,44.07972582,-4.026492,-10.961006,0,252.1, 1.3, 4.6,0,0,1024,1024,1024,1024,0,0,0,0,0,0,0,70,,,,,,,10.513,88.34,772.07052142542,65.6168,14,Waypoint,
302700,2023-10-10 22:03:05,40.0688407341465,-88.2097970629229,65.6168,,,772.07052142542,6.889764,11.1847,45.803479156,51.492127632,22,10,22.43,773.71094142542,67.25722,13.309793,45.803479156,-3.802798,-10.513618,0,252.2, 3.6, 4.9,0,0,1024,1024,1024,1024,0,0,0,0,0,0,0,70,,,,,,,10.513,88.34,772.07052142542,65.6168,14,Waypoint,
