time(millisecond),datetime(utc),latitude,longitude,height_above_takeoff(feet),height_above_ground_at_drone_location(feet),ground_elevation_at_drone_location(feet),altitude_above_seaLevel(feet),height_sonar(feet),speed(mph),distance(feet),mileage(feet),satellites,gpslevel,voltage(v),max_altitude(feet),max_ascent(feet),max_speed(mph),max_distance(feet), xSpeed(mph), ySpeed(mph), zSpeed(mph), compass_heading(degrees), pitch(degrees), roll(degrees),isPhoto,isVideo,rc_elevator,rc_aileron,rc_throttle,rc_rudder,rc_elevator(percent),rc_aileron(percent),rc_throttle(percent),rc_rudder(percent),gimbal_heading(degrees),gimbal_pitch(degrees),gimbal_roll(degrees),battery_percent,voltageCell1,voltageCell2,voltageCell3,voltageCell4,voltageCell5,voltageCell6,current(A),battery_temperature(f),altitude(feet),ascent(feet),flycStateRaw,flycState,message
117400,2023-10-10 22:28:16,40.0688687918936,-88.2096654498154,0,Available with any HD 360 subscription,Available with any HD 360 subscription,706.40956722453,0.656168,0,0,0,23,10,0,706.40956722453,0,0,0,0,0,0,179.5, -0.1, 0,0,0,1024,1024,1024,1024,0,0,0,0,0,0,0,53,,,,,,,0,86,706.40956722453,0,41,Motors_Started,"GEO: You are in a Warning Zone (Airport). Fly with caution."
117500,2023-10-10 22:28:16,40.0688687956137,-88.209665453101,0,,,706.40956722453,0.656168,0,0.00163821855636,0.00163821855636,23,10,0,706.40956722453,0,0,0.00163821855636,0,0,0,179.5, -0.1, 0,0,0,1024,1024,1024,1024,0,0,0,0,0,0,0,53,,,,,,,0,86,706.40956722453,0,41,Motors_Started,
117600,2023-10-10 22:28:16,40.0688687767454,-88.20966543027,0,,,706.40956722453,0.656168,0,0.007767060616,0.0110204399852,23,10,0,706.40956722453,0,0,0.007767060616,0,0,0,179.5, -0.1, 0,0,0,1024,1024,1024,1024,0,0,0,0,0,0,0,53,,,,,,,0,86,706.40956722453,0,41,Motors_Started,"Setting new Return-To-Home altitude to 100m (328 ft). Data Recorder File Index is 39. Setting new Maximum Flight Altitude to 120m (394 ft)"
117700,2023-10-10 22:28:16,40.0688687751755,-88.2096654271748,0,,,706.40956722453,0.656168,0,0.0075658138904,0.012057251042,23,10,0,706.40956722453,0,0,0.007767060616,0,0,0,179.5, -0.1, 0,0,0,1024,1024,1024,1024,0,0,0,0,0,0,0,53,,,,,,,0,86,706.40956722453,0,41,Motors_Started,"Home Point recorded. Return-to-Home Altitude:100.0 m"
117800,2023-10-10 22:28:16,40.0688687714426,-88.209665427964,0,,,706.40956722453,0.656168,0,0.0084084320276,0.0134369098788,23,10,0,706.40956722453,0,0,0.0084084320276,0,0,0,179.5, -0.1, 0,0,0,1024,1024,1024,1024,0,0,0,0,0,0,0,53,,,,,,,0,86,706.40956722453,0,41,Motors_Started,
117900,2023-10-10 22:28:16,40.0688687540092,-88.2096654248743,0,,,706.40956722453,0.656168,0,0.0142766080684,0.0198557092968,23,10,21.682,706.40956722453,0,0,0.0142766080684,0,0,0,179.5, -0.1, 0,0,0,1024,1024,1024,1024,0,0,0,0,0,0,0,52,,,,,,,0.375,86,706.40956722453,0,41,Motors_Started,
118000,2023-10-10 22:28:17,40.0688687582669,-88.2096654344008,0,,,706.40956722453,0.656168,0,0.0118490161272,0.0229359587392,23,10,21.682,706.40956722453,0,0,0.0142766080684,0,0,0,179.5, -0.1, 0,0,0,1024,1024,1024,1024,0,0,0,0,0,0,0,52,,,,,,,0.375,86,706.40956722453,0,41,Motors_Started,
118100,2023-10-10 22:28:17,40.0688687640987,-88.2096654417023,0,,,706.40956722453,0.656168,0,0.0093030514788,0.025882710802,23,10,21.682,706.40956722453,0,0,0.0142766080684,0,0,0,179.5, -0.1, 0,0,0,1024,1024,1024,1024,0,0,0,0,0,0,0,52,,,,,,,0.375,86,706.40956722453,0,41,Motors_Started,
118200,2023-10-10 22:28:17,40.0688687666559,-88.2096654375688,0,,,706.40956722453,0.656168,0,0.008664042272,0.0273667659676,23,10,21.682,706.40956722453,0,0,0.0142766080684,0,0,0,179.5, -0.1, 0,0,0,1024,1024,1024,1024,0,0,0,0,0,0,0,52,,,,,,,0.375,86,706.40956722453,0,41,Motors_Started,
118300,2023-10-10 22:28:17,40.0688687611582,-88.2096654192128,0,,,706.40956722453,0.656168,0,0.0128686355824,0.032870407876,23,10,21.682,706.40956722453,0,0,0.0142766080684,0,0,0,179.5, -0.1, 0,0,0,1024,1024,1024,1024,0,0,0,0,0,0,0,52,,,,,,,0.375,86,706.40956722453,0,41,Motors_Started,
118400,2023-10-10 22:28:17,40.0688687698513,-88.2096654199376,0,,,706.40956722453,0.656168,0,0.010368438652,0.036048557584,23,10,21.682,706.40956722453,0,0,0.0142766080684,0,0,0,179.4, -0.1, 0,0,0,1024,1024,1024,1024,0,0,0,0,0,0,0,52,,,,,,,0.375,86,706.40956722453,0,41,Motors_Started,
118500,2023-10-10 22:28:17,40.0688687808103,-88.2096654203798,0,,,706.40956722453,0.656168,0,0.00806184409,0.040048885796,23,10,21.682,706.40956722453,0,0,0.0142766080684,0,0,0,179.5, -0.1, 0,0,0,1024,1024,1024,1024,0,0,0,0,0,0,0,52,,,,,,,0.375,86,706.40956722453,0,41,Motors_Started,
118600,2023-10-10 22:28:17,40.0688687852736,-88.2096654180513,0,,,706.40956722453,0.656168,0,0.0082283139116,0.041802166692,23,10,21.682,706.40956722453,0,0,0.0142766080684,0,0,0,179.6, 0, 0,0,0,1024,1024,1024,1024,0,0,0,0,0,0,0,53,,,,,,,0.375,86,706.40956722453,0,41,Motors_Started,
118700,2023-10-10 22:28:17,40.068868791251,-88.2096654263772,0,,,706.40956722453,0.656168,0,0.0058189634408,0.044989830836,23,10,21.682,706.40956722453,0,0,0.0142766080684,0,0,0,179.5, 0, 0,0,0,1024,1024,1024,1024,0,0,0,0,0,0,0,53,,,,,,,0.375,86,706.40956722453,0,41,Motors_Started,
118800,2023-10-10 22:28:17,40.0688687938468,-88.2096654347674,0,,,706.40956722453,0.656168,0,0.0038165355552,0.047516733804,23,10,21.682,706.40956722453,0,0,0.0142766080684,0,0,0,179.5, 0, 0,0,0,1024,1024,1024,1024,0,0,0,0,0,0,0,53,,,,,,,0.375,86,706.40956722453,0,41,Motors_Started,
118900,2023-10-10 22:28:17,40.068868798143,-88.2096654446856,0,,,706.40956722453,0.656168,0,0.0033058071924,0.05069882052,23,10,21.682,706.40956722453,0,0,0.0142766080684,0,0,0,179.5, -0.1, 0,0,0,1024,1024,1024,1024,0,0,0,0,0,0,0,53,,,,,,,0.375,86,706.40956722453,0,41,Motors_Started,
119000,2023-10-10 22:28:18,40.0688687796388,-88.2096654545563,0,,,706.40956722453,0.656168,0,0.0040892717844,0.057990815504,23,10,21.682,706.40956722453,0,0,0.0142766080684,0,0,0,179.5, -0.1, 0,0,0,1024,1024,1024,1024,0,0,0,0,0,0,0,53,,,,,,,0.375,86,706.40956722453,0,41,Motors_Started,
119100,2023-10-10 22:28:18,40.0688687794589,-88.2096654603074,0,,,706.40956722453,0.656168,0,0.005146981792,0.059597770936,23,10,21.682,706.40956722453,0,0,0.0142766080684,0,0,0,179.5, -0.1, 0,0,0,1024,1024,1024,1024,0,0,0,0,0,0,0,53,,,,,,,0.375,86,706.40956722453,0,41,Motors_Started,
119200,2023-10-10 22:28:18,40.0688687831705,-88.2096654531066,0,,,706.40956722453,0.656168,0,0.00279275599488,0.062021983612,23,10,21.682,706.40956722453,0,0,0.0142766080684,0,0,0,179.5, -0.1, 0,0,0,1024,1024,1024,1024,0,0,0,0,0,0,0,53,,,,,,,0.375,86,706.40956722453,0,41,Motors_Started,
119300,2023-10-10 22:28:18,40.0688687833075,-88.2096654357665,0,,,706.40956722453,0.656168,0,0.0038290355556,0.066863847284,23,10,21.682,706.40956722453,0,0,0.0142766080684,0,0,0,179.5, -0.1, 0,0,0,1024,1024,1024,1024,0,0,0,0,0,0,0,53,,,,,,,0.375,86,706.40956722453,0,41,Motors_Started,
119400,2023-10-10 22:28:18,40.0688687844405,-88.2096654267774,0,,,706.40956722453,0.656168,0,0.0059293637068,0.069407482536,23,10,21.682,706.40956722453,0,0,0.0142766080684,0,0,0,179.5, -0.1, 0,0,0,1024,1024,1024,1024,0,0,0,0,0,0,0,53,,,,,,,0.375,86,706.40956722453,0,11,AutoTakeoff,
119500,2023-10-10 22:28:18,40.0688687837423,-88.209665415888,0,,,706.40956722453,0.656168,0,0.0089326774512,0.072458335652,23,10,21.682,706.40956722453,0,0,0.0142766080684,0,0,0,179.5, -0.1, 0,0,0,1024,1024,1024,1024,0,0,0,0,0,0,0,53,,,,,,,0.375,86,706.40956722453,0,11,AutoTakeoff,
119600,2023-10-10 22:28:18,40.0688687944936,-88.2096654157873,0,,,706.40956722453,0.656168,0,0.0089364504172,0.07638123604,23,10,21.682,706.40956722453,0,0,0.0142766080684,0,0,0,179.5, -0.1, 0,0,0,1024,1024,1024,1024,0,0,0,0,0,0,0,53,,,,,,,0.375,86,706.40956722453,0,11,AutoTakeoff,
119700,2023-10-10 22:28:18,40.0688687956822,-88.209665403437,0,,,706.40956722453,0.656168,0,0.0124017720504,0.079856629852,23,10,21.682,706.40956722453,0,0,0.0142766080684,0,0,0,179.5, -0.1, 0,0,0,1024,1024,1024,1024,0,0,0,0,0,0,0,53,,,,,,,0.375,86,706.40956722453,0,11,AutoTakeoff,
119800,2023-10-10 22:28:18,40.0688687987941,-88.2096654078924,0,,,706.40956722453,0.656168,0,0.0114741473488,0.081540685024,23,10,21.682,706.40956722453,0,0,0.0142766080684,0,0,0,179.5, -0.1, 0,0,0,1024,1024,1024,1024,0,0,0,0,0,0,0,53,,,,,,,0.375,86,706.40956722453,0,11,AutoTakeoff,
119900,2023-10-10 22:28:18,40.0688688036343,-88.2096654123618,0,,,706.40956722453,0.656168,0,0.0110145016648,0.083703086668,23,10,21.6225,706.40956722453,0,0,0.0142766080684,0,0,0,179.5, 0, 0,0,0,1024,1024,1024,1024,0,0,0,0,0,0,0,52,,,,,,,0.973,86,706.40956722453,0,11,AutoTakeoff,
120000,2023-10-10 22:28:19,40.0688688084467,-88.2096654203434,0,,,706.40956722453,0.656168,0,0.010227526574,0.0865403571,23,10,21.6225,706.40956722453,0,0,0.0142766080684,0,0,0,179.6, 0, 0,0,0,1024,1024,1024,1024,0,0,0,0,0,0,0,52,,,,,,,0.973,86,706.40956722453,0,11,AutoTakeoff,
120100,2023-10-10 22:28:19,40.0688688183177,-88.209665443541,0,,,706.40956722453,0.656168,0,0.0106449478472,0.093951118492,23,10,21.6225,706.40956722453,0,0,0.0142766080684,0,0,0,179.5, 0, -0.1,0,0,1024,1024,1024,1024,0,0,0,0,0,0,0,52,,,,,,,0.973,86,706.40956722453,0,11,AutoTakeoff,
120200,2023-10-10 22:28:19,40.0688688287691,-88.2096654658542,0,,,706.40956722453,0.656168,0,0.01533874721,0.101255580668,23,10,21.6225,706.40956722453,0,0,0.01533874721,0,0,0,179.5, 0.6, -0.2,0,0,1024,1024,1024,1024,0,0,0,0,0,0,0,52,,,,,,,0.973,86,706.40956722453,0,11,AutoTakeoff,
120300,2023-10-10 22:28:19,40.0688688670325,-88.2096654795366,0,,,706.40956722453,0.656168,0,0.0297872712944,0.115729334412,23,10,21.6225,706.40956722453,0,0,0.0297872712944,0,0,0,179.3, 2.2, -0.1,0,0,1024,1024,1024,1024,0,0,0,0,0,0,0,52,,,,,,,0.973,86,706.40956722453,0,11,AutoTakeoff,
120400,2023-10-10 22:28:19,40.0688689275887,-88.2096654657591,0,,,706.40956722453,0.656168,0.223694,0.05073655018,0.138155516232,23,10,21.6225,706.40956722453,0,0.223694,0.05073655018,0.223694,0,-0.223694,178.7, 4.3, 0,0,0,1024,1024,1024,1024,0,0,0,0,0,0,0,52,,,,,,,0.973,86,706.40956722453,0,11,AutoTakeoff,
120500,2023-10-10 22:28:19,40.0688690843603,-88.2096654546151,0,,,706.40956722453,0.656168,0.447388,0.107685698984,0.19543799838,23,10,21.6225,706.40956722453,0,0.447388,0.107685698984,0.447388,0,-0.447388,178.1, 4.5, 0.3,0,0,1024,1024,1024,1024,0,0,0,0,0,0,0,52,,,,,,,0.973,86,706.40956722453,0,11,AutoTakeoff,
120600,2023-10-10 22:28:19,40.0688693392897,-88.2096654397153,0,,,706.40956722453,0.656168,0.671082,0.200686358128,0.288542003984,23,10,21.6225,706.40956722453,0,0.671082,0.200686358128,0.671082,0,-0.894776,177.9, 1.1, 0.7,0,0,1024,1024,1024,1024,0,0,0,0,0,0,0,53,,,,,,,0.973,86,706.40956722453,0,11,AutoTakeoff,
120700,2023-10-10 22:28:19,40.0688695902999,-88.2096653853189,0.328084,,,706.73765122453,0.984252,0.671082,0.292764773148,0.38137468412,23,10,21.6225,706.73765122453,0.328084,0.671082,0.292764773148,0.671082,0,-1.11847,177.9, -1.6, 0.1,0,0,1024,1024,1024,1024,0,0,0,0,0,0,0,53,,,,,,,0.973,86,706.73765122453,0.328084,11,AutoTakeoff,
120800,2023-10-10 22:28:19,40.0688698342511,-88.2096653345159,0.328084,,,706.73765122453,1.312336,0.447388,0.38255578652,0.47150263976,23,10,21.6225,706.73765122453,0.328084,0.671082,0.38255578652,0.447388,0,-1.342164,178.2, -3, 0,0,0,1024,1024,1024,1024,0,0,0,0,0,0,0,53,,,,,,,0.973,86,706.73765122453,0.328084,11,AutoTakeoff,
120900,2023-10-10 22:28:20,40.0688700186355,-88.2096652664567,0.656168,,,707.06573522453,1.64042,0.447388,0.451361563,0.54140749764,23,10,21.389,707.06573522453,0.656168,0.671082,0.451361563,0.447388,0,-1.342164,178.3, -3.6, 0.5,0,0,1024,1024,1024,1024,0,0,0,0,0,0,0,52,,,,,,,8.794,86,707.06573522453,0.656168,11,AutoTakeoff,
121000,2023-10-10 22:28:20,40.0688701530928,-88.2096651837049,0.984252,,,707.39381922453,1.968504,0.223694,0.50299542292,0.59563322116,23,10,21.389,707.39381922453,0.984252,0.671082,0.50299542292,0.223694,0,-1.342164,178.4, -3.2, 0.5,0,0,1024,1024,1024,1024,0,0,0,0,0,0,0,52,,,,,,,8.794,86,707.39381922453,0.984252,11,AutoTakeoff,
121100,2023-10-10 22:28:20,40.0688702314508,-88.2096650647364,0.984252,,,707.39381922453,1.968504,0.223694,0.53689962348,0.63945868188,23,10,21.389,707.39381922453,0.984252,0.671082,0.53689962348,0.223694,0,-1.342164,178.4, -2.4, 0.1,0,0,1024,1024,1024,1024,0,0,0,0,0,0,0,52,,,,,,,8.794,86,707.39381922453,0.984252,11,AutoTakeoff,
121200,2023-10-10 22:28:20,40.0688702841064,-88.2096649501784,1.312336,,,707.72190322453,2.296588,0.223694,0.56275920436,0.6767716752,23,10,21.389,707.72190322453,1.312336,0.671082,0.56275920436,0,0.223694,-1.342164,178.4, -1.7, 0.5,0,0,1024,1024,1024,1024,0,0,0,0,0,0,0,52,,,,,,,8.794,86,707.72190322453,1.312336,11,AutoTakeoff,
121300,2023-10-10 22:28:20,40.0688703139123,-88.2096648197104,1.64042,,,708.04998722453,2.296588,0.223694,0.58319227588,0.71478676828,23,10,21.389,708.04998722453,1.64042,0.671082,0.58319227588,0,0.223694,-1.342164,178.3, -1.2, 1.5,0,0,1024,1024,1024,1024,0,0,0,0,0,0,0,52,,,,,,,8.794,86,708.04998722453,1.64042,11,AutoTakeoff,
121400,2023-10-10 22:28:20,40.0688703239761,-88.2096646523149,1.64042,,,708.04998722453,2.624672,0.223694,0.60230316888,0.76166997188,23,10,21.389,708.04998722453,1.64042,0.671082,0.60230316888,0,0.223694,-1.11847,178.2, -1.2, 2.5,0,0,1024,1024,1024,1024,0,0,0,0,0,0,0,52,,,,,,,8.794,86,708.04998722453,1.64042,11,AutoTakeoff,
121500,2023-10-10 22:28:20,40.0688703335002,-88.2096645255523,1.968504,,,708.37807122453,2.952756,0.223694,0.61937994108,0.79723099664,23,10,21.389,708.37807122453,1.968504,0.671082,0.61937994108,0,0.223694,-1.11847,178.2, -1.1, 2.7,0,0,1024,1024,1024,1024,0,0,0,0,0,0,0,52,,,,,,,8.794,86,708.37807122453,1.968504,11,AutoTakeoff,
121600,2023-10-10 22:28:20,40.0688703628574,-88.2096644147332,1.968504,,,708.37807122453,2.952756,0.223694,0.64241471872,0.82997377984,23,10,21.389,708.37807122453,1.968504,0.671082,0.64241471872,0,0,-1.11847,178.3, -1, 2.4,0,0,1024,1024,1024,1024,0,0,0,0,0,0,0,53,,,,,,,8.794,86,708.37807122453,1.968504,11,AutoTakeoff,
121700,2023-10-10 22:28:20,40.068870375261,-88.2096643333919,2.296588,,,708.70615522453,2.952756,0,0.65690290816,0.8531332294,23,10,21.389,708.70615522453,2.296588,0.671082,0.65690290816,0,0,-1.11847,178.4, -0.7, 1.7,0,0,1024,1024,1024,1024,0,0,0,0,0,0,0,53,,,,,,,8.794,86,708.70615522453,2.296588,11,AutoTakeoff,
121800,2023-10-10 22:28:20,40.0688703885983,-88.2096642186632,2.296588,,,708.70615522453,3.28084,0,0.67685041536,0.88553480524,23,10,21.389,708.70615522453,2.296588,0.671082,0.67685041536,0,0,-0.894776,178.5, -0.4, 0.8,0,0,1024,1024,1024,1024,0,0,0,0,0,0,0,53,,,,,,,8.794,86,708.70615522453,2.296588,11,AutoTakeoff,
121900,2023-10-10 22:28:21,40.0688703731428,-88.2096641349543,2.624672,,,709.03423922453,3.28084,0,0.684219182,0.90957680076,23,10,21.408,709.03423922453,2.624672,0.671082,0.684219182,0,0,-0.894776,178.5, -0.2, 0.7,0,0,1024,1024,1024,1024,0,0,0,0,0,0,0,52,,,,,,,8.628,86,709.03423922453,2.624672,11,AutoTakeoff,
122000,2023-10-10 22:28:21,40.0688703593065,-88.2096640348203,2.624672,,,709.03423922453,3.608924,0,0.6954232506,0.93798559432,23,10,21.408,709.03423922453,2.624672,0.671082,0.6954232506,0,0,-0.894776,178.4, -0.2, 1.5,0,0,1024,1024,1024,1024,0,0,0,0,0,0,0,52,,,,,,,8.628,86,709.03423922453,2.624672,14,Waypoint,
122100,2023-10-10 22:28:21,40.0688703406748,-88.2096639153928,2.952756,,,709.36232322453,3.608924,0,0.70942259488,0.97201774764,23,10,21.408,709.36232322453,2.952756,0.671082,0.70942259488,0,0,-0.894776,178, 0.5, 0.8,0,0,1024,1024,1024,1024,0,0,0,0,0,0,0,52,,,,,,,8.628,86,709.36232322453,2.952756,14,Waypoint,
122200,2023-10-10 22:28:21,40.0688703104942,-88.2096638120181,2.952756,,,709.36232322453,3.608924,0,0.71864831696,1.00291013708,23,10,21.408,709.36232322453,2.952756,0.671082,0.71864831696,0,0,-0.671082,177.8, 0.7, 0.9,0,0,1024,1024,1024,1024,0,0,0,0,0,0,0,52,,,,,,,8.628,86,709.36232322453,2.952756,14,Waypoint,
122300,2023-10-10 22:28:21,40.0688702885376,-88.2096637150017,2.952756,,,709.36232322453,3.937008,0,0.73013125696,1.03115816948,23,10,21.408,709.36232322453,2.952756,0.671082,0.73013125696,0,0,-0.447388,177.7, 0.3, 1.2,0,0,1024,1024,1024,1024,0,0,0,0,0,0,0,52,,,,,,,8.628,86,709.36232322453,2.952756,14,Waypoint,
122400,2023-10-10 22:28:21,40.0688702633813,-88.2096636219734,3.28084,,,709.69040722453,3.937008,0,0.74089897384,1.05870738296,23,10,21.408,709.69040722453,3.28084,0.671082,0.74089897384,0,0,-0.447388,177.6, 0.1, 1.1,0,0,1024,1024,1024,1024,0,0,0,0,0,0,0,52,,,,,,,8.628,86,709.69040722453,3.28084,14,Waypoint,
122500,2023-10-10 22:28:21,40.0688702211322,-88.209663540758,3.28084,,,709.69040722453,3.937008,0,0.74579726796,1.08612536284,23,10,21.408,709.69040722453,3.28084,0.671082,0.74579726796,0,0,-0.447388,177.6, 0, 1,0,0,1024,1024,1024,1024,0,0,0,0,0,0,0,52,,,,,,,8.628,86,709.69040722453,3.28084,14,Waypoint,
122600,2023-10-10 22:28:21,40.0688701790587,-88.2096634634607,3.28084,,,709.69040722453,3.937008,0,0.75089897416,1.11260830332,23,10,21.408,709.69040722453,3.28084,0.671082,0.75089897416,0,0,-0.447388,177.6, 0, 0.9,0,0,1024,1024,1024,1024,0,0,0,0,0,0,0,52,,,,,,,8.628,86,709.69040722453,3.28084,14,Waypoint,
122700,2023-10-10 22:28:21,40.0688701331774,-88.2096633856148,3.28084,,,709.69040722453,3.937008,0,0.75610894808,1.1400426874,23,10,21.408,709.69040722453,3.28084,0.671082,0.75610894808,0,0,-0.671082,177.6, 0, 1,0,0,1024,1024,1024,1024,0,0,0,0,0,0,0,52,,,,,,,8.628,86,709.69040722453,3.28084,14,Waypoint,
122800,2023-10-10 22:28:21,40.0688700511293,-88.2096633626634,3.608924,,,710.01849122453,4.265092,0,0.74206367204,1.17065620544,23,10,21.408,710.01849122453,3.608924,0.671082,0.75610894808,0,0,-0.894776,177.8, 0.2, 1.3,0,0,1024,1024,1024,1024,0,0,0,0,0,0,0,52,,,,,,,8.628,86,710.01849122453,3.608924,14,Waypoint,
122900,2023-10-10 22:28:21,40.0688699998358,-88.2096632977751,3.608924,,,710.01849122453,4.265092,0,0.74511485324,1.19670607504,23,10,21.374,710.01849122453,3.608924,0.671082,0.75610894808,0,0,-1.11847,177.9, 0.6, 1.3,0,0,1024,1024,1024,1024,0,0,0,0,0,0,0,52,,,,,,,8.703,85.82,710.01849122453,3.608924,14,Waypoint,
123000,2023-10-10 22:28:22,40.0688699466513,-88.2096631917976,3.937008,,,710.34657522453,4.593176,0,0.7581693156,1.23208993444,23,10,21.374,710.34657522453,3.937008,0.671082,0.7581693156,0,0,-1.565858,178, 0.8, 1.3,0,0,1024,1024,1024,1024,0,0,0,0,0,0,0,52,,,,,,,8.703,85.82,710.34657522453,3.937008,14,Waypoint,
123100,2023-10-10 22:28:22,40.0688699090218,-88.2096630949968,4.265092,,,710.67465922453,4.92126,0,0.77342194076,1.26240489604,23,10,21.374,710.67465922453,4.265092,0.671082,0.77342194076,0,0,-2.23694,178.1, 0.9, 1.3,0,0,1024,1024,1024,1024,0,0,0,0,0,0,0,52,,,,,,,8.703,85.82,710.67465922453,4.265092,14,Waypoint,
123200,2023-10-10 22:28:22,40.0688698425052,-88.2096630013445,4.593176,,,711.00274322453,5.249344,0,0.7835630172,1.2980807502,23,10,21.374,711.00274322453,4.593176,0.671082,0.7835630172,0,0,-2.684328,178.3, 0.7, 1.4,0,0,1024,1024,1024,1024,0,0,0,0,0,0,0,52,,,,,,,8.703,85.82,711.00274322453,4.593176,14,Waypoint,
123300,2023-10-10 22:28:22,40.0688698272864,-88.2096629214696,4.92126,,,711.33082722453,5.577428,0,0.80042981564,1.3210630344,23,10,21.374,711.33082722453,4.92126,0.671082,0.80042981564,0,0,-3.35541,178.4, 0.4, 1.6,0,0,1024,1024,1024,1024,0,0,0,0,0,0,0,52,,,,,,,8.703,85.82,711.33082722453,4.92126,14,Waypoint,
123400,2023-10-10 22:28:22,40.0688698261363,-88.2096628304143,5.577428,,,711.98699522453,5.905512,0,0.82272312344,1.3464895444,23,10,21.374,711.98699522453,5.577428,0.671082,0.82272312344,0,0,-3.802798,178.5, 0.1, 1.8,0,0,1024,1024,1024,1024,0,0,0,0,0,0,0,52,,,,,,,8.703,85.82,711.98699522453,5.577428,14,Waypoint,
123500,2023-10-10 22:28:22,40.0688697679959,-88.2096627177482,6.233596,,,712.64316322453,6.56168,0,0.84156170672,1.38442917816,23,10,21.374,712.64316322453,6.233596,0.671082,0.84156170672,0,0,-4.250186,178.6, 0, 1.9,0,0,1024,1024,1024,1024,0,0,0,0,0,0,0,52,,,,,,,8.703,85.82,712.64316322453,6.233596,14,Waypoint,
123600,2023-10-10 22:28:22,40.0688697279913,-88.2096626283161,6.889764,,,713.29933122453,7.217848,0,0.85831039492,1.4133530636,23,10,21.374,713.29933122453,6.889764,0.671082,0.85831039492,0,0,-4.697574,178.6, 0.1, 1.9,0,0,1024,1024,1024,1024,0,0,0,0,0,0,0,52,,,,,,,8.703,85.82,713.29933122453,6.889764,14,Waypoint,
123700,2023-10-10 22:28:22,40.0688696913834,-88.2096625534227,7.545932,,,713.95549922453,7.545932,0,0.87239832188,1.43816605652,23,10,21.374,713.95549922453,7.545932,0.671082,0.87239832188,0,0,-5.144962,178.6, 0.1, 1.9,0,0,1024,1024,1024,1024,0,0,0,0,0,0,0,52,,,,,,,8.703,85.82,713.95549922453,7.545932,14,Waypoint,
123800,2023-10-10 22:28:22,40.0688696648693,-88.2096624955672,8.530184,,,714.93975122453,8.2021,0,0.88383533012,1.45699479728,23,10,21.374,714.93975122453,8.530184,0.671082,0.88383533012,0,0,-5.59235,178.6, 0.2, 2,0,0,1024,1024,1024,1024,0,0,0,0,0,0,0,52,,,,,,,8.703,85.82,714.93975122453,8.530184,14,Waypoint,
123900,2023-10-10 22:28:22,40.0688696320008,-88.2096624401941,9.186352,,,715.59591922453,8.858268,0,0.89407483176,1.47656172704,23,10,21.374,715.59591922453,9.186352,0.671082,0.89407483176,0,0,-5.816044,178.6, 0.2, 2.2,0,0,1024,1024,1024,1024,0,0,0,0,0,0,0,52,,,,,,,8.703,85.82,715.59591922453,9.186352,14,Waypoint,
124000,2023-10-10 22:28:23,40.0688696475452,-88.2096623893715,10.170604,,,716.58017122453,9.186352,0,0.9093504228,1.49184059892,23,10,21.374,716.58017122453,10.170604,0.671082,0.9093504228,0,0,-6.039738,178.5, 0, 2.4,0,0,1024,1024,1024,1024,0,0,0,0,0,0,0,52,,,,,,,8.703,85.82,716.58017122453,10.170604,14,Waypoint,
124100,2023-10-10 22:28:23,40.0688696589133,-88.2096623580663,11.154856,,,717.56442322453,9.84252,0,0.91898624988,1.50151579608,23,10,21.374,717.56442322453,11.154856,0.671082,0.91898624988,0,0,-6.263432,178.5, 0.1, 2.4,0,0,1024,1024,1024,1024,0,0,0,0,0,0,0,52,,,,,,,8.703,85.82,717.56442322453,11.154856,14,Waypoint,
124200,2023-10-10 22:28:23,40.0688696536511,-88.2096623337409,12.139108,,,718.54867522453,10.170604,0,0.924704754,1.50857616376,23,10,21.374,718.54867522453,12.139108,0.671082,0.924704754,0,0,-6.263432,178.5, 0.2, 2,0,0,1024,1024,1024,1024,0,0,0,0,0,0,0,52,,,,,,,8.703,85.82,718.54867522453,12.139108,14,Waypoint,
124300,2023-10-10 22:28:23,40.0688696489823,-88.209662337407,12.795276,,,719.20484322453,10.826772,0,0.9231627592,1.51056107196,23,10,21.374,719.20484322453,12.795276,0.671082,0.924704754,0,0,-6.487126,178.4, 0, 1.6,0,0,1024,1024,1024,1024,0,0,0,0,0,0,0,52,,,,,,,8.703,85.82,719.20484322453,12.795276,14,Waypoint,
124400,2023-10-10 22:28:23,40.0688696572535,-88.2096623145788,13.779528,,,720.18909522453,10.826772,0,0.9301837568,1.51761487796,23,10,21.374,720.18909522453,13.779528,0.671082,0.9301837568,0,0,-6.487126,178.3, -0.1, 1.6,0,0,1024,1024,1024,1024,0,0,0,0,0,0,0,52,,,,,,,8.703,85.82,720.18909522453,13.779528,14,Waypoint,
124500,2023-10-10 22:28:23,40.0688696589818,-88.2096622790142,14.76378,,,721.17334722453,11.154856,0,0.93973756288,1.52756566568,23,10,21.374,721.17334722453,14.76378,0.671082,0.93973756288,0,0,-6.487126,178.3, -0.6, 1.9,0,0,1024,1024,1024,1024,0,0,0,0,0,0,0,52,,,,,,,8.703,85.82,721.17334722453,14.76378,14,Waypoint,
124600,2023-10-10 22:28:23,40.0688696277881,-88.2096621897752,15.748032,,,722.15759922453,11.811024,0,0.95954071312,1.55495739884,23,10,21.374,722.15759922453,15.748032,0.671082,0.95954071312,0,0,-6.263432,178.3, -0.9, 2.2,0,0,1024,1024,1024,1024,0,0,0,0,0,0,0,52,,,,,,,8.703,85.82,722.15759922453,15.748032,14,Waypoint,
124700,2023-10-10 22:28:23,40.0688695855883,-88.2096621561892,16.732284,,,723.14185122453,12.139108,0,0.96367785236,1.57298561464,23,10,21.374,723.14185122453,16.732284,0.671082,0.96367785236,0,0,-6.263432,178.3, -0.5, 2.3,0,0,1024,1024,1024,1024,0,0,0,0,0,0,0,52,,,,,,,8.703,85.82,723.14185122453,16.732284,14,Waypoint,
124800,2023-10-10 22:28:23,40.0688695306412,-88.2096621456189,17.716536,,,724.12610322453,11.811024,0,0.96065619872,1.59324808248,23,10,21.374,724.12610322453,17.716536,0.671082,0.96367785236,0,0,-6.039738,178.4, 0.1, 2.4,0,0,1024,1024,1024,1024,0,0,0,0,0,0,0,52,,,,,,,8.703,85.82,724.12610322453,17.716536,14,Waypoint,
124900,2023-10-10 22:28:23,40.0688694780627,-88.2096621468978,18.372704,,,724.78227122453,12.139108,0,0.95508861324,1.6124344348,23,10,21.38,724.78227122453,18.372704,0.671082,0.96367785236,0,0,-5.59235,178.4, 0.9, 2.6,0,0,1024,1024,1024,1024,0,0,0,0,0,0,0,52,,,,,,,9.824,86,724.78227122453,18.372704,14,Waypoint,
125000,2023-10-10 22:28:24,40.0688694305472,-88.2096621582797,19.356956,,,725.76652322453,12.795276,0,0.94759517468,1.63005910728,23,10,21.38,725.76652322453,19.356956,0.671082,0.96367785236,0,0,-5.368656,178.4, 1.3, 2.6,0,0,1024,1024,1024,1024,0,0,0,0,0,0,0,52,,,,,,,9.824,86,725.76652322453,19.356956,14,Waypoint,
125100,2023-10-10 22:28:24,40.068869389596,-88.2096621776964,20.013124,,,726.42269122453,13.12336,0,0.93874346836,1.64595477708,23,10,21.38,726.42269122453,20.013124,0.671082,0.96367785236,0,0,-4.921268,178.4, 1.5, 2.6,0,0,1024,1024,1024,1024,0,0,0,0,0,0,0,52,,,,,,,9.824,86,726.42269122453,20.013124,14,Waypoint,
125200,2023-10-10 22:28:24,40.0688693356447,-88.209662207398,20.997376,,,727.40694322453,13.12336,0,0.9262467488,1.66731304548,23,10,21.38,727.40694322453,20.997376,0.671082,0.96367785236,0,0,-4.47388,178.3, 1.4, 2.5,0,0,1024,1024,1024,1024,0,0,0,0,0,0,0,52,,,,,,,9.824,86,727.40694322453,20.997376,14,Waypoint,
125300,2023-10-10 22:28:24,40.068869267736,-88.2096622447845,21.653544,,,728.06311122453,13.12336,0,0.91098428112,1.69419952928,23,10,21.38,728.06311122453,21.653544,0.671082,0.96367785236,0,0,-4.026492,178.3, 1.1, 2.2,0,0,1024,1024,1024,1024,0,0,0,0,0,0,0,52,,,,,,,9.824,86,728.06311122453,21.653544,14,Waypoint,
125400,2023-10-10 22:28:24,40.0688692233688,-88.209662280226,21.981628,,,728.39119522453,13.12336,0,0.89828086864,1.713172627,23,10,21.38,728.39119522453,21.981628,0.671082,0.96367785236,0,0,-3.579104,178.3, 1, 2,0,0,1024,1024,1024,1024,0,0,0,0,0,0,0,52,,,,,,,9.824,86,728.39119522453,21.981628,14,Waypoint,
125500,2023-10-10 22:28:24,40.0688691819186,-88.2096623167841,22.637796,,,729.04736322453,13.12336,0,0.885662758,1.73141737824,23,10,21.38,729.04736322453,22.637796,0.671082,0.96367785236,0,0,-3.131716,178.3, 0.9, 2.2,0,0,1024,1024,1024,1024,0,0,0,0,0,0,0,52,,,,,,,9.824,86,729.04736322453,22.637796,14,Waypoint,
125600,2023-10-10 22:28:24,40.0688691167791,-88.2096623870374,22.96588,,,729.37544722453,13.12336,0,0.86270015884,1.76223102752,23,10,21.38,729.37544722453,22.96588,0.671082,0.96367785236,0,0,-2.684328,178.4, 0.9, 2.5,0,0,1024,1024,1024,1024,0,0,0,0,0,0,0,52,,,,,,,9.824,86,729.37544722453,22.96588,14,Waypoint,
125700,2023-10-10 22:28:24,40.0688690765882,-88.2096624477083,23.293964,,,729.70353122453,13.12336,0,0.8439796858,1.78463588388,23,10,21.38,729.70353122453,23.293964,0.671082,0.96367785236,0,0,-2.013246,178.4, 0.8, 2.6,0,0,1024,1024,1024,1024,0,0,0,0,0,0,0,52,,,,,,,9.824,86,729.70353122453,23.293964,14,Waypoint,
125800,2023-10-10 22:28:24,40.0688690288735,-88.2096625204635,23.622048,,,730.03161522453,13.12336,0,0.82179464572,1.81139113408,23,10,21.38,730.03161522453,23.622048,0.671082,0.96367785236,0,0,-1.342164,178.5, 0.7, 2.5,0,0,1024,1024,1024,1024,0,0,0,0,0,0,0,52,,,,,,,9.824,86,730.03161522453,23.622048,14,Waypoint,
125900,2023-10-10 22:28:24,40.0688689804264,-88.2096625938009,23.950132,,,730.35969922453,13.12336,0,0.79970146916,1.83844165988,23,10,21.38,730.35969922453,23.950132,0.671082,0.96367785236,0,0,-0.894776,178.5, 0.9, 2.2,0,0,1024,1024,1024,1024,0,0,0,0,0,0,0,52,,,,,,,9.824,86,730.35969922453,23.950132,14,Waypoint,
126000,2023-10-10 22:28:25,40.0688689199301,-88.2096626737429,23.950132,,,730.35969922453,13.12336,0,0.77580054976,1.869832737,23,10,21.423,730.35969922453,23.950132,0.671082,0.96367785236,0,0,-0.447388,178.6, 1.3, 1.6,0,0,1024,1024,1024,1024,0,0,0,0,0,0,0,52,,,,,,,5.983,86,730.35969922453,23.950132,14,Waypoint,
126100,2023-10-10 22:28:25,40.0688688715344,-88.2096627215206,23.950132,,,730.35969922453,13.12336,0,0.76158467004,1.8919620028,23,10,21.423,730.35969922453,23.950132,0.671082,0.96367785236,0,0,-0.223694,178.6, 1.5, 1.2,0,0,1024,1024,1024,1024,0,0,0,0,0,0,0,52,,,,,,,5.983,86,730.35969922453,23.950132,14,Waypoint,
126200,2023-10-10 22:28:25,40.0688687997236,-88.2096627395212,23.950132,,,730.35969922453,13.12336,0,0.75597771448,1.91863851284,23,10,21.423,730.35969922453,23.950132,0.671082,0.96367785236,0,0,0,181.7, 1.6, 0.8,0,0,1024,1024,1024,1024,0,0,0,0,0,0,0,52,,,,,,,5.983,86,730.35969922453,23.950132,14,Waypoint,
126300,2023-10-10 22:28:25,40.0688687064231,-88.2096627471054,23.950132,,,730.35969922453,13.12336,0,0.75445540472,1.95274612548,23,10,21.423,730.35969922453,23.950132,0.671082,0.96367785236,0,0,0,188.8, 1.4, -0.1,0,0,1024,1024,1024,1024,0,0,0,0,0,0,0,52,,,,,,,5.983,86,730.35969922453,23.950132,14,Waypoint,
126400,2023-10-10 22:28:25,40.0688686587191,-88.2096627483005,23.950132,,,730.35969922453,13.12336,0,0.7550197092,1.97015426252,23,10,21.423,730.35969922453,23.950132,0.671082,0.96367785236,0,0,0.223694,196.7, 1.8, -0.3,0,0,1024,1024,1024,1024,0,0,0,0,0,0,0,52,,,,,,,5.983,86,730.35969922453,23.950132,14,Waypoint,
126500,2023-10-10 22:28:25,40.0688686229293,-88.2096626937446,23.950132,,,730.35969922453,13.12336,0,0.77114175696,1.99021659912,23,10,21.423,730.35969922453,23.950132,0.671082,0.96367785236,0,0,0.223694,204.9, 2.2, 0.7,0,0,1024,1024,1024,1024,0,0,0,0,0,0,0,52,,,,,,,5.983,86,730.35969922453,23.950132,14,Waypoint,
126600,2023-10-10 22:28:25,40.0688685998612,-88.209662571594,23.950132,,,730.35969922453,13.12336,0.223694,0.8058235166,2.025344553,23,10,21.423,730.35969922453,23.950132,0.671082,0.96367785236,0,0.223694,0.223694,213.4, 2.3, 2.1,0,0,1024,1024,1024,1024,0,0,0,0,0,0,0,52,,,,,,,5.983,86,730.35969922453,23.950132,14,Waypoint,
126700,2023-10-10 22:28:25,40.0688685876685,-88.2096624256638,23.950132,,,730.35969922453,13.12336,0.223694,0.8468012082,2.06633208712,23,10,21.423,730.35969922453,23.950132,0.671082,0.96367785236,0,0.223694,0.447388,221.9, 1.5, 3.1,0,0,1024,1024,1024,1024,0,0,0,0,0,0,0,52,,,,,,,5.983,86,730.35969922453,23.950132,14,Waypoint,
126800,2023-10-10 22:28:25,40.068868613054,-88.2096622705513,23.950132,,,730.35969922453,13.12336,0.223694,0.88923559276,2.11062014628,23,10,21.423,730.35969922453,23.950132,0.671082,0.96367785236,0,0.223694,0.447388,230.4, 0.2, 3.6,0,0,1024,1024,1024,1024,0,0,0,0,0,0,0,52,,,,,,,5.983,86,730.35969922453,23.950132,14,Waypoint,
126900,2023-10-10 22:28:25,40.0688686787781,-88.2096620945753,23.622048,,,730.03161522453,13.12336,0.3131716,0.9369094788,2.16529206404,23,10,21.423,730.35969922453,23.950132,0.671082,0.96367785236,0.223694,0.223694,0.223694,238.9, -1, 3.2,0,0,1024,1024,1024,1024,0,0,0,0,0,0,0,52,,,,,,,5.983,86,730.03161522453,23.622048,14,Waypoint,
127000,2023-10-10 22:28:26,40.0688687635332,-88.2096618937505,23.622048,,,730.03161522453,13.12336,0.4921268,0.9921588244,2.22932749916,23,10,21.338,730.35969922453,23.950132,0.671082,0.9921588244,0.223694,0.447388,0.223694,246.1, -1.9, 2.4,0,0,1024,1024,1024,1024,0,0,0,0,0,0,0,52,,,,,,,9.078,85.82,730.03161522453,23.622048,14,Waypoint,
127100,2023-10-10 22:28:26,40.0688688870744,-88.2096616328761,23.622048,,,730.03161522453,13.12336,0.4921268,1.0655512152,2.31498366988,23,10,21.338,730.35969922453,23.950132,0.671082,1.0655512152,0.223694,0.447388,0.223694,250.9, -2.5, 2.1,0,0,1024,1024,1024,1024,0,0,0,0,0,0,0,52,,,,,,,9.078,85.82,730.03161522453,23.622048,14,Waypoint,
127200,2023-10-10 22:28:26,40.0688690002091,-88.2096613072113,23.622048,,,730.03161522453,13.12336,0.4921268,1.15844163812,2.41484259696,23,10,21.338,730.35969922453,23.950132,0.671082,1.15844163812,0.223694,0.447388,0.223694,253.8, -3.4, 2.3,0,0,1024,1024,1024,1024,0,0,0,0,0,0,0,52,,,,,,,9.078,85.82,730.03161522453,23.622048,14,Waypoint,
127300,2023-10-10 22:28:26,40.0688691124014,-88.2096609815884,23.622048,,,730.03161522453,13.12336,0.7158208,1.25235896396,2.5145506054,23,10,21.338,730.35969922453,23.950132,0.7158208,1.25235896396,0.223694,0.671082,0.223694,255.1, -4.2, 2.5,0,0,1024,1024,1024,1024,0,0,0,0,0,0,0,52,,,,,,,9.078,85.82,730.03161522453,23.622048,14,Waypoint,
127400,2023-10-10 22:28:26,40.0688692371655,-88.2096605508305,23.622048,,,730.03161522453,13.12336,0.4921268,1.37680122516,2.64314641004,23,10,21.338,730.35969922453,23.950132,0.7158208,1.37680122516,0.223694,0.447388,0.223694,255.7, -5, 2.3,0,0,1024,1024,1024,1024,0,0,0,0,0,0,0,52,,,,,,,9.078,85.82,730.03161522453,23.622048,14,Waypoint,
127500,2023-10-10 22:28:26,40.0688693760283,-88.2096602246423,23.622048,,,730.03161522453,13.12336,0.4921268,1.47377629388,2.74736557348,23,10,21.338,730.35969922453,23.950132,0.7158208,1.47377629388,0.223694,0.447388,0,255.9, -5.6, 1.7,0,0,1024,1024,1024,1024,0,0,0,0,0,0,0,52,,,,,,,9.078,85.82,730.03161522453,23.622048,14,Waypoint,
127600,2023-10-10 22:28:26,40.0688695104278,-88.209659886714,23.293964,,,729.70353122453,13.12336,0.4921268,1.57463587716,2.85369759788,23,10,21.338,730.35969922453,23.950132,0.7158208,1.57463587716,0.223694,0.447388,0,256.1, -5.9, 1.1,0,0,1024,1024,1024,1024,0,0,0,0,0,0,0,52,,,,,,,9.078,85.82,729.70353122453,23.293964,14,Waypoint,
127700,2023-10-10 22:28:26,40.0688695919961,-88.209659490586,23.293964,,,729.70353122453,13.12336,0.4921268,1.68869099892,2.96823500312,23,10,21.338,730.35969922453,23.950132,0.7158208,1.68869099892,0.223694,0.447388,0,256.1, -6.4, 0.8,0,0,1024,1024,1024,1024,0,0,0,0,0,0,0,52,,,,,,,9.078,85.82,729.70353122453,23.293964,14,Waypoint,
127800,2023-10-10 22:28:26,40.0688696870529,-88.2096592426271,23.293964,,,729.70353122453,13.12336,0.4921268,1.76302827164,3.0456693888,23,10,21.338,730.35969922453,23.950132,0.7158208,1.76302827164,0.223694,0.223694,0,256, -7.7, 0.8,0,0,1024,1024,1024,1024,0,0,0,0,0,0,0,52,,,,,,,9.078,85.82,729.70353122453,23.293964,14,Waypoint,
127900,2023-10-10 22:28:27,40.0688697585328,-88.2096590744003,23.293964,,,729.70353122453,13.12336,0.3131716,1.81410438876,3.0993931438,23,10,21.338,730.35969922453,23.950132,0.7158208,1.81410438876,0.223694,0.223694,0,256, -8.8, 0.7,0,0,1024,1024,1024,1024,0,0,0,0,0,0,0,52,,,,,,,9.078,85.82,729.70353122453,23.293964,14,Waypoint,
128000,2023-10-10 22:28:27,40.0688698230844,-88.2096590090865,23.293964,,,729.70353122453,13.12336,0,1.83668641048,3.12917989016,23,10,21.338,730.35969922453,23.950132,0.7158208,1.83668641048,0,0,0,255.9, -9.4, 0.7,0,0,1024,1024,1024,1024,0,0,0,0,0,0,0,52,,,,,,,9.078,85.82,729.70353122453,23.293964,14,Waypoint,
128100,2023-10-10 22:28:27,40.0688698646888,-88.2096590273669,23.293964,,,729.70353122453,13.12336,0,1.8348753868,3.1451936702,23,10,21.338,730.35969922453,23.950132,0.7158208,1.83668641048,0,0,0,255.9, -9.9, 0.7,0,0,1024,1024,1024,1024,0,0,0,0,0,0,0,52,,,,,,,9.078,85.82,729.70353122453,23.293964,14,Waypoint,
128200,2023-10-10 22:28:27,40.0688698759723,-88.2096592042748,23.293964,,,729.70353122453,13.12336,0.223694,1.787565674,3.19476060092,23,10,21.338,730.35969922453,23.950132,0.7158208,1.83668641048,0,-0.223694,0,255.9, -10.8, 0.8,0,0,1024,1024,1024,1024,0,0,0,0,0,0,0,52,,,,,,,9.078,85.82,729.70353122453,23.293964,14,Waypoint,
128300,2023-10-10 22:28:27,40.0688698555406,-88.2096594968238,23.293964,,,729.70353122453,13.12336,0.447388,1.70629598636,3.27678160092,23,10,21.338,730.35969922453,23.950132,0.7158208,1.83668641048,0,-0.447388,0,255.8, -12.1, 0.9,0,0,1024,1024,1024,1024,0,0,0,0,0,0,0,52,,,,,,,9.078,85.82,729.70353122453,23.293964,14,Waypoint,
128400,2023-10-10 22:28:27,40.0688698204834,-88.2096600401749,23.293964,,,729.70353122453,13.12336,0.894776,1.55582682144,3.4290355428,23,10,21.338,730.35969922453,23.950132,0.894776,1.83668641048,0,-0.894776,0,255.7, -13.7, 1,0,0,1024,1024,1024,1024,0,0,0,0,0,0,0,52,,,,,,,9.078,85.82,729.70353122453,23.293964,14,Waypoint,
128500,2023-10-10 22:28:27,40.0688697351703,-88.2096606785805,23.293964,,,729.70353122453,13.12336,1.1408394,1.37540030648,3.6099738688,23,10,21.338,730.35969922453,23.950132,1.1408394,1.83668641048,-0.223694,-1.11847,0,255.7, -15.4, 1,0,0,1024,1024,1024,1024,0,0,0,0,0,0,0,52,,,,,,,9.078,85.82,729.70353122453,23.293964,14,Waypoint,
128600,2023-10-10 22:28:27,40.0688696260384,-88.2096615916464,23.293964,,,729.70353122453,13.12336,1.1408394,1.11892063948,3.8680119348,23,10,21.338,730.35969922453,23.950132,1.1408394,1.83668641048,-0.223694,-1.565858,0,255.6, -17, 0.8,0,0,1024,1024,1024,1024,0,0,0,0,0,0,0,52,,,,,,,9.078,85.82,729.70353122453,23.293964,14,Waypoint,
128700,2023-10-10 22:28:27,40.0688694635443,-88.2096626925853,23.293964,,,729.70353122453,13.12336,2.2816788,0.80746065576,4.1810696876,23,10,21.338,730.35969922453,23.950132,2.2816788,1.83668641048,-0.447388,-2.23694,0,255.5, -18.4, 0.7,0,0,1024,1024,1024,1024,0,0,0,0,0,0,0,52,,,,,,,9.078,85.82,729.70353122453,23.293964,14,Waypoint,
128800,2023-10-10 22:28:27,40.0688692768063,-88.209664266233,23.293964,,,729.70353122453,13.12336,2.7738056,0.37461943456,4.6256891244,23,10,21.338,730.35969922453,23.950132,2.7738056,1.83668641048,-0.671082,-2.684328,0,255.4, -19.5, 0.6,0,0,1024,1024,1024,1024,0,0,0,0,0,0,0,52,,,,,,,9.078,85.82,729.70353122453,23.293964,14,Waypoint,
128900,2023-10-10 22:28:27,40.0688689613056,-88.2096659218825,23.293964,,,729.70353122453,13.12336,2.7738056,0.146684059812,5.1020670924,23,10,21.338,730.35969922453,23.950132,2.7738056,1.83668641048,-0.894776,-3.35541,0,255.4, -20.6, 0.6,0,0,1024,1024,1024,1024,0,0,0,0,0,0,0,52,,,,,,,9.078,85.82,729.70353122453,23.293964,14,Waypoint,
129000,2023-10-10 22:28:28,40.0688685367288,-88.2096679989595,23.293964,,,729.70353122453,13.12336,3.9593838,0.71844490488,5.7023295788,23,10,21.3375,730.35969922453,23.950132,3.9593838,1.83668641048,-1.11847,-3.802798,0,255.3, -21.4, 0.8,0,0,1024,1024,1024,1024,0,0,0,0,0,0,0,52,,,,,,,8.66,85.82,729.70353122453,23.293964,14,Waypoint,
129100,2023-10-10 22:28:28,40.0688680970595,-88.2096703963363,23.293964,,,729.70353122453,13.12336,3.9593838,1.40477038616,6.3906498108,23,10,21.3375,730.35969922453,23.950132,3.9593838,1.83668641048,-1.342164,-4.47388,0,255.3, -21.8, 1.1,0,0,1024,1024,1024,1024,0,0,0,0,0,0,0,52,,,,,,,8.66,85.82,729.70353122453,23.293964,14,Waypoint,
129200,2023-10-10 22:28:28,40.0688675327696,-88.2096731318289,22.96588,,,729.37544722453,13.12336,5.3239172,2.19408143504,7.1816931432,23,10,21.3375,730.35969922453,23.950132,5.3239172,2.19408143504,-1.342164,-5.144962,0,255.2, -22, 1.3,0,0,1024,1024,1024,1024,0,0,0,0,0,0,0,52,,,,,,,8.66,85.82,729.37544722453,22.96588,14,Waypoint,
129300,2023-10-10 22:28:28,40.0688668944501,-88.2096761871177,22.96588,,,729.37544722453,13.12336,6.0173686,3.07737542656,8.0659779484,23,10,21.3375,730.35969922453,23.950132,6.0173686,3.07737542656,-1.565858,-5.816044,0,255.2, -22.1, 1.3,0,0,1024,1024,1024,1024,0,0,0,0,0,0,0,52,,,,,,,8.66,85.82,729.37544722453,22.96588,14,Waypoint,
129400,2023-10-10 22:28:28,40.0688662307965,-88.2096793117698,22.96588,,,729.37544722453,13.12336,6.7331894,3.9820867416,8.9713913632,23,10,21.3375,730.35969922453,23.950132,6.7331894,3.9820867416,-1.789552,-6.487126,0,255.2, -21.8, 1.4,0,0,1024,1024,1024,1024,0,0,0,0,0,0,0,52,,,,,,,8.66,85.82,729.37544722453,22.96588,14,Waypoint,
129500,2023-10-10 22:28:28,40.0688655216086,-88.2096827234563,22.96588,,,729.37544722453,13.12336,6.7331894,4.9688649884,9.9584648856,23,10,21.3375,730.35969922453,23.950132,6.7331894,4.9688649884,-2.013246,-7.158208,0,255.2, -21.7, 1.3,0,0,1024,1024,1024,1024,0,0,0,0,0,0,0,52,,,,,,,8.66,85.82,729.37544722453,22.96588,14,Waypoint,
129600,2023-10-10 22:28:28,40.068864641214,-88.2096868617856,22.96588,,,729.37544722453,13.12336,8.1424616,6.1677495412,11.1577431392,23,10,21.3375,730.35969922453,23.950132,8.1424616,6.1677495412,-2.23694,-7.82929,0,255.2, -21.6, 1.2,0,0,1024,1024,1024,1024,0,0,0,0,0,0,0,52,,,,,,,8.66,85.82,729.37544722453,22.96588,14,Waypoint,
129700,2023-10-10 22:28:28,40.0688637512697,-88.2096910885004,22.96588,,,729.37544722453,13.12336,8.5674802,7.3915028612,12.381726118,23,10,21.3375,730.35969922453,23.950132,8.5674802,7.3915028612,-2.23694,-8.276678,0,255.4, -21.1, 1.2,0,0,1024,1024,1024,1024,0,0,0,0,0,0,0,52,,,,,,,8.66,85.82,729.37544722453,22.96588,14,Waypoint,
129800,2023-10-10 22:28:28,40.0688627442607,-88.2096960891071,22.96588,,,729.37544722453,13.12336,9.283301,8.8352365032,13.8254925684,23,10,21.3375,730.35969922453,23.950132,9.283301,8.8352365032,-2.460634,-8.94776,0,255.5, -20.6, 1,0,0,1024,1024,1024,1024,0,0,0,0,0,0,0,52,,,,,,,8.66,85.82,729.37544722453,22.96588,14,Waypoint,
129900,2023-10-10 22:28:28,40.0688617707755,-88.2097008662707,22.96588,,,729.37544722453,13.12336,9.7083196,10.2155186996,15.2058075732,23,10,21.3375,730.35969922453,23.950132,9.7083196,10.2155186996,-2.460634,-9.395148,0,255.6, -19.4, 0.8,0,0,1024,1024,1024,1024,0,0,0,0,0,0,0,52,,,,,,,8.66,85.82,729.37544722453,22.96588,14,Waypoint,
130000,2023-10-10 22:28:29,40.068860705534,-88.2097061686833,22.96588,,,729.37544722453,13.12336,10.4241404,11.7461289848,16.7364506668,23,10,21.3375,730.35969922453,23.950132,10.4241404,11.7461289848,-2.684328,-10.06623,0,255.7, -18.4, 0.7,0,0,1024,1024,1024,1024,0,0,0,0,0,0,0,52,,,,,,,8.66,85.82,729.37544722453,22.96588,14,Waypoint,
130100,2023-10-10 22:28:29,40.0688596473215,-88.2097114244313,22.96588,,,729.37544722453,13.12336,10.625465,13.2635174848,18.2538391668,23,10,21.3375,730.35969922453,23.950132,10.625465,13.2635174848,-2.684328,-10.289924,0,255.7, -17.6, 0.8,0,0,1024,1024,1024,1024,0,0,0,0,0,0,0,52,,,,,,,8.66,85.82,729.37544722453,22.96588,14,Waypoint,
130200,2023-10-10 22:28:29,40.0688585038098,-88.2097174112771,22.96588,,,729.37544722453,13.12336,11.1175918,14.9863193772,19.9766738676,23,10,21.3375,730.35969922453,23.950132,11.1175918,14.9863193772,-2.908022,-10.737312,0,255.8, -16.6, 0.8,0,0,1024,1024,1024,1024,0,0,0,0,0,0,0,52,,,,,,,8.66,85.82,729.37544722453,22.96588,14,Waypoint,
130300,2023-10-10 22:28:29,40.0688573742448,-88.2097230494398,22.96588,,,729.37544722453,13.12336,11.5649798,16.6135832088,21.6039705076,23,10,21.3375,730.35969922453,23.950132,11.5649798,16.6135832088,-2.908022,-11.1847,0,255.9, -15.3, 0.8,0,0,1024,1024,1024,1024,0,0,0,0,0,0,0,52,,,,,,,8.66,85.82,729.37544722453,22.96588,14,Waypoint,
130400,2023-10-10 22:28:29,40.0688561635804,-88.2097291273538,22.96588,,,729.37544722453,13.12336,11.7663044,18.367126572,23.3575138708,23,10,21.3375,730.35969922453,23.950132,11.7663044,18.367126572,-2.908022,-11.408394,0,256, -14, 0.7,0,0,1024,1024,1024,1024,0,0,0,0,0,0,0,52,,,,,,,8.66,85.82,729.37544722453,22.96588,14,Waypoint,
130500,2023-10-10 22:28:29,40.0688549767081,-88.2097352257704,22.96588,,,729.37544722453,13.12336,11.7663044,20.1240492004,25.1144364992,23,10,21.3375,730.35969922453,23.950132,11.7663044,20.1240492004,-3.131716,-11.632088,0,256.1, -12.6, 0.4,0,0,1024,1024,1024,1024,0,0,0,0,0,0,0,52,,,,,,,8.66,85.82,729.37544722453,22.96588,14,Waypoint,
130600,2023-10-10 22:28:29,40.0688537100193,-88.2097415230654,22.96588,,,729.37544722453,13.12336,12.0571066,21.9420282612,26.93241556,23,10,21.3375,730.35969922453,23.950132,12.0571066,21.9420282612,-3.131716,-11.632088,0,256.3, -10.6, 0.4,0,0,1024,1024,1024,1024,0,0,0,0,0,0,0,52,,,,,,,8.66,85.82,729.37544722453,22.96588,14,Waypoint,
130700,2023-10-10 22:28:29,40.068852502317,-88.2097475489605,22.96588,,,729.37544722453,13.12336,12.2584312,23.6812343536,28.6716544608,23,10,21.3375,730.35969922453,23.950132,12.2584312,23.6812343536,-3.131716,-11.855782,0,256.4, -8.4, 0.3,0,0,1024,1024,1024,1024,0,0,0,0,0,0,0,52,,,,,,,8.66,85.82,729.37544722453,22.96588,14,Waypoint,
130800,2023-10-10 22:28:29,40.0688512416592,-88.2097538782911,22.96588,,,729.37544722453,13.12336,12.2584312,25.5073170892,30.4977371964,23,10,21.3375,730.35969922453,23.950132,12.2584312,25.5073170892,-3.131716,-11.855782,0,256.4, -6.3, 0.4,0,0,1024,1024,1024,1024,0,0,0,0,0,0,0,52,,,,,,,8.66,85.82,729.37544722453,22.96588,14,Waypoint,
130900,2023-10-10 22:28:29,40.0688500410972,-88.2097599808819,22.96588,,,729.37544722453,13.12336,12.0571066,27.2666019224,32.2570220296,23,10,21.315,730.35969922453,23.950132,12.2584312,27.2666019224,-3.131716,-11.632088,0,256.4, -4.7, 0.4,0,0,1024,1024,1024,1024,0,0,0,0,0,0,0,52,,,,,,,10.109,85.82,729.37544722453,22.96588,14,Waypoint,
131000,2023-10-10 22:28:30,40.0688488238685,-88.2097662396122,22.96588,,,729.37544722453,13.12336,11.9899984,29.0696203528,34.06004046,23,10,21.315,730.35969922453,23.950132,12.2584312,29.0696203528,-2.908022,-11.632088,0,256.4, -3.9, 0.1,0,0,1024,1024,1024,1024,0,0,0,0,0,0,0,52,,,,,,,10.109,85.82,729.37544722453,22.96588,14,Waypoint,
131100,2023-10-10 22:28:30,40.0688476879941,-88.209772107753,22.96588,,,729.37544722453,13.12336,11.7663044,30.7596466536,35.750001144,23,10,21.315,730.35969922453,23.950132,12.2584312,30.7596466536,-2.908022,-11.408394,0,256.4, -2.5, 0,0,0,1024,1024,1024,1024,0,0,0,0,0,0,0,52,,,,,,,10.109,85.82,729.37544722453,22.96588,14,Waypoint,
131200,2023-10-10 22:28:30,40.0688464970868,-88.2097783809242,22.96588,,,729.37544722453,13.12336,11.5649798,32.5641742704,37.554791228,23,10,21.315,730.35969922453,23.950132,12.2584312,32.5641742704,-2.908022,-11.1847,0,256.4, -1.5, -0.2,0,0,1024,1024,1024,1024,0,0,0,0,0,0,0,52,,,,,,,10.109,85.82,729.37544722453,22.96588,14,Waypoint,
131300,2023-10-10 22:28:30,40.0688454003153,-88.2097840290781,22.96588,,,729.37544722453,13.12336,11.1175918,34.19127406,39.181759784,23,10,21.315,730.35969922453,23.950132,12.2584312,34.19127406,-2.908022,-10.737312,0,256.3, -0.1, -0.2,0,0,1024,1024,1024,1024,0,0,0,0,0,0,0,52,,,,,,,10.109,85.82,729.37544722453,22.96588,14,Waypoint,
131400,2023-10-10 22:28:30,40.0688442873569,-88.2097898285916,22.96588,,,729.37544722453,13.12336,10.849159,35.860565452,40.851051176,23,10,21.315,730.35969922453,23.950132,12.2584312,35.860565452,-2.684328,-10.513618,0,256.3, 0.8, -0.1,0,0,1024,1024,1024,1024,0,0,0,0,0,0,0,52,,,,,,,10.109,85.82,729.37544722453,22.96588,14,Waypoint,
131500,2023-10-10 22:28:30,40.0688432581899,-88.2097951716645,22.96588,,,729.37544722453,13.12336,10.4241404,37.398951328,42.389437052,23,10,21.315,730.35969922453,23.950132,12.2584312,37.398951328,-2.684328,-10.06623,0,256.3, 2.1, -0.2,0,0,1024,1024,1024,1024,0,0,0,0,0,0,0,52,,,,,,,10.109,85.82,729.37544722453,22.96588,14,Waypoint,
131600,2023-10-10 22:28:30,40.068842194409,-88.2098008361623,22.96588,,,729.37544722453,13.12336,10.1557076,39.02723222,44.018046028,23,10,21.315,730.35969922453,23.950132,12.2584312,39.02723222,-2.460634,-9.842536,0,256.3, 3.7, -0.1,0,0,1024,1024,1024,1024,0,0,0,0,0,0,0,52,,,,,,,10.109,85.82,729.37544722453,22.96588,14,Waypoint,
131700,2023-10-10 22:28:30,40.0688412270768,-88.2098057806976,22.96588,,,729.37544722453,13.12336,9.4846256,40.452101032,45.44291484,23,10,21.315,730.35969922453,23.950132,12.2584312,40.452101032,-2.460634,-9.171454,0,256.5, 5.8, 0.1,0,0,1024,1024,1024,1024,0,0,0,0,0,0,0,52,,,,,,,10.109,85.82,729.37544722453,22.96588,14,Waypoint,
131800,2023-10-10 22:28:30,40.0688402617921,-88.2098107088219,22.96588,,,729.37544722453,13.12336,9.0148682,41.872704752,46.863190476,23,10,21.315,730.35969922453,23.950132,12.2584312,41.872704752,-2.23694,-8.724066,0,256.6, 7.9, 0.3,0,0,1024,1024,1024,1024,0,0,0,0,0,0,0,52,,,,,,,10.109,85.82,729.37544722453,22.96588,14,Waypoint,
131900,2023-10-10 22:28:30,40.0688393693205,-88.209815315566,22.96588,,,729.37544722453,13.12336,8.3661556,43.199476448,48.189962172,23,10,21.315,730.35969922453,23.950132,12.2584312,43.199476448,-2.23694,-8.052984,0,256.7, 9.5, 0.6,0,0,1024,1024,1024,1024,0,0,0,0,0,0,0,52,,,,,,,10.109,85.82,729.37544722453,22.96588,14,Waypoint,
132000,2023-10-10 22:28:31,40.0688385306439,-88.2098196114639,22.96588,,,729.37544722453,13.12336,7.6503348,44.43733738,49.427823104,23,10,21.315,730.35969922453,23.950132,12.2584312,44.43733738,-2.013246,-7.381902,0,256.8, 10.7, 0.4,0,0,1024,1024,1024,1024,0,0,0,0,0,0,0,52,,,,,,,10.109,85.82,729.37544722453,22.96588,14,Waypoint,
132100,2023-10-10 22:28:31,40.0688377920783,-88.2098233583659,22.96588,,,729.37544722453,13.12336,6.934514,45.517717992,50.508203716,23,10,21.315,730.35969922453,23.950132,12.2584312,45.517717992,-1.789552,-6.71082,0,257, 12, 0.5,0,0,1024,1024,1024,1024,0,0,0,0,0,0,0,52,,,,,,,10.109,85.82,729.37544722453,22.96588,14,Waypoint,
132200,2023-10-10 22:28:31,40.0688370949672,-88.2098268800364,22.96588,,,729.37544722453,13.12336,6.2410626,46.533137972,51.52395178,23,10,21.315,730.35969922453,23.950132,12.2584312,46.533137972,-1.565858,-6.039738,0,257.1, 13, 0.9,0,0,1024,1024,1024,1024,0,0,0,0,0,0,0,52,,,,,,,10.109,85.82,729.37544722453,22.96588,14,Waypoint,
132300,2023-10-10 22:28:31,40.0688364987083,-88.2098299141345,22.96588,,,729.37544722453,13.12336,5.3239172,47.407809916,52.398623724,23,10,21.315,730.35969922453,23.950132,12.2584312,47.407809916,-1.342164,-5.144962,0,257.3, 13.9, 1.3,0,0,1024,1024,1024,1024,0,0,0,0,0,0,0,52,,,,,,,10.109,85.82,729.37544722453,22.96588,14,Waypoint,
132400,2023-10-10 22:28:31,40.0688359884852,-88.2098326555774,22.637796,,,729.04736322453,13.12336,4.6080964,48.1955396,53.186353408,23,10,21.315,730.35969922453,23.950132,12.2584312,48.1955396,-1.11847,-4.47388,0,257.3, 14, 1.5,0,0,1024,1024,1024,1024,0,0,0,0,0,0,0,52,,,,,,,10.109,85.82,729.04736322453,22.637796,14,Waypoint,
132500,2023-10-10 22:28:31,40.0688355893644,-88.2098348912011,22.637796,,,729.04736322453,13.12336,3.690951,48.836287652,53.827429544,23,10,21.315,730.35969922453,23.950132,12.2584312,48.836287652,-0.894776,-3.579104,0,257.3, 13.2, 1.1,0,0,1024,1024,1024,1024,0,0,0,0,0,0,0,52,,,,,,,10.109,85.82,729.04736322453,22.637796,14,Waypoint,
132600,2023-10-10 22:28:31,40.0688352531621,-88.2098369488001,22.637796,,,729.04736322453,13.12336,2.9751302,49.423229928,54.414699904,23,10,21.315,730.35969922453,23.950132,12.2584312,49.423229928,-0.671082,-2.908022,0,257, 12, 0,0,0,1024,1024,1024,1024,0,0,0,0,0,0,0,52,,,,,,,10.109,85.82,729.04736322453,22.637796,14,Waypoint,
132700,2023-10-10 22:28:31,40.0688349833993,-88.2098384856578,22.637796,,,729.04736322453,13.12336,2.3264176,49.863518656,54.854988632,23,10,21.315,730.35969922453,23.950132,12.2584312,49.863518656,-0.671082,-2.23694,0,256.7, 10.9, -1.1,0,0,1024,1024,1024,1024,0,0,0,0,0,0,0,52,,,,,,,10.109,85.82,729.04736322453,22.637796,14,Waypoint,
132800,2023-10-10 22:28:31,40.0688347247904,-88.2098397614731,22.637796,,,729.04736322453,13.12336,1.6329662,50.231956988,55.223426964,23,10,21.315,730.35969922453,23.950132,12.2584312,50.231956988,-0.447388,-1.565858,0,256.4, 10.1, -1.5,0,0,1024,1024,1024,1024,0,0,0,0,0,0,0,52,,,,,,,10.109,85.82,729.04736322453,22.637796,14,Waypoint,
132900,2023-10-10 22:28:31,40.0688345088482,-88.2098406793362,22.637796,,,729.04736322453,13.12336,1.2079476,50.499673532,55.491471592,23,10,21.3285,730.35969922453,23.950132,12.2584312,50.499673532,-0.447388,-1.11847,0,256.1, 9.3, -1.5,0,0,1024,1024,1024,1024,0,0,0,0,0,0,0,52,,,,,,,7.686,85.82,729.04736322453,22.637796,14,Waypoint,
133000,2023-10-10 22:28:32,40.0688342673,-88.2098413838002,22.637796,,,729.04736322453,13.12336,0.4921268,50.712271964,55.70702278,23,10,21.3285,730.35969922453,23.950132,12.2584312,50.712271964,-0.223694,-0.447388,0,255.9, 6.9, -1.1,0,0,1024,1024,1024,1024,0,0,0,0,0,0,0,52,,,,,,,7.686,85.82,729.04736322453,22.637796,14,Waypoint,
133100,2023-10-10 22:28:32,40.0688341022529,-88.2098417636825,22.309712,,,728.71927922453,13.12336,0.223694,50.829726036,55.829070028,23,10,21.3285,730.35969922453,23.950132,12.2584312,50.829726036,-0.223694,0,0,255.8, 5.5, -1.1,0,0,1024,1024,1024,1024,0,0,0,0,0,0,0,52,,,,,,,7.686,85.82,728.71927922453,22.309712,14,Waypoint,
133200,2023-10-10 22:28:32,40.0688339401699,-88.2098419070157,22.309712,,,728.71927922453,13.12336,0.223694,50.883203728,55.90059234,23,10,21.3285,730.35969922453,23.950132,12.2584312,50.883203728,-0.223694,0,0,255.7, 4.4, -0.8,0,0,1024,1024,1024,1024,0,0,0,0,0,0,0,52,,,,,,,7.686,85.82,728.71927922453,22.309712,14,Waypoint,
133300,2023-10-10 22:28:32,40.0688337639475,-88.2098417945568,22.309712,,,728.71927922453,13.12336,0.4921268,50.869096116,55.972114652,23,10,21.3285,730.35969922453,23.950132,12.2584312,50.883203728,-0.223694,0.447388,0,255.8, 3.2, 0,0,0,1024,1024,1024,1024,0,0,0,0,0,0,0,52,,,,,,,7.686,85.82,728.71927922453,22.309712,14,Waypoint,
133400,2023-10-10 22:28:32,40.0688336373351,-88.2098415865537,22.309712,,,728.71927922453,13.12336,0.7158208,50.824476692,56.046261636,23,10,21.3285,730.35969922453,23.950132,12.2584312,50.883203728,-0.223694,0.671082,0.223694,255.8, 2, 0.7,0,0,1024,1024,1024,1024,0,0,0,0,0,0,0,52,,,,,,,7.686,85.82,728.71927922453,22.309712,14,Waypoint,
133500,2023-10-10 22:28:32,40.0688335406508,-88.2098412787859,22.309712,,,728.71927922453,13.12336,0.894776,50.750329708,56.139109408,23,10,21.3285,730.35969922453,23.950132,12.2584312,50.883203728,0,0.894776,0.447388,255.8, 1.2, 1.2,0,0,1024,1024,1024,1024,0,0,0,0,0,0,0,52,,,,,,,7.686,85.82,728.71927922453,22.309712,14,Waypoint,
133600,2023-10-10 22:28:32,40.0688334751879,-88.2098408311105,21.981628,,,728.39119522453,13.12336,0.894776,50.635500308,56.266406,23,10,21.3285,730.35969922453,23.950132,12.2584312,50.883203728,0,0.894776,0.894776,255.8, 0.7, 1.6,0,0,1024,1024,1024,1024,0,0,0,0,0,0,0,52,,,,,,,7.686,85.82,728.39119522453,21.981628,14,Waypoint,
133700,2023-10-10 22:28:32,40.0688334355966,-88.2098402078173,21.981628,,,728.39119522453,13.12336,1.11847,50.47080214,56.440946688,23,10,21.3285,730.35969922453,23.950132,12.2584312,50.883203728,0,1.11847,1.11847,255.9, 0.4, 1.7,0,0,1024,1024,1024,1024,0,0,0,0,0,0,0,52,,,,,,,7.686,85.82,728.39119522453,21.981628,14,Waypoint,
133800,2023-10-10 22:28:32,40.0688334342602,-88.2098395703631,21.653544,,,728.06311122453,13.12336,1.342164,50.298886124,56.6190963,23,10,21.3285,730.35969922453,23.950132,12.2584312,50.883203728,0,1.342164,1.342164,255.9, 0, 1.7,0,0,1024,1024,1024,1024,0,0,0,0,0,0,0,52,,,,,,,7.686,85.82,728.06311122453,21.653544,14,Waypoint,
133900,2023-10-10 22:28:33,40.0688334619608,-88.2098389017101,21.653544,,,728.06311122453,13.12336,1.342164,50.115815252,56.80610418,23,10,21.3605,730.35969922453,23.950132,12.2584312,50.883203728,0,1.342164,1.565858,255.9, -0.7, 1.8,0,0,1024,1024,1024,1024,0,0,0,0,0,0,0,52,,,,,,,8.196,86,728.06311122453,21.653544,14,Waypoint,
134000,2023-10-10 22:28:33,40.0688335307218,-88.209837986881,21.32546,,,727.73502722453,13.12336,1.342164,49.862534404,57.062665868,23,10,21.3605,730.35969922453,23.950132,12.2584312,50.883203728,0,1.342164,1.789552,255.9, -1.2, 1.5,0,0,1024,1024,1024,1024,0,0,0,0,0,0,0,52,,,,,,,8.196,86,727.73502722453,21.32546,14,Waypoint,
134100,2023-10-10 22:28:33,40.0688336197004,-88.2098372115229,20.997376,,,727.40694322453,13.12336,1.5882274,49.645014712,57.281497896,23,10,21.3605,730.35969922453,23.950132,12.2584312,50.883203728,0.223694,1.565858,1.789552,255.9, -1.9, 1.1,0,0,1024,1024,1024,1024,0,0,0,0,0,0,0,52,,,,,,,8.196,86,727.40694322453,20.997376,14,Waypoint,
134200,2023-10-10 22:28:33,40.0688337066743,-88.2098363393333,20.669292,,,727.07885922453,13.12336,1.5882274,49.401576384,57.527232812,23,10,21.3605,730.35969922453,23.950132,12.2584312,50.883203728,0.223694,1.565858,1.789552,255.8, -2.4, 0.7,0,0,1024,1024,1024,1024,0,0,0,0,0,0,0,52,,,,,,,8.196,86,727.07885922453,20.669292,14,Waypoint,
134300,2023-10-10 22:28:33,40.0688338042325,-88.2098354567216,20.341208,,,726.75077522453,13.12336,1.5882274,49.154529132,57.776248568,23,10,21.3605,730.35969922453,23.950132,12.2584312,50.883203728,0.223694,1.565858,1.789552,255.8, -3.1, 0.5,0,0,1024,1024,1024,1024,0,0,0,0,0,0,0,52,,,,,,,8.196,86,726.75077522453,20.341208,14,Waypoint,
134400,2023-10-10 22:28:33,40.0688338484413,-88.2098345702478,20.013124,,,726.42269122453,13.12336,1.5882274,48.911090804,58.024280072,23,10,21.3605,730.35969922453,23.950132,12.2584312,50.883203728,0.223694,1.565858,1.789552,255.8, -3.6, 0.6,0,0,1024,1024,1024,1024,0,0,0,0,0,0,0,52,,,,,,,8.196,86,726.42269122453,20.013124,14,Waypoint,
134500,2023-10-10 22:28:33,40.0688339327167,-88.2098337466531,19.68504,,,726.09460722453,11.48294,1.5882274,48.68110392,58.25623546,23,10,21.3605,730.35969922453,23.950132,12.2584312,50.883203728,0.223694,1.565858,1.789552,255.9, -3.9, 0.9,0,0,1024,1024,1024,1024,0,0,0,0,0,0,0,52,,,,,,,8.196,86,726.09460722453,19.68504,14,Waypoint,
134600,2023-10-10 22:28:33,40.0688340350423,-88.2098327951734,19.68504,,,726.09460722453,11.154856,1.5882274,48.415027796,58.524280088,23,10,21.3605,730.35969922453,23.950132,12.2584312,50.883203728,0.223694,1.565858,1.565858,255.8, -4.2, 0.9,0,0,1024,1024,1024,1024,0,0,0,0,0,0,0,52,,,,,,,8.196,86,726.09460722453,19.68504,14,Waypoint,
134700,2023-10-10 22:28:33,40.068834096633,-88.2098317310445,19.356956,,,725.76652322453,11.154856,1.5882274,48.122376868,58.822508444,23,10,21.3605,730.35969922453,23.950132,12.2584312,50.883203728,0.223694,1.565858,1.11847,255.7, -4.6, 0.8,0,0,1024,1024,1024,1024,0,0,0,0,0,0,0,52,,,,,,,8.196,86,725.76652322453,19.356956,14,Waypoint,
134800,2023-10-10 22:28:33,40.0688342012801,-88.2098308286075,19.028872,,,725.43843922453,11.154856,1.5882274,47.869424104,59.077101628,23,10,21.3605,730.35969922453,23.950132,12.2584312,50.883203728,0.223694,1.565858,0.894776,255.7, -5.3, 0.6,0,0,1024,1024,1024,1024,0,0,0,0,0,0,0,52,,,,,,,8.196,86,725.43843922453,19.028872,14,Waypoint,
134900,2023-10-10 22:28:34,40.0688343008558,-88.2098300094792,19.028872,,,725.43843922453,11.154856,1.3645334,47.639109136,59.308728932,23,10,21.271,730.35969922453,23.950132,12.2584312,50.883203728,0.223694,1.342164,0.671082,255.7, -5.9, 0.5,0,0,1024,1024,1024,1024,0,0,0,0,0,0,0,52,,,,,,,9.392,86,725.43843922453,19.028872,14,Waypoint,
135000,2023-10-10 22:28:34,40.0688344134529,-88.20982924114,19.028872,,,725.43843922453,11.154856,1.3645334,47.42126136,59.527232876,23,10,21.271,730.35969922453,23.950132,12.2584312,50.883203728,0.223694,1.342164,0.223694,255.7, -6.3, 0.7,0,0,1024,1024,1024,1024,0,0,0,0,0,0,0,52,,,,,,,9.392,86,725.43843922453,19.028872,14,Waypoint,
135100,2023-10-10 22:28:34,40.0688344981353,-88.2098285546207,18.700788,,,725.11035522453,10.826772,1.3645334,47.228347968,59.721458604,23,10,21.271,730.35969922453,23.950132,12.2584312,50.883203728,0.223694,1.11847,0,254.7, -6.3, 1.1,0,0,1024,1024,1024,1024,0,0,0,0,0,0,0,52,,,,,,,9.392,86,725.11035522453,18.700788,14,Waypoint,
135200,2023-10-10 22:28:34,40.0688345570789,-88.2098279152186,18.700788,,,725.11035522453,10.498688,1.11847,47.05052644,59.901248636,23,10,21.271,730.35969922453,23.950132,12.2584312,50.883203728,0,1.11847,0,248.5, -6.1, 2.7,0,0,1024,1024,1024,1024,0,0,0,0,0,0,0,52,,,,,,,9.392,86,725.11035522453,18.700788,14,Waypoint,
135300,2023-10-10 22:28:34,40.0688346161081,-88.2098273612299,18.700788,,,725.11035522453,10.498688,0.894776,46.895670792,60.05741662,23,10,21.271,730.35969922453,23.950132,12.2584312,50.883203728,0,0.894776,0,240.9, -5.4, 4.3,0,0,1024,1024,1024,1024,0,0,0,0,0,0,0,52,,,,,,,9.392,86,725.11035522453,18.700788,14,Waypoint,
135400,2023-10-10 22:28:34,40.0688346578839,-88.2098268554554,18.700788,,,725.11035522453,10.498688,0.894776,46.755578924,60.199476992,23,10,21.271,730.35969922453,23.950132,12.2584312,50.883203728,0.223694,0.894776,0,232.7, -4.7, 4.4,0,0,1024,1024,1024,1024,0,0,0,0,0,0,0,52,,,,,,,9.392,86,725.11035522453,18.700788,14,Waypoint,
135500,2023-10-10 22:28:34,40.0688347550137,-88.2098264275492,18.700788,,,725.11035522453,10.498688,0.7158208,46.630907004,60.324148912,23,10,21.271,730.35969922453,23.950132,12.2584312,50.883203728,0.223694,0.671082,-0.223694,224.2, -4.5, 3.8,0,0,1024,1024,1024,1024,0,0,0,0,0,0,0,52,,,,,,,9.392,86,725.11035522453,18.700788,14,Waypoint,
135600,2023-10-10 22:28:34,40.0688348580161,-88.2098260130204,19.028872,,,725.43843922453,10.170604,0.7158208,46.50918784,60.445868076,23,10,21.271,730.35969922453,23.950132,12.2584312,50.883203728,0.223694,0.671082,-0.223694,215.4, -4.6, 3,0,0,1024,1024,1024,1024,0,0,0,0,0,0,0,52,,,,,,,9.392,86,725.43843922453,19.028872,14,Waypoint,
135700,2023-10-10 22:28:34,40.0688349327268,-88.2098256667215,19.028872,,,725.43843922453,9.84252,0.447388,46.408794136,60.54626178,23,10,21.271,730.35969922453,23.950132,12.2584312,50.883203728,0,0.447388,-0.223694,206.4, -4.3, 2.8,0,0,1024,1024,1024,1024,0,0,0,0,0,0,0,52,,,,,,,9.392,86,725.43843922453,19.028872,14,Waypoint,
