time(millisecond),datetime(utc),latitude,longitude,height_above_takeoff(feet),height_above_ground_at_drone_location(feet),ground_elevation_at_drone_location(feet),altitude_above_seaLevel(feet),height_sonar(feet),speed(mph),distance(feet),mileage(feet),satellites,gpslevel,voltage(v),max_altitude(feet),max_ascent(feet),max_speed(mph),max_distance(feet), xSpeed(mph), ySpeed(mph), zSpeed(mph), compass_heading(degrees), pitch(degrees), roll(degrees),isPhoto,isVideo,rc_elevator,rc_aileron,rc_throttle,rc_rudder,rc_elevator(percent),rc_aileron(percent),rc_throttle(percent),rc_rudder(percent),gimbal_heading(degrees),gimbal_pitch(degrees),gimbal_roll(degrees),battery_percent,voltageCell1,voltageCell2,voltageCell3,voltageCell4,voltageCell5,voltageCell6,current(A),battery_temperature(f),altitude(feet),ascent(feet),flycStateRaw,flycState,message
0,2023-10-10 22:14:22,40.0688862699339,-88.2096445724638,0,Available with any HD 360 subscription,Available with any HD 360 subscription,706.45372142542,0.328084,0,0,0,19,10,0,706.45372142542,0,0,0,0,0,0,181.5, -0.8, -0.6,0,0,1024,1024,1024,1024,0,0,0,0,0,0,0,65,,,,,,,0,86.72,706.45372142542,0,41,Motors_Started,"GEO: You are in a Warning Zone (Airport). Fly with caution. Infrared sensors blocked"
100,2023-10-10 22:14:22,40.0688862535377,-88.2096445618063,0,,,706.45372142542,0.328084,0,0.0066813650432,0.0066813650432,19,10,0,706.45372142542,0,0,0.0066813650432,0,0,0,181.5, -0.8, -0.6,0,0,1024,1024,1024,1024,0,0,0,0,0,0,0,65,,,,,,,0,86.72,706.45372142542,0,41,Motors_Started,
200,2023-10-10 22:14:22,40.068886250903,-88.2096445578837,0,,,706.45372142542,0.328084,0,0.0080487863468,0.0081385829376,19,10,0,706.45372142542,0,0,0.0080487863468,0,0,0,181.5, -0.8, -0.6,0,0,1024,1024,1024,1024,0,0,0,0,0,0,0,65,,,,,,,0,86.72,706.45372142542,0,41,Motors_Started,
300,2023-10-10 22:14:22,40.0688862488487,-88.209644554819,0,,,706.45372142542,0.328084,0,0.0091352365128,0.0092761485908,19,10,0,706.45372142542,0,0,0.0091352365128,0,0,0,181.5, -0.8, -0.6,0,0,1024,1024,1024,1024,0,0,0,0,0,0,0,65,,,,,,,0,86.72,706.45372142542,0,41,Motors_Started,"Setting new Return-To-Home altitude to 100m (328 ft). Data Recorder File Index is 37. Setting new Maximum Flight Altitude to 120m (394 ft)"
400,2023-10-10 22:14:22,40.0688862474214,-88.2096445493975,0,,,706.45372142542,0.328084,0,0.010437500334,0.0108769032352,19,10,0,706.45372142542,0,0,0.010437500334,0,0,0,181.5, -0.8, -0.6,0,0,1024,1024,1024,1024,0,0,0,0,0,0,0,65,,,,,,,0,86.72,706.45372142542,0,41,Motors_Started,
500,2023-10-10 22:14:22,40.0688862486493,-88.2096445514818,0,,,706.45372142542,0.328084,0,0.0097275921748,0.0116113192692,19,10,0,706.45372142542,0,0,0.010437500334,0,0,0,181.5, -0.8, -0.6,0,0,1024,1024,1024,1024,0,0,0,0,0,0,0,65,,,,,,,0,86.72,706.45372142542,0,41,Motors_Started,
600,2023-10-10 22:14:22,40.0688862540586,-88.209644549616,0,,,706.45372142542,0.328084,0,0.0086165029004,0.0136524938752,19,10,0,706.45372142542,0,0,0.010437500334,0,0,0,181.5, -0.8, -0.6,0,0,1024,1024,1024,1024,0,0,0,0,0,0,0,65,,,,,,,0,86.72,706.45372142542,0,41,Motors_Started,
700,2023-10-10 22:14:22,40.0688862635231,-88.2096445446551,0,,,706.45372142542,0.328084,0,0.008109088186,0.0173730976688,19,10,0,706.45372142542,0,0,0.010437500334,0,0,0,181.6, -0.8, -0.6,0,0,1024,1024,1024,1024,0,0,0,0,0,0,0,65,,,,,,,0,86.72,706.45372142542,0,41,Motors_Started,
800,2023-10-10 22:14:22,40.0688862766742,-88.2096445399067,0,,,706.45372142542,0.328084,0,0.009416995052,0.022351050584,19,10,0,706.45372142542,0,0,0.010437500334,0,0,0,181.5, -0.8, -0.6,0,0,1024,1024,1024,1024,0,0,0,0,0,0,0,65,,,,,,,0,86.72,706.45372142542,0,41,Motors_Started,
900,2023-10-10 22:14:23,40.0688862868145,-88.2096445469326,0,,,706.45372142542,0.328084,0,0.0094206367844,0.0265386491432,19,10,0,706.45372142542,0,0,0.010437500334,0,0,0,181.5, -0.9, -0.6,0,0,1024,1024,1024,1024,0,0,0,0,0,0,0,65,,,,,,,0,86.72,706.45372142542,0,41,Motors_Started,
1000,2023-10-10 22:14:23,40.0688862928769,-88.209644543496,0,,,706.45372142542,0.328084,0,0.0116398625772,0.028949640034,19,10,0,706.45372142542,0,0,0.0116398625772,0,0,0,181.3, -0.9, -0.6,0,0,1024,1024,1024,1024,0,0,0,0,0,0,0,65,,,,,,,0,86.72,706.45372142542,0,41,Motors_Started,
1100,2023-10-10 22:14:23,40.0688862948041,-88.2096445219685,0,,,706.45372142542,0.328084,0,0.0167663391192,0.035001313456,19,10,0,706.45372142542,0,0,0.0167663391192,0,0,0,181.5, -0.9, -0.6,0,0,1024,1024,1024,1024,0,0,0,0,0,0,0,65,,,,,,,0,86.72,706.45372142542,0,41,Motors_Started,
1200,2023-10-10 22:14:23,40.0688862925514,-88.2096445215834,0,,,706.45372142542,0.328084,0,0.0164290359588,0.03583005364,19,10,22.4695,706.45372142542,0,0,0.0167663391192,0,0,0,181.6, -0.8, -0.6,0,0,1024,1024,1024,1024,0,0,0,0,0,0,0,65,,,,,,,3.977,86.72,706.45372142542,0,41,Motors_Started,
1300,2023-10-10 22:14:23,40.0688862815835,-88.2096445282113,0,,,706.45372142542,0.328084,0,0.0130663390008,0.040238846432,19,10,22.4695,706.45372142542,0,0,0.0167663391192,0,0,0,181.6, -0.8, -0.6,0,0,1024,1024,1024,1024,0,0,0,0,0,0,0,65,,,,,,,3.977,86.72,706.45372142542,0,41,Motors_Started,
1400,2023-10-10 22:14:23,40.068886280478,-88.2096445287775,0,,,706.45372142542,0.328084,0,0.012789862614,0.040672245396,19,10,22.4695,706.45372142542,0,0,0.0167663391192,0,0,0,181.6, -0.8, -0.6,0,0,1024,1024,1024,1024,0,0,0,0,0,0,0,65,,,,,,,3.977,86.72,706.45372142542,0,41,Motors_Started,
1500,2023-10-10 22:14:23,40.0688862795646,-88.2096445192948,0,,,706.45372142542,0.328084,0,0.015255413874,0.043340880652,19,10,22.4695,706.45372142542,0,0,0.0167663391192,0,0,0,181.6, -0.9, -0.6,0,0,1024,1024,1024,1024,0,0,0,0,0,0,0,65,,,,,,,3.977,86.72,706.45372142542,0,41,Motors_Started,
1600,2023-10-10 22:14:23,40.0688862903122,-88.2096445219353,0,,,706.45372142542,0.328084,0,0.0159472774132,0.047330710176,19,10,22.4695,706.45372142542,0,0,0.0167663391192,0,0,0,181.6, -0.8, -0.6,0,0,1024,1024,1024,1024,0,0,0,0,0,0,0,65,,,,,,,3.977,86.72,706.45372142542,0,41,Motors_Started,
1700,2023-10-10 22:14:23,40.0688863029297,-88.2096445331458,0,,,706.45372142542,0.328084,0,0.0162923561644,0.052897639488,19,10,22.4695,706.45372142542,0,0,0.0167663391192,0,0,0,181.7, -0.8, -0.6,0,0,1024,1024,1024,1024,0,0,0,0,0,0,0,65,,,,,,,3.977,86.72,706.45372142542,0,41,Motors_Started,
1800,2023-10-10 22:14:23,40.0688863092978,-88.2096445595904,0,,,706.45372142542,0.328084,0,0.0148048561168,0.0606381253,19,10,22.4695,706.45372142542,0,0,0.0167663391192,0,0,0,181.7, -0.8, -0.6,0,0,1024,1024,1024,1024,0,0,0,0,0,0,0,65,,,,,,,3.977,86.72,706.45372142542,0,41,Motors_Started,
1900,2023-10-10 22:14:24,40.0688863051855,-88.2096445786056,0,,,706.45372142542,0.328084,0,0.0129753613076,0.066155185844,19,10,22.4695,706.45372142542,0,0,0.0167663391192,0,0,0,181.7, -0.8, -0.6,0,0,1024,1024,1024,1024,0,0,0,0,0,0,0,65,,,,,,,3.977,86.72,706.45372142542,0,41,Motors_Started,
2000,2023-10-10 22:14:24,40.0688863025578,-88.2096445937261,0,,,706.45372142542,0.328084,0,0.0133011487196,0.070484582308,19,10,22.4695,706.45372142542,0,0,0.0167663391192,0,0,0,181.7, -0.8, -0.6,0,0,1024,1024,1024,1024,0,0,0,0,0,0,0,65,,,,,,,3.977,86.72,706.45372142542,0,11,AutoTakeoff,
2100,2023-10-10 22:14:24,40.0688862973157,-88.2096446076438,0,,,706.45372142542,0.328084,0,0.0140102366688,0.074815619192,19,10,22.4695,706.45372142542,0,0,0.0167663391192,0,0,0,181.7, -0.8, -0.6,0,0,1024,1024,1024,1024,0,0,0,0,0,0,0,65,,,,,,,3.977,86.72,706.45372142542,0,11,AutoTakeoff,
2200,2023-10-10 22:14:24,40.0688862854716,-88.2096446180221,0,,,706.45372142542,0.328084,0,0.0139263127816,0.080018375264,19,10,22.539,706.45372142542,0,0,0.0167663391192,0,0,0,181.7, -0.8, -0.6,0,0,1024,1024,1024,1024,0,0,0,0,0,0,0,65,,,,,,,1.407,86.72,706.45372142542,0,11,AutoTakeoff,
2300,2023-10-10 22:14:24,40.0688862818274,-88.2096446255787,0,,,706.45372142542,0.328084,0,0.0154519689984,0.082512469832,19,10,22.539,706.45372142542,0,0,0.0167663391192,0,0,0,181.7, -0.8, -0.6,0,0,1024,1024,1024,1024,0,0,0,0,0,0,0,65,,,,,,,1.407,86.72,706.45372142542,0,11,AutoTakeoff,
2400,2023-10-10 22:14:24,40.0688862793578,-88.2096446314698,0,,,706.45372142542,0.328084,0,0.0168299217984,0.084387797976,19,10,22.539,706.45372142542,0,0,0.0168299217984,0,0,0,181.7, -0.8, -0.6,0,0,1024,1024,1024,1024,0,0,0,0,0,0,0,65,,,,,,,1.407,86.72,706.45372142542,0,11,AutoTakeoff,
2500,2023-10-10 22:14:24,40.0688862636492,-88.2096446338731,0,,,706.45372142542,0.328084,0,0.0172986554092,0.090158139368,19,10,22.539,706.45372142542,0,0,0.0172986554092,0,0,0,181.7, -0.7, -0.6,0,0,1024,1024,1024,1024,0,0,0,0,0,0,0,65,,,,,,,1.407,86.72,706.45372142542,0,11,AutoTakeoff,
2600,2023-10-10 22:14:24,40.0688862677755,-88.2096446331178,0,,,706.45372142542,0.328084,0,0.016953412616,0.091678480624,19,10,22.539,706.45372142542,0,0,0.0172986554092,0,0,0,181.7, -0.5, -0.7,0,0,1024,1024,1024,1024,0,0,0,0,0,0,0,65,,,,,,,1.407,86.72,706.45372142542,0,11,AutoTakeoff,
2700,2023-10-10 22:14:24,40.0688862682165,-88.2096446280643,0,,,706.45372142542,0.328084,0,0.0155367787124,0.093098428176,19,10,22.539,706.45372142542,0,0,0.0172986554092,0,0,0,181.7, -0.7, -0.8,0,0,1024,1024,1024,1024,0,0,0,0,0,0,0,65,,,,,,,1.407,86.72,706.45372142542,0,11,AutoTakeoff,
2800,2023-10-10 22:14:24,40.0688862665964,-88.2096446246872,0,,,706.45372142542,0.328084,0,0.0146319886572,0.094211289104,19,10,22.539,706.45372142542,0,0,0.0172986554092,0,0,0,181.6, -0.3, -0.7,0,0,1024,1024,1024,1024,0,0,0,0,0,0,0,65,,,,,,,1.407,86.72,706.45372142542,0,11,AutoTakeoff,
2900,2023-10-10 22:14:25,40.0688862755958,-88.2096445905154,0,,,706.45372142542,0.328084,0,0.0054470474184,0.104301840608,19,10,22.539,706.45372142542,0,0,0.0172986554092,0,0,0,181.3, 0.7, -0.2,0,0,1024,1024,1024,1024,0,0,0,0,0,0,0,65,,,,,,,1.407,86.72,706.45372142542,0,11,AutoTakeoff,
3000,2023-10-10 22:14:25,40.0688863142125,-88.2096445518583,0,,,706.45372142542,0.328084,0,0.0171488850632,0.122050200756,19,10,22.539,706.45372142542,0,0,0.0172986554092,0,0,-0.223694,180.9, 2, 0,0,0,1024,1024,1024,1024,0,0,0,0,0,0,0,65,,,,,,,1.407,86.72,706.45372142542,0,11,AutoTakeoff,
3100,2023-10-10 22:14:25,40.0688863923519,-88.2096444938614,0,,,706.45372142542,0.328084,0,0.049764765372,0.154837275296,19,10,22.539,706.45372142542,0,0,0.049764765372,0,0,-0.671082,180.8, 2, 0.5,0,0,1024,1024,1024,1024,0,0,0,0,0,0,0,65,,,,,,,1.407,86.72,706.45372142542,0,11,AutoTakeoff,
3200,2023-10-10 22:14:25,40.0688864920925,-88.2096444107047,0,,,706.45372142542,0.328084,0.223694,0.092788388796,0.198003287176,19,10,22.2825,706.45372142542,0,0.223694,0.092788388796,0.223694,0,-0.894776,180.9, 1.6, 0.9,0,0,1024,1024,1024,1024,0,0,0,0,0,0,0,65,,,,,,,6.67,86.72,706.45372142542,0,11,AutoTakeoff,
3300,2023-10-10 22:14:25,40.0688866373389,-88.2096443309835,0.328084,,,706.78180542542,0.328084,0.223694,0.150048889316,0.255481307388,19,10,22.2825,706.78180542542,0.328084,0.223694,0.150048889316,0.223694,0,-1.11847,181, 0.4, 1,0,0,1024,1024,1024,1024,0,0,0,0,0,0,0,65,,,,,,,6.67,86.72,706.78180542542,0.328084,11,AutoTakeoff,
3400,2023-10-10 22:14:25,40.0688867903361,-88.2096442635358,0.656168,,,707.10988942542,0.328084,0.223694,0.208542657592,0.314393382764,19,10,22.2825,707.10988942542,0.656168,0.223694,0.208542657592,0.223694,0,-1.342164,181, -1.2, 0.6,0,0,1024,1024,1024,1024,0,0,0,0,0,0,0,65,,,,,,,6.67,86.72,707.10988942542,0.656168,11,AutoTakeoff,
3500,2023-10-10 22:14:25,40.0688869453916,-88.209644182091,0.656168,,,707.10988942542,0.328084,0.223694,0.269467856392,0.37536418524,19,10,22.2825,707.10988942542,0.656168,0.223694,0.269467856392,0.223694,0,-1.342164,181, -2.6, 0.2,0,0,1024,1024,1024,1024,0,0,0,0,0,0,0,65,,,,,,,6.67,86.72,707.10988942542,0.656168,11,AutoTakeoff,
3600,2023-10-10 22:14:25,40.0688870439752,-88.2096440814249,0.984252,,,707.43797342542,0.328084,0.223694,0.313929471988,0.421013793,19,10,22.2825,707.43797342542,0.984252,0.223694,0.313929471988,0.223694,0,-1.342164,180.9, -2.4, 0.3,0,0,1024,1024,1024,1024,0,0,0,0,0,0,0,65,,,,,,,6.67,86.72,707.43797342542,0.984252,11,AutoTakeoff,
3700,2023-10-10 22:14:25,40.0688871171694,-88.2096439745955,1.312336,,,707.76605742542,0.328084,0.223694,0.35130578552,0.46104660268,19,10,22.2825,707.76605742542,1.312336,0.223694,0.35130578552,0,0.223694,-1.342164,180.8, -1.8, 0.9,0,0,1024,1024,1024,1024,0,0,0,0,0,0,0,65,,,,,,,6.67,86.72,707.76605742542,1.312336,11,AutoTakeoff,
3800,2023-10-10 22:14:25,40.0688871599596,-88.2096438446629,1.312336,,,707.76605742542,0.328084,0.223694,0.38306759756,0.5005413546,19,10,22.2825,707.76605742542,1.312336,0.223694,0.38306759756,0,0.223694,-1.342164,180.6, -1.4, 1.2,0,0,1024,1024,1024,1024,0,0,0,0,0,0,0,65,,,,,,,6.67,86.72,707.76605742542,1.312336,11,AutoTakeoff,
3900,2023-10-10 22:14:26,40.0688871670385,-88.2096436674527,1.64042,,,708.09414142542,0.328084,0.223694,0.41349738856,0.55008860028,19,10,22.2825,708.09414142542,1.64042,0.223694,0.41349738856,0,0.223694,-1.342164,180.5, -1.1, 1.2,0,0,1024,1024,1024,1024,0,0,0,0,0,0,0,65,,,,,,,6.67,86.72,708.09414142542,1.64042,11,AutoTakeoff,
4000,2023-10-10 22:14:26,40.0688871872154,-88.2096435061791,1.64042,,,708.09414142542,0.328084,0.223694,0.44792652352,0.59571524216,19,10,22.2825,708.09414142542,1.64042,0.223694,0.44792652352,0,0.223694,-1.342164,180.4, -0.7, 1.4,0,0,1024,1024,1024,1024,0,0,0,0,0,0,0,65,,,,,,,6.67,86.72,708.09414142542,1.64042,11,AutoTakeoff,
4100,2023-10-10 22:14:26,40.0688872093124,-88.2096433301477,1.968504,,,708.42222542542,0.328084,0.223694,0.48762796836,0.6455216742,19,10,22.2825,708.42222542542,1.968504,0.223694,0.48762796836,0,0.223694,-1.11847,180.2, -0.8, 2.2,0,0,1024,1024,1024,1024,0,0,0,0,0,0,0,65,,,,,,,6.67,86.72,708.42222542542,1.968504,11,AutoTakeoff,
4200,2023-10-10 22:14:26,40.068887235986,-88.2096432001541,2.296588,,,708.75030942542,0.328084,0.223694,0.52061681456,0.68310041556,19,10,22.2825,708.75030942542,2.296588,0.223694,0.52061681456,0,0.223694,-1.11847,180.2, -0.9, 2.5,0,0,1024,1024,1024,1024,0,0,0,0,0,0,0,65,,,,,,,8.48,86.72,708.75030942542,2.296588,11,AutoTakeoff,
4300,2023-10-10 22:14:26,40.0688872896262,-88.209643093762,2.296588,,,708.75030942542,0.328084,0,0.5557578918,0.71867128284,19,10,22.2825,708.75030942542,2.296588,0.223694,0.5557578918,0,0,-1.11847,180.3, -1.2, 2.3,0,0,1024,1024,1024,1024,0,0,0,0,0,0,0,65,,,,,,,8.48,86.72,708.75030942542,2.296588,11,AutoTakeoff,
4400,2023-10-10 22:14:26,40.0688873001083,-88.2096430052087,2.624672,,,709.07839342542,0.328084,0,0.57685041216,0.74369096868,19,10,22.2825,709.07839342542,2.624672,0.223694,0.57685041216,0,0,-1.11847,180.4, -1.2, 2,0,0,1024,1024,1024,1024,0,0,0,0,0,0,0,65,,,,,,,8.48,86.72,709.07839342542,2.624672,11,AutoTakeoff,
4500,2023-10-10 22:14:26,40.0688872920316,-88.2096429040875,2.624672,,,709.07839342542,0.328084,0,0.59670605584,0.77207679636,19,10,22.2825,709.07839342542,2.624672,0.223694,0.59670605584,0,0,-0.894776,180.5, -0.5, 2.3,0,0,1024,1024,1024,1024,0,0,0,0,0,0,0,65,,,,,,,8.48,86.72,709.07839342542,2.624672,11,AutoTakeoff,
4600,2023-10-10 22:14:26,40.068887279432,-88.2096428063778,2.952756,,,709.40647742542,0.328084,0,0.61547574148,0.79974412008,19,10,22.2825,709.40647742542,2.952756,0.223694,0.61547574148,0,0,-0.894776,180.6, -0.1, 3,0,0,1024,1024,1024,1024,0,0,0,0,0,0,0,65,,,,,,,8.48,86.72,709.40647742542,2.952756,11,AutoTakeoff,
4700,2023-10-10 22:14:26,40.0688872570826,-88.2096427458147,2.952756,,,709.40647742542,0.328084,0,0.62436681788,0.81851708656,19,10,22.2825,709.40647742542,2.952756,0.223694,0.62436681788,0,0,-0.894776,180.6, 0, 3.3,0,0,1024,1024,1024,1024,0,0,0,0,0,0,0,65,,,,,,,8.48,86.72,709.40647742542,2.952756,11,AutoTakeoff,
4800,2023-10-10 22:14:27,40.0688872466965,-88.209642728504,3.28084,,,709.73456142542,0.328084,0,0.62615487568,0.82465881904,19,10,22.2825,709.73456142542,3.28084,0.223694,0.62615487568,0,0,-0.894776,180.7, 0.1, 3,0,0,1024,1024,1024,1024,0,0,0,0,0,0,0,65,,,,,,,8.48,86.72,709.73456142542,3.28084,11,AutoTakeoff,
4900,2023-10-10 22:14:27,40.0688872443027,-88.2096427421394,3.28084,,,709.73456142542,0.328084,0,0.62252954748,0.82856629948,19,10,22.2825,709.73456142542,3.28084,0.223694,0.62615487568,0,0,-0.894776,180.7, 0, 1.9,0,0,1024,1024,1024,1024,0,0,0,0,0,0,0,65,,,,,,,8.48,86.72,709.73456142542,3.28084,11,AutoTakeoff,
5000,2023-10-10 22:14:27,40.0688872483993,-88.2096427616301,3.608924,,,710.06264542542,0.328084,0,0.618930466,0.83420934428,19,10,22.2825,710.06264542542,3.608924,0.223694,0.62615487568,0,0,-0.894776,180.8, 0, 0.4,0,0,1024,1024,1024,1024,0,0,0,0,0,0,0,65,,,,,,,8.48,86.72,710.06264542542,3.608924,14,Waypoint,
5100,2023-10-10 22:14:27,40.0688872350385,-88.2096427444436,3.608924,,,710.06264542542,0.328084,0,0.62007547916,0.84104989568,19,10,22.2825,710.06264542542,3.608924,0.223694,0.62615487568,0,0,-0.671082,180.8, -0.2, 0.2,0,0,1024,1024,1024,1024,0,0,0,0,0,0,0,65,,,,,,,8.48,86.72,710.06264542542,3.608924,14,Waypoint,
5200,2023-10-10 22:14:27,40.0688872336489,-88.2096426979644,3.608924,,,710.06264542542,0.328084,0,0.63051839288,0.8540354604,19,10,22.2825,710.06264542542,3.608924,0.223694,0.63051839288,0,0,-0.447388,180.7, -0.4, 0.9,0,0,1024,1024,1024,1024,0,0,0,0,0,0,0,65,,,,,,,8.48,86.72,710.06264542542,3.608924,14,Waypoint,
5300,2023-10-10 22:14:27,40.0688872439895,-88.2096426290209,3.608924,,,710.06264542542,0.328084,0,0.64864503388,0.87365160276,19,10,22.2825,710.06264542542,3.608924,0.223694,0.64864503388,0,0,-0.447388,180.6, -0.6, 1.2,0,0,1024,1024,1024,1024,0,0,0,0,0,0,0,65,,,,,,,8.48,86.72,710.06264542542,3.608924,14,Waypoint,
5400,2023-10-10 22:14:27,40.0688872521563,-88.2096425403351,3.937008,,,710.39072942542,0.328084,0,0.67108269864,0.89859254844,19,10,22.2825,710.39072942542,3.937008,0.223694,0.67108269864,0,0,-0.447388,180.6, -0.7, 1.3,0,0,1024,1024,1024,1024,0,0,0,0,0,0,0,65,,,,,,,8.48,86.72,710.39072942542,3.937008,14,Waypoint,
5500,2023-10-10 22:14:27,40.0688872589861,-88.2096424261223,3.937008,,,710.39072942542,0.328084,0,0.69953414312,0.9305774576,19,10,22.2825,710.39072942542,3.937008,0.223694,0.69953414312,0,0,-0.447388,180.5, -0.6, 1.4,0,0,1024,1024,1024,1024,0,0,0,0,0,0,0,65,,,,,,,8.48,86.72,710.39072942542,3.937008,14,Waypoint,
5600,2023-10-10 22:14:27,40.06888724996,-88.2096422935053,3.937008,,,710.39072942542,0.328084,0.223694,0.72988519396,0.96775265564,19,10,22.2825,710.39072942542,3.937008,0.223694,0.72988519396,0,0.223694,-0.671082,180.5, -0.5, 1.7,0,0,1024,1024,1024,1024,0,0,0,0,0,0,0,65,,,,,,,8.48,86.72,710.39072942542,3.937008,14,Waypoint,
5700,2023-10-10 22:14:27,40.0688872039722,-88.209642096689,4.265092,,,710.71881342542,0.328084,0.223694,0.77069556272,1.02521000656,19,10,22.2825,710.71881342542,4.265092,0.223694,0.77069556272,0,0.223694,-0.894776,180.6, -0.3, 1.8,0,0,1024,1024,1024,1024,0,0,0,0,0,0,0,65,,,,,,,8.48,86.72,710.71881342542,4.265092,14,Waypoint,
5800,2023-10-10 22:14:28,40.0688872042455,-88.2096419705837,4.265092,,,710.71881342542,0.328084,0.223694,0.80247049812,1.06041998144,19,10,22.2825,710.71881342542,4.265092,0.223694,0.80247049812,0,0.223694,-1.342164,180.9, -0.1, 1.7,0,0,1024,1024,1024,1024,0,0,0,0,0,0,0,65,,,,,,,8.48,86.72,710.71881342542,4.265092,14,Waypoint,
5900,2023-10-10 22:14:28,40.0688872282311,-88.2096418435996,4.593176,,,711.04689742542,0.328084,0.223694,0.83831367512,1.09693901148,19,10,22.2825,711.04689742542,4.593176,0.223694,0.83831367512,0,0.223694,-1.789552,180.9, -0.1, 2,0,0,1024,1024,1024,1024,0,0,0,0,0,0,0,65,,,,,,,8.48,86.72,711.04689742542,4.593176,14,Waypoint,
6000,2023-10-10 22:14:28,40.0688872751872,-88.2096417146656,4.92126,,,711.37498142542,0.328084,0.223694,0.87817916196,1.13680777916,19,10,22.2825,711.37498142542,4.92126,0.223694,0.87817916196,0,0.223694,-2.23694,180.8, 0, 2.5,0,0,1024,1024,1024,1024,0,0,0,0,0,0,0,65,,,,,,,8.48,86.72,711.37498142542,4.92126,14,Waypoint,
6100,2023-10-10 22:14:28,40.0688873159892,-88.2096415521596,5.249344,,,711.70306542542,0.328084,0.223694,0.92563651256,1.18456040536,19,10,22.2825,711.70306542542,5.249344,0.223694,0.92563651256,0,0.223694,-2.684328,180.7, 0, 2.7,0,0,1024,1024,1024,1024,0,0,0,0,0,0,0,65,,,,,,,8.48,86.72,711.70306542542,5.249344,14,Waypoint,
6200,2023-10-10 22:14:28,40.0688873440862,-88.2096414072081,5.577428,,,712.03114942542,0.328084,0.223694,0.9667651228,1.22630909436,19,10,22.253,712.03114942542,5.577428,0.223694,0.9667651228,0,0.223694,-3.131716,180.8, -0.4, 2.5,0,0,1024,1024,1024,1024,0,0,0,0,0,0,0,65,,,,,,,8.553,86.72,712.03114942542,5.577428,14,Waypoint,
6300,2023-10-10 22:14:28,40.0688873494379,-88.2096412547946,6.233596,,,712.68731742542,0.328084,0.223694,1.00657483536,1.26891080176,19,10,22.253,712.68731742542,6.233596,0.223694,1.00657483536,0,0.223694,-3.802798,180.8, -1, 2.3,0,0,1024,1024,1024,1024,0,0,0,0,0,0,0,65,,,,,,,8.553,86.72,712.68731742542,6.233596,14,Waypoint,
6400,2023-10-10 22:14:28,40.0688873140897,-88.2096410769945,6.889764,,,713.34348542542,0.328084,0.223694,1.04768376056,1.32020017348,19,10,22.253,713.34348542542,6.889764,0.223694,1.04768376056,0,0.223694,-4.250186,180.9, -0.8, 2.5,0,0,1024,1024,1024,1024,0,0,0,0,0,0,0,65,,,,,,,8.553,86.72,713.34348542542,6.889764,14,Waypoint,
6500,2023-10-10 22:14:28,40.0688872829062,-88.2096408559743,7.545932,,,713.99965342542,0.328084,0.223694,1.10152890664,1.38295280016,19,10,22.253,713.99965342542,7.545932,0.223694,1.10152890664,0,0.223694,-4.697574,180.8, -0.3, 3.2,0,0,1024,1024,1024,1024,0,0,0,0,0,0,0,65,,,,,,,8.553,86.72,713.99965342542,7.545932,14,Waypoint,
6600,2023-10-10 22:14:28,40.0688872589249,-88.2096406607719,8.2021,,,714.65582142542,0.328084,0.223694,1.15023953812,1.43815293316,19,10,22.253,714.65582142542,8.2021,0.223694,1.15023953812,0,0.223694,-4.921268,180.7, 0, 3.8,0,0,1024,1024,1024,1024,0,0,0,0,0,0,0,65,,,,,,,8.553,86.72,714.65582142542,8.2021,14,Waypoint,
6700,2023-10-10 22:14:28,40.0688872681759,-88.2096404713003,8.858268,,,715.31198942542,0.328084,0.223694,1.20160765,1.49116146504,19,10,22.253,715.31198942542,8.858268,0.223694,1.20160765,0,0.223694,-5.368656,180.5, 0.4, 4.1,0,0,1024,1024,1024,1024,0,0,0,0,0,0,0,65,,,,,,,8.553,86.72,715.31198942542,8.858268,14,Waypoint,
6800,2023-10-10 22:14:28,40.0688872534914,-88.2096403216727,9.84252,,,716.29624142542,0.328084,0.223694,1.23992129952,1.53328088896,19,10,22.253,716.29624142542,9.84252,0.223694,1.23992129952,0,0.223694,-5.59235,180.4, 0.4, 3.9,0,0,1024,1024,1024,1024,0,0,0,0,0,0,0,65,,,,,,,8.553,86.72,716.29624142542,9.84252,14,Waypoint,
6900,2023-10-10 22:14:29,40.0688872368017,-88.209640171009,10.826772,,,717.28049342542,0.328084,0.223694,1.27855319052,1.575787452,19,10,22.253,717.28049342542,10.826772,0.223694,1.27855319052,0,0.223694,-5.816044,180.3, 0.2, 3.7,0,0,1024,1024,1024,1024,0,0,0,0,0,0,0,65,,,,,,,8.553,86.72,717.28049342542,10.826772,14,Waypoint,
7000,2023-10-10 22:14:29,40.068887232221,-88.2096400346156,11.48294,,,717.93666142542,0.328084,0.223694,1.31475069824,1.61390425112,19,10,22.253,717.93666142542,11.48294,0.223694,1.31475069824,0,0.223694,-6.039738,180.3, 0, 3.8,0,0,1024,1024,1024,1024,0,0,0,0,0,0,0,65,,,,,,,8.553,86.72,717.93666142542,11.48294,14,Waypoint,
7100,2023-10-10 22:14:29,40.0688872289613,-88.2096398968503,12.467192,,,718.92091342542,0.328084,0.223694,1.35154859968,1.65238850432,19,10,22.253,718.92091342542,12.467192,0.223694,1.35154859968,0,0.223694,-6.263432,180.4, -0.2, 4.1,0,0,1024,1024,1024,1024,0,0,0,0,0,0,0,65,,,,,,,8.553,86.72,718.92091342542,12.467192,14,Waypoint,
7200,2023-10-10 22:14:29,40.0688872127174,-88.2096397715384,13.451444,,,719.90516542542,0.328084,0.223694,1.3838911204,1.68787406976,19,10,22.114,719.90516542542,13.451444,0.223694,1.3838911204,0,0.223694,-6.263432,180.4, -0.3, 4.2,0,0,1024,1024,1024,1024,0,0,0,0,0,0,0,65,,,,,,,12.487,86.72,719.90516542542,13.451444,14,Waypoint,
7300,2023-10-10 22:14:29,40.0688871760091,-88.209639657388,14.435696,,,720.88941742542,0.328084,0.223694,1.41158797168,1.72244756168,19,10,22.114,720.88941742542,14.435696,0.223694,1.41158797168,0,0.223694,-6.263432,180.5, -0.2, 4.5,0,0,1024,1024,1024,1024,0,0,0,0,0,0,0,65,,,,,,,12.487,86.72,720.88941742542,14.435696,14,Waypoint,
7400,2023-10-10 22:14:29,40.0688871138547,-88.2096395683683,15.091864,,,721.54558542542,0.328084,0,1.43071198804,1.75609257588,19,10,22.114,721.54558542542,15.091864,0.223694,1.43071198804,0,0,-6.263432,180.6, 0.2, 4.4,0,0,1024,1024,1024,1024,0,0,0,0,0,0,0,65,,,,,,,12.487,86.72,721.54558542542,15.091864,14,Waypoint,
7500,2023-10-10 22:14:29,40.0688870569583,-88.2096395067207,16.076116,,,722.52983742542,0.328084,0,1.44325135852,1.78305779984,19,10,22.114,722.52983742542,16.076116,0.223694,1.44325135852,0,0,-6.039738,180.7, 0.6, 4.4,0,0,1024,1024,1024,1024,0,0,0,0,0,0,0,65,,,,,,,12.487,86.72,722.52983742542,16.076116,14,Waypoint,
7600,2023-10-10 22:14:29,40.0688870160226,-88.2096394704606,17.060368,,,723.51408942542,0.328084,0,1.45029860284,1.80110241984,19,10,22.114,723.51408942542,17.060368,0.223694,1.45029860284,0,0,-6.039738,180.7, 0.8, 4.6,0,0,1024,1024,1024,1024,0,0,0,0,0,0,0,65,,,,,,,12.487,86.72,723.51408942542,17.060368,14,Waypoint,
7700,2023-10-10 22:14:29,40.068886983681,-88.2096394609958,18.04462,,,724.49834142542,0.328084,0,1.45072839288,1.81319231524,19,10,22.114,724.49834142542,18.04462,0.223694,1.45072839288,0,0,-5.816044,180.7, 0.9, 4.6,0,0,1024,1024,1024,1024,0,0,0,0,0,0,0,65,,,,,,,12.487,86.72,724.49834142542,18.04462,14,Waypoint,
7800,2023-10-10 22:14:29,40.0688869765394,-88.2096394816844,18.700788,,,725.15450942542,0.328084,0,1.44458009872,1.81953089812,19,10,22.114,725.15450942542,18.700788,0.223694,1.45072839288,0,0,-5.368656,180.7, 1.2, 4.2,0,0,1024,1024,1024,1024,0,0,0,0,0,0,0,65,,,,,,,12.487,86.72,725.15450942542,18.700788,14,Waypoint,
7900,2023-10-10 22:14:30,40.068886971688,-88.2096395217104,19.68504,,,726.13876142542,0.328084,0,1.4332677624,1.83084651528,19,10,22.114,726.13876142542,19.68504,0.223694,1.45072839288,0,0,-5.144962,180.6, 1, 4.1,0,0,1024,1024,1024,1024,0,0,0,0,0,0,0,65,,,,,,,12.487,86.72,726.13876142542,19.68504,14,Waypoint,
8000,2023-10-10 22:14:30,40.0688869694084,-88.2096395681248,20.341208,,,726.79492942542,0.328084,0,1.42037078036,1.84383208,19,10,22.114,726.79492942542,20.341208,0.223694,1.45072839288,0,0,-4.697574,180.5, 0.1, 3.9,0,0,1024,1024,1024,1024,0,0,0,0,0,0,0,65,,,,,,,12.487,86.72,726.79492942542,20.341208,14,Waypoint,
8100,2023-10-10 22:14:30,40.0688869719573,-88.2096396251564,20.997376,,,727.45109742542,0.328084,0,1.40487865388,1.85978352408,19,10,22.114,727.45109742542,20.997376,0.223694,1.45072839288,0,0,-4.250186,180.5, -0.2, 3.7,0,0,1024,1024,1024,1024,0,0,0,0,0,0,0,65,,,,,,,12.487,86.72,727.45109742542,20.997376,14,Waypoint,
8200,2023-10-10 22:14:30,40.0688869450908,-88.2096396888988,21.653544,,,728.10726542542,0.328084,0,1.38560699972,1.8801017662,19,10,22.114,728.10726542542,21.653544,0.223694,1.45072839288,0,0,-3.802798,180.7, 0, 3.7,0,0,1024,1024,1024,1024,0,0,0,0,0,0,0,65,,,,,,,12.487,86.72,728.10726542542,21.653544,14,Waypoint,
8300,2023-10-10 22:14:30,40.0688869132725,-88.2096397622914,22.309712,,,728.76343342542,0.328084,0,1.36339899376,1.90365163572,19,10,22.114,728.76343342542,22.309712,0.223694,1.45072839288,0,0,-3.35541,180.8, 0.5, 3.4,0,0,1024,1024,1024,1024,0,0,0,0,0,0,0,65,,,,,,,12.487,86.72,728.76343342542,22.309712,14,Waypoint,
8400,2023-10-10 22:14:30,40.0688868792811,-88.2096398321361,22.637796,,,729.09151742542,0.328084,0,1.34208337628,1.92676187268,19,10,22.114,729.09151742542,22.637796,0.223694,1.45072839288,0,0,-2.908022,180.8, 0.6, 3.3,0,0,1024,1024,1024,1024,0,0,0,0,0,0,0,65,,,,,,,12.487,86.72,729.09151742542,22.637796,14,Waypoint,"Sensor system error. Return to home or land"
8500,2023-10-10 22:14:30,40.0688868424061,-88.2096398409846,22.96588,,,729.41960142542,0.328084,0,1.33748035776,1.94044297548,19,10,22.114,729.41960142542,22.96588,0.223694,1.45072839288,0,0,-2.23694,180.8, 0.7, 3.3,0,0,1024,1024,1024,1024,0,0,0,0,0,0,0,65,,,,,,,12.487,86.72,729.41960142542,22.96588,14,Waypoint,
8600,2023-10-10 22:14:30,40.0688867895542,-88.2096398842975,23.293964,,,729.74768542542,0.328084,0,1.32263455676,1.96320216256,19,10,22.114,729.74768542542,23.293964,0.223694,1.45072839288,0,0,-1.789552,180.9, 0.8, 3.2,0,0,1024,1024,1024,1024,0,0,0,0,0,0,0,65,,,,,,,12.487,86.72,729.74768542542,23.293964,14,Waypoint,
8700,2023-10-10 22:14:30,40.068886737704,-88.2096399360597,23.622048,,,730.07576942542,0.328084,0,1.3057251074,1.98701121844,19,10,22.114,730.07576942542,23.622048,0.223694,1.45072839288,0,0,-1.342164,181, 0.9, 3.4,0,0,1024,1024,1024,1024,0,0,0,0,0,0,0,65,,,,,,,12.487,86.72,730.07576942542,23.622048,14,Waypoint,
8800,2023-10-10 22:14:30,40.0688866870899,-88.2096399439885,23.622048,,,730.07576942542,0.328084,0,1.30124347996,2.00560701956,19,10,22.114,730.07576942542,23.622048,0.223694,1.45072839288,0,0,-0.894776,181, 0.9, 3.8,0,0,1024,1024,1024,1024,0,0,0,0,0,0,0,65,,,,,,,12.487,86.72,730.07576942542,23.622048,14,Waypoint,
8900,2023-10-10 22:14:31,40.0688866989419,-88.2096399551336,23.950132,,,730.40385342542,0.328084,0,1.29866473972,2.01093510372,19,10,22.114,730.40385342542,23.950132,0.223694,1.45072839288,0,0,-0.447388,180.9, 0.6, 3.9,0,0,1024,1024,1024,1024,0,0,0,0,0,0,0,65,,,,,,,12.487,86.72,730.40385342542,23.950132,14,Waypoint,
9000,2023-10-10 22:14:31,40.0688867269129,-88.2096399774258,23.950132,,,730.40385342542,0.328084,0,1.29376316476,2.02289048468,19,10,22.114,730.40385342542,23.950132,0.223694,1.45072839288,0,0,-0.223694,181, 0.3, 3.7,0,0,1024,1024,1024,1024,0,0,0,0,0,0,0,65,,,,,,,12.487,86.72,730.40385342542,23.950132,14,Waypoint,
9100,2023-10-10 22:14:31,40.0688867671055,-88.2096400350955,23.950132,,,730.40385342542,0.328084,0,1.27979334804,2.0446687006,19,10,22.2675,730.40385342542,23.950132,0.223694,1.45072839288,0,0,0,185.8, -0.4, 2.7,0,0,1024,1024,1024,1024,0,0,0,0,0,0,0,65,,,,,,,6.715,86.72,730.40385342542,23.950132,14,Waypoint,
9200,2023-10-10 22:14:31,40.0688868010968,-88.209640122931,23.950132,,,730.40385342542,0.328084,0,1.25737208748,2.07214901644,19,10,22.2675,730.40385342542,23.950132,0.223694,1.45072839288,0,0,0,193.4, -0.8, 0.6,0,0,1024,1024,1024,1024,0,0,0,0,0,0,0,65,,,,,,,6.715,86.72,730.40385342542,23.950132,14,Waypoint,
9300,2023-10-10 22:14:31,40.068886796738,-88.2096401421298,23.950132,,,730.40385342542,0.328084,0,1.25183074872,2.07774284864,19,10,22.2675,730.40385342542,23.950132,0.223694,1.45072839288,0,0,0,201.4, -0.2, 0.5,0,0,1024,1024,1024,1024,0,0,0,0,0,0,0,65,,,,,,,6.715,86.72,730.40385342542,23.950132,14,Waypoint,
9400,2023-10-10 22:14:31,40.0688867861368,-88.2096400908073,23.950132,,,730.40385342542,0.328084,0,1.26541014548,2.0925853688,19,10,22.2675,730.40385342542,23.950132,0.223694,1.45072839288,0,0,0.223694,209.7, 0.2, 1.5,0,0,1024,1024,1024,1024,0,0,0,0,0,0,0,65,,,,,,,6.715,86.72,730.40385342542,23.950132,14,Waypoint,
9500,2023-10-10 22:14:31,40.0688867810353,-88.2096399783085,23.950132,,,730.40385342542,0.328084,0.223694,1.2962106714,2.1240486244,19,10,22.2675,730.40385342542,23.950132,0.223694,1.45072839288,0,0.223694,0.223694,218.1, 0.4, 2.6,0,0,1024,1024,1024,1024,0,0,0,0,0,0,0,65,,,,,,,6.715,86.72,730.40385342542,23.950132,14,Waypoint,
9600,2023-10-10 22:14:31,40.068886786105,-88.2096398180494,23.950132,,,730.40385342542,0.328084,0.223694,1.3407644786,2.1688320904,19,10,22.2675,730.40385342542,23.950132,0.223694,1.45072839288,0,0.223694,0.223694,226.6, -0.4, 3.6,0,0,1024,1024,1024,1024,0,0,0,0,0,0,0,65,,,,,,,6.715,86.72,730.40385342542,23.950132,14,Waypoint,
9700,2023-10-10 22:14:31,40.0688868114391,-88.2096396120902,23.622048,,,730.07576942542,0.328084,0.223694,1.3989993886,2.22707684292,19,10,22.2675,730.40385342542,23.950132,0.223694,1.45072839288,0,0.223694,0.223694,235.1, -2.2, 3.8,0,0,1024,1024,1024,1024,0,0,0,0,0,0,0,65,,,,,,,6.715,86.72,730.07576942542,23.622048,14,Waypoint,
9800,2023-10-10 22:14:31,40.0688868725787,-88.2096393698576,23.622048,,,730.07576942542,0.328084,0.447388,1.469160152,2.2982940368,19,10,22.2675,730.40385342542,23.950132,0.447388,1.469160152,0,0.447388,0.447388,241.8, -3.6, 3.2,0,0,1024,1024,1024,1024,0,0,0,0,0,0,0,65,,,,,,,6.715,86.72,730.07576942542,23.622048,14,Waypoint,
9900,2023-10-10 22:14:32,40.0688869181127,-88.2096391110965,23.622048,,,730.07576942542,0.328084,0.4921268,1.54309060056,2.37242789744,19,10,22.2675,730.40385342542,23.950132,0.4921268,1.54309060056,0.223694,0.447388,0.223694,246.3, -4.2, 2.8,0,0,1024,1024,1024,1024,0,0,0,0,0,0,0,65,,,,,,,6.715,86.72,730.07576942542,23.622048,14,Waypoint,
10000,2023-10-10 22:14:32,40.0688870014808,-88.2096388101675,23.622048,,,730.07576942542,0.328084,0.4921268,1.6308727556,2.46178485568,19,10,22.2675,730.40385342542,23.950132,0.4921268,1.6308727556,0.223694,0.447388,0.223694,248.7, -4.5, 2.7,0,0,1024,1024,1024,1024,0,0,0,0,0,0,0,65,,,,,,,6.715,86.72,730.07576942542,23.622048,14,Waypoint,
10100,2023-10-10 22:14:32,40.0688870907321,-88.2096384781016,23.622048,,,730.07576942542,0.328084,0.4921268,1.72774939912,2.56005257536,19,10,22.2675,730.40385342542,23.950132,0.4921268,1.72774939912,0.223694,0.447388,0.223694,250.1, -5.1, 2.6,0,0,1024,1024,1024,1024,0,0,0,0,0,0,0,65,,,,,,,6.715,86.72,730.07576942542,23.622048,14,Waypoint,
10200,2023-10-10 22:14:32,40.0688871606415,-88.2096380857863,23.622048,,,730.07576942542,0.328084,0.4921268,1.84006239484,2.6725230514,19,10,22.186,730.40385342542,23.950132,0.4921268,1.84006239484,0.223694,0.447388,0.223694,250.6, -5.8, 2.4,0,0,1024,1024,1024,1024,0,0,0,0,0,0,0,65,,,,,,,8.105,86.72,730.07576942542,23.622048,14,Waypoint,
10300,2023-10-10 22:14:32,40.0688872384353,-88.2096377613774,23.622048,,,730.07576942542,0.328084,0.4921268,1.93426515376,2.76744431428,19,10,22.186,730.40385342542,23.950132,0.4921268,1.93426515376,0.223694,0.447388,0,250.9, -6.7, 2.4,0,0,1024,1024,1024,1024,0,0,0,0,0,0,0,65,,,,,,,8.105,86.72,730.07576942542,23.622048,14,Waypoint,
10400,2023-10-10 22:14:32,40.0688873212979,-88.2096374976239,23.293964,,,729.74768542542,0.328084,0.3131716,2.01225728224,2.84705061604,19,10,22.186,730.40385342542,23.950132,0.4921268,2.01225728224,0.223694,0.223694,0,251, -7.1, 2.2,0,0,1024,1024,1024,1024,0,0,0,0,0,0,0,65,,,,,,,8.105,86.72,729.74768542542,23.293964,14,Waypoint,
10500,2023-10-10 22:14:32,40.068887415456,-88.2096372775258,23.293964,,,729.74768542542,0.328084,0.3131716,2.0792487542,2.9174541616,19,10,22.186,730.40385342542,23.950132,0.4921268,2.0792487542,0.223694,0.223694,0,251, -7.7, 1.6,0,0,1024,1024,1024,1024,0,0,0,0,0,0,0,65,,,,,,,8.105,86.72,729.74768542542,23.293964,14,Waypoint,
10600,2023-10-10 22:14:32,40.0688874926868,-88.2096371140574,23.293964,,,729.74768542542,0.328084,0.3131716,2.12970151172,2.97109261476,19,10,22.186,730.40385342542,23.950132,0.4921268,2.12970151172,0.223694,0.223694,0,251.1, -8.5, 1,0,0,1024,1024,1024,1024,0,0,0,0,0,0,0,65,,,,,,,8.105,86.72,729.74768542542,23.293964,14,Waypoint,
10700,2023-10-10 22:14:32,40.0688875672084,-88.2096370494013,23.293964,,,729.74768542542,0.328084,0,2.15316936024,3.00373041108,19,10,22.186,730.40385342542,23.950132,0.4921268,2.15316936024,0,0,0,251, -9.2, 0.9,0,0,1024,1024,1024,1024,0,0,0,0,0,0,0,65,,,,,,,8.105,86.72,729.74768542542,23.293964,14,Waypoint,
10800,2023-10-10 22:14:33,40.0688876157434,-88.2096370661908,23.293964,,,729.74768542542,0.328084,0,2.15256896652,3.0220473408,19,10,22.186,730.40385342542,23.950132,0.4921268,2.15316936024,0,0,0,250.9, -9.8, 1.1,0,0,1024,1024,1024,1024,0,0,0,0,0,0,0,65,,,,,,,8.105,86.72,729.74768542542,23.293964,14,Waypoint,
10900,2023-10-10 22:14:33,40.0688876410224,-88.2096372101172,23.293964,,,729.74768542542,0.328084,0,2.11562342728,3.06327765708,19,10,22.186,730.40385342542,23.950132,0.4921268,2.15316936024,0,-0.223694,0,250.9, -10.8, 1,0,0,1024,1024,1024,1024,0,0,0,0,0,0,0,65,,,,,,,8.105,86.72,729.74768542542,23.293964,14,Waypoint,
11000,2023-10-10 22:14:33,40.0688876486288,-88.2096374194826,23.293964,,,729.74768542542,0.328084,0.447388,2.05954731,3.12179800016,19,10,22.186,730.40385342542,23.950132,0.4921268,2.15316936024,0,-0.447388,0,250.7, -11.9, 0.6,0,0,1024,1024,1024,1024,0,0,0,0,0,0,0,65,,,,,,,8.105,86.72,729.74768542542,23.293964,14,Waypoint,
11100,2023-10-10 22:14:33,40.0688876192942,-88.2096377646222,23.293964,,,729.74768542542,0.328084,0.447388,1.96353024656,3.21875666468,19,10,22.186,730.40385342542,23.950132,0.4921268,2.15316936024,0,-0.671082,0,250.7, -13.1, 0.5,0,0,1024,1024,1024,1024,0,0,0,0,0,0,0,65,,,,,,,8.105,86.72,729.74768542542,23.293964,14,Waypoint,
11200,2023-10-10 22:14:33,40.0688875429492,-88.2096382325965,23.293964,,,729.74768542542,0.328084,0.9171454,1.83006567536,3.352362312,19,10,22.186,730.40385342542,23.950132,0.9171454,2.15316936024,-0.223694,-0.894776,0,250.8, -14.5, 0.5,0,0,1024,1024,1024,1024,0,0,0,0,0,0,0,65,,,,,,,8.105,86.72,729.74768542542,23.293964,14,Waypoint,
11300,2023-10-10 22:14:33,40.0688874271071,-88.2096389392426,23.293964,,,729.74768542542,0.328084,1.1408394,1.62852367416,3.554133972,19,10,22.186,730.40385342542,23.950132,1.1408394,2.15316936024,-0.223694,-1.11847,0,250.7, -15.9, 0.6,0,0,1024,1024,1024,1024,0,0,0,0,0,0,0,65,,,,,,,8.105,86.72,729.74768542542,23.293964,14,Waypoint,
11400,2023-10-10 22:14:33,40.0688872471514,-88.2096397673353,23.293964,,,729.74768542542,0.328084,1.1408394,1.38819886332,3.7944883104,19,10,22.186,730.40385342542,23.950132,1.1408394,2.15316936024,-0.447388,-1.565858,0,250.8, -17.7, 0.7,0,0,1024,1024,1024,1024,0,0,0,0,0,0,0,65,,,,,,,8.105,86.72,729.74768542542,23.293964,14,Waypoint,
11500,2023-10-10 22:14:33,40.0688870012676,-88.2096408740823,23.293964,,,729.74768542542,0.328084,2.125093,1.0665354672,4.1162730976,19,10,22.186,730.40385342542,23.950132,2.125093,2.15316936024,-0.671082,-2.013246,0,250.9, -19.4, 0.5,0,0,1024,1024,1024,1024,0,0,0,0,0,0,0,65,,,,,,,8.105,86.72,729.74768542542,23.293964,14,Waypoint,
11600,2023-10-10 22:14:33,40.0688867087513,-88.2096422448051,23.293964,,,729.74768542542,0.328084,2.7738056,0.66933401092,4.5135828216,19,10,22.186,730.40385342542,23.950132,2.7738056,2.15316936024,-0.671082,-2.684328,0,250.9, -21, 0.3,0,0,1024,1024,1024,1024,0,0,0,0,0,0,0,65,,,,,,,8.105,86.72,729.74768542542,23.293964,14,Waypoint,
11700,2023-10-10 22:14:33,40.0688863052951,-88.2096439159948,23.293964,,,729.74768542542,0.328084,3.2659324,0.183745412704,5.0028544908,19,10,22.186,730.40385342542,23.950132,3.2659324,2.15316936024,-0.894776,-3.131716,0,251, -22.2, 0.1,0,0,1024,1024,1024,1024,0,0,0,0,0,0,0,65,,,,,,,8.105,86.72,729.74768542542,23.293964,14,Waypoint,
11800,2023-10-10 22:14:33,40.0688858487989,-88.2096458223977,23.293964,,,729.74768542542,0.328084,3.9593838,0.38131890984,5.5605972908,19,10,22.186,730.40385342542,23.950132,3.9593838,2.15316936024,-1.11847,-3.802798,0,251, -23.2, 0,0,0,1024,1024,1024,1024,0,0,0,0,0,0,0,65,,,,,,,8.105,86.72,729.74768542542,23.293964,14,Waypoint,
11900,2023-10-10 22:14:34,40.0688852855298,-88.2096481717934,23.293964,,,729.74768542542,0.328084,4.6752046,1.06721460108,6.2479988876,19,10,22.186,730.40385342542,23.950132,4.6752046,2.15316936024,-1.342164,-4.47388,0,251, -23.9, 0,0,0,1024,1024,1024,1024,0,0,0,0,0,0,0,65,,,,,,,8.105,86.72,729.74768542542,23.293964,14,Waypoint,
12000,2023-10-10 22:14:34,40.068884676307,-88.2096508048863,23.293964,,,729.74768542542,0.328084,4.6752046,1.83471462564,7.0160435316,19,10,22.186,730.40385342542,23.950132,4.6752046,2.15316936024,-1.565858,-5.144962,0,251, -24.1, -0.2,0,0,1024,1024,1024,1024,0,0,0,0,0,0,0,65,,,,,,,8.105,86.72,729.74768542542,23.293964,14,Waypoint,
12100,2023-10-10 22:14:34,40.0688839264219,-88.2096538294226,23.293964,,,729.74768542542,0.328084,6.0844768,2.72237869604,7.9037404104,19,10,22.152,730.40385342542,23.950132,6.0844768,2.72237869604,-1.789552,-5.816044,0,251, -24.2, -0.5,0,0,1024,1024,1024,1024,0,0,0,0,0,0,0,65,,,,,,,8.719,86.72,729.74768542542,23.293964,14,Waypoint,
12200,2023-10-10 22:14:34,40.068883108308,-88.2096570198349,22.96588,,,729.41960142542,0.328084,6.8002976,3.6618439492,8.8432089444,19,10,22.152,730.40385342542,23.950132,6.8002976,3.6618439492,-2.013246,-6.487126,0,251, -24, -0.7,0,0,1024,1024,1024,1024,0,0,0,0,0,0,0,65,,,,,,,8.719,86.72,729.41960142542,22.96588,14,Waypoint,
12300,2023-10-10 22:14:34,40.0688821587118,-88.2096607569937,22.96588,,,729.41960142542,0.328084,7.3595326,4.76131905,9.9426840452,19,10,22.152,730.40385342542,23.950132,7.3595326,4.76131905,-2.460634,-6.934514,0,251, -23.9, -1,0,0,1024,1024,1024,1024,0,0,0,0,0,0,0,65,,,,,,,8.719,86.72,729.41960142542,22.96588,14,Waypoint,
12400,2023-10-10 22:14:34,40.0688811396041,-88.2096645668847,22.96588,,,729.41960142542,0.328084,8.0753534,5.8880579312,11.0695213516,19,10,22.152,730.40385342542,23.950132,8.0753534,5.8880579312,-2.684328,-7.605596,0,250.9, -23.7, -1.1,0,0,1024,1024,1024,1024,0,0,0,0,0,0,0,65,,,,,,,8.719,86.72,729.41960142542,22.96588,14,Waypoint,
12500,2023-10-10 22:14:34,40.0688799630478,-88.2096688890079,22.96588,,,729.41960142542,0.328084,8.7688048,7.1687338252,12.350394096,19,10,22.152,730.40385342542,23.950132,8.7688048,7.1687338252,-2.908022,-8.276678,0,250.8, -23.6, -0.8,0,0,1024,1024,1024,1024,0,0,0,0,0,0,0,65,,,,,,,8.719,86.72,729.41960142542,22.96588,14,Waypoint,
12600,2023-10-10 22:14:34,40.068878739392,-88.2096733067145,22.96588,,,729.41960142542,0.328084,9.2609316,8.4802824236,13.6621723532,19,10,22.152,730.40385342542,23.950132,9.2609316,8.4802824236,-3.131716,-8.724066,0,250.7, -23.8, -0.3,0,0,1024,1024,1024,1024,0,0,0,0,0,0,0,65,,,,,,,8.719,86.72,729.41960142542,22.96588,14,Waypoint,
12700,2023-10-10 22:14:34,40.0688773744276,-88.2096783215838,22.96588,,,729.41960142542,0.328084,9.9767524,9.9663060932,15.148294448,19,10,22.152,730.40385342542,23.950132,9.9767524,9.9663060932,-3.35541,-9.395148,0,250.7, -23.8, -0.1,0,0,1024,1024,1024,1024,0,0,0,0,0,0,0,65,,,,,,,8.719,86.72,729.41960142542,22.96588,14,Waypoint,
12800,2023-10-10 22:14:34,40.0688759656207,-88.2096833436763,22.96588,,,729.41960142542,0.328084,10.6925732,11.4595148024,16.641732816,19,10,22.152,730.40385342542,23.950132,10.6925732,11.4595148024,-3.579104,-10.06623,0,250.8, -23.2, -0.2,0,0,1024,1024,1024,1024,0,0,0,0,0,0,0,65,,,,,,,8.719,86.72,729.41960142542,22.96588,14,Waypoint,
12900,2023-10-10 22:14:35,40.0688743939491,-88.209688917222,22.96588,,,729.41960142542,0.328084,11.1847,13.1177169552,18.300197436,19,10,22.152,730.40385342542,23.950132,11.1847,13.1177169552,-3.802798,-10.513618,0,251, -21.8, -0.1,0,0,1024,1024,1024,1024,0,0,0,0,0,0,0,65,,,,,,,8.719,86.72,729.41960142542,22.96588,14,Waypoint,
13000,2023-10-10 22:14:35,40.0688728429791,-88.2096944979489,22.96588,,,729.41960142542,0.328084,11.6768268,14.7753613652,19.9579730796,19,10,22.152,730.40385342542,23.950132,11.6768268,14.7753613652,-4.026492,-10.961006,0,251.1, -20.4, -0.3,0,0,1024,1024,1024,1024,0,0,0,0,0,0,0,65,,,,,,,8.719,86.72,729.41960142542,22.96588,14,Waypoint,
13100,2023-10-10 22:14:35,40.0688711324532,-88.2097005568336,22.96588,,,729.41960142542,0.328084,12.1018454,16.5783141788,21.7610899352,19,10,22.116,730.40385342542,23.950132,12.1018454,16.5783141788,-4.026492,-11.408394,0,251.1, -19.4, -0.1,0,0,1024,1024,1024,1024,0,0,0,0,0,0,0,64,,,,,,,9.72,86.72,729.41960142542,22.96588,14,Waypoint,
13200,2023-10-10 22:14:35,40.0688694587377,-88.2097065225836,22.96588,,,729.41960142542,0.328084,12.5939722,18.3522971752,23.5352041652,19,10,22.116,730.40385342542,23.950132,12.5939722,18.3522971752,-4.250186,-11.855782,0,251.1, -18.4, -0.2,0,0,1024,1024,1024,1024,0,0,0,0,0,0,0,64,,,,,,,9.72,86.72,729.41960142542,22.96588,14,Waypoint,
13300,2023-10-10 22:14:35,40.0688676497863,-88.2097129643086,22.96588,,,729.41960142542,0.328084,12.7952968,20.268045268,25.4510506832,19,10,22.116,730.40385342542,23.950132,12.7952968,20.268045268,-4.250186,-12.079476,0,251.1, -17.1, -0.1,0,0,1024,1024,1024,1024,0,0,0,0,0,0,0,65,,,,,,,9.72,86.72,729.41960142542,22.96588,14,Waypoint,
13400,2023-10-10 22:14:35,40.0688659380182,-88.2097190947676,22.96588,,,729.41960142542,0.328084,13.086099,22.090059762,27.2730979856,19,10,22.116,730.40385342542,23.950132,13.086099,22.090059762,-4.47388,-12.30317,0,251, -16.1, 0,0,0,1024,1024,1024,1024,0,0,0,0,0,0,0,65,,,,,,,9.72,86.72,729.41960142542,22.96588,14,Waypoint,
13500,2023-10-10 22:14:35,40.0688641741772,-88.2097252361635,22.96588,,,729.41960142542,0.328084,13.086099,23.9213590332,29.1046269156,19,10,22.116,730.40385342542,23.950132,13.086099,23.9213590332,-4.47388,-12.30317,0,251, -15, 0.2,0,0,1024,1024,1024,1024,0,0,0,0,0,0,0,65,,,,,,,9.72,86.72,729.41960142542,22.96588,14,Waypoint,
13600,2023-10-10 22:14:35,40.0688625237664,-88.2097309562244,22.96588,,,729.41960142542,0.328084,13.3769012,25.627953576,30.8114511172,19,10,22.116,730.40385342542,23.950132,13.3769012,25.627953576,-4.697574,-12.526864,0,250.9, -14, 0.7,0,0,1024,1024,1024,1024,0,0,0,0,0,0,0,65,,,,,,,9.72,86.72,729.41960142542,22.96588,14,Waypoint,
13700,2023-10-10 22:14:35,40.0688605822445,-88.2097377942089,22.96588,,,729.41960142542,0.328084,13.3769012,27.6642397304,32.84777008,19,10,22.116,730.40385342542,23.950132,13.3769012,27.6642397304,-4.697574,-12.526864,0,250.8, -12.1, 1.2,0,0,1024,1024,1024,1024,0,0,0,0,0,0,0,65,,,,,,,9.72,86.72,729.41960142542,22.96588,14,Waypoint,
13800,2023-10-10 22:14:35,40.0688586190979,-88.2097444920339,22.96588,,,729.41960142542,0.328084,13.3769012,29.6664379572,34.850394816,19,10,22.116,730.40385342542,23.950132,13.3769012,29.6664379572,-4.697574,-12.526864,0,251, -10, 1.5,0,0,1024,1024,1024,1024,0,0,0,0,0,0,0,65,,,,,,,9.72,86.72,729.41960142542,22.96588,14,Waypoint,
13900,2023-10-10 22:14:36,40.0688565652295,-88.2097514600583,22.96588,,,729.41960142542,0.328084,13.1755766,31.7508868428,36.935368636,19,10,22.116,730.40385342542,23.950132,13.3769012,31.7508868428,-4.697574,-12.30317,0,251, -8.2, 1.8,0,0,1024,1024,1024,1024,0,0,0,0,0,0,0,65,,,,,,,9.72,86.72,729.41960142542,22.96588,14,Waypoint,
14000,2023-10-10 22:14:36,40.068854635157,-88.2097580176957,22.96588,,,729.41960142542,0.328084,13.1755766,33.71227142,38.896982872,19,10,22.116,730.40385342542,23.950132,13.3769012,33.71227142,-4.697574,-12.30317,0,251, -6.6, 1.9,0,0,1024,1024,1024,1024,0,0,0,0,0,0,0,65,,,,,,,9.72,86.72,729.41960142542,22.96588,14,Waypoint,
14100,2023-10-10 22:14:36,40.0688525213362,-88.2097652992418,22.96588,,,729.41960142542,0.328084,12.8847744,35.886484088,41.071523624,19,10,22.153,730.40385342542,23.950132,13.3769012,35.886484088,-4.47388,-12.079476,0,251.1, -4.8, 2,0,0,1024,1024,1024,1024,0,0,0,0,0,0,0,64,,,,,,,8.3,86.72,729.41960142542,22.96588,14,Waypoint,
14200,2023-10-10 22:14:36,40.0688506742306,-88.2097716254574,22.96588,,,729.41960142542,0.328084,12.6610804,37.776904096,42.961943632,19,10,22.153,730.40385342542,23.950132,13.3769012,37.776904096,-4.47388,-11.855782,0,251.3, -2.7, 1.8,0,0,1024,1024,1024,1024,0,0,0,0,0,0,0,64,,,,,,,8.3,86.72,729.41960142542,22.96588,14,Waypoint,
14300,2023-10-10 22:14:36,40.0688487926331,-88.2097781005026,22.96588,,,729.41960142542,0.328084,12.3926476,39.710631192,44.895670728,19,10,22.153,730.40385342542,23.950132,13.3769012,39.710631192,-4.250186,-11.632088,0,251.4, -1.1, 1.6,0,0,1024,1024,1024,1024,0,0,0,0,0,0,0,65,,,,,,,8.3,86.72,729.41960142542,22.96588,14,Waypoint,
14400,2023-10-10 22:14:36,40.0688470154172,-88.2097842413948,22.96588,,,729.41960142542,0.328084,11.8781514,41.5436365,46.72900412,19,10,22.153,730.40385342542,23.950132,13.3769012,41.5436365,-4.026492,-11.1847,0,251.6, 0.3, 1.5,0,0,1024,1024,1024,1024,0,0,0,0,0,0,0,65,,,,,,,8.3,86.72,729.41960142542,22.96588,14,Waypoint,
14500,2023-10-10 22:14:36,40.0688452770815,-88.2097903203148,22.96588,,,729.41960142542,0.328084,11.6768268,43.355316348,48.540683968,19,10,22.153,730.40385342542,23.950132,13.3769012,43.355316348,-4.026492,-10.961006,0,251.8, 1.8, 1.3,0,0,1024,1024,1024,1024,0,0,0,0,0,0,0,65,,,,,,,8.3,86.72,729.41960142542,22.96588,14,Waypoint,
14600,2023-10-10 22:14:36,40.0688437048294,-88.2097958881878,22.96588,,,729.41960142542,0.328084,11.1847,45.012468632,50.197836252,19,10,22.153,730.40385342542,23.950132,13.3769012,45.012468632,-3.802798,-10.513618,0,251.8, 3.3, 1.3,0,0,1024,1024,1024,1024,0,0,0,0,0,0,0,65,,,,,,,8.3,86.72,729.41960142542,22.96588,14,Waypoint,
14700,2023-10-10 22:14:36,40.0688421439626,-88.2098014915359,22.96588,,,729.41960142542,0.328084,10.6925732,46.677494932,51.862862552,19,10,22.153,730.40385342542,23.950132,13.3769012,46.677494932,-3.579104,-10.06623,0,251.9, 4.8, 1.1,0,0,1024,1024,1024,1024,0,0,0,0,0,0,0,65,,,,,,,8.3,86.72,729.41960142542,22.96588,14,Waypoint,
14800,2023-10-10 22:14:36,40.0688407428229,-88.2098065900388,22.96588,,,729.41960142542,0.328084,9.9767524,48.189962172,53.375329792,19,10,22.153,730.40385342542,23.950132,13.3769012,48.189962172,-3.35541,-9.395148,0,252, 6.7, 1.2,0,0,1024,1024,1024,1024,0,0,0,0,0,0,0,65,,,,,,,8.3,86.72,729.41960142542,22.96588,14,Waypoint,
14900,2023-10-10 22:14:37,40.0688393345257,-88.2098115970386,22.96588,,,729.41960142542,0.328084,9.4846256,49.679463532,54.864831152,19,10,22.153,730.40385342542,23.950132,13.3769012,49.679463532,-3.131716,-8.94776,0,252, 8.8, 1.7,0,0,1024,1024,1024,1024,0,0,0,0,0,0,0,65,,,,,,,8.3,86.72,729.41960142542,22.96588,14,Waypoint,
15000,2023-10-10 22:14:37,40.0688380724073,-88.2098160397509,22.96588,,,729.41960142542,0.328084,8.7688048,51.002626304,56.187993924,19,10,22.153,730.40385342542,23.950132,13.3769012,51.002626304,-2.908022,-8.276678,0,252.2, 10.1, 2,0,0,1024,1024,1024,1024,0,0,0,0,0,0,0,65,,,,,,,8.3,86.72,729.41960142542,22.96588,14,Waypoint,
15100,2023-10-10 22:14:37,40.0688367958924,-88.2098203796873,22.96588,,,729.41960142542,0.328084,8.0753534,52.300526608,57.486222312,19,10,22.1905,730.40385342542,23.950132,13.3769012,52.300526608,-2.684328,-7.605596,0,252.3, 11.6, 1.8,0,0,1024,1024,1024,1024,0,0,0,0,0,0,0,64,,,,,,,6.549,86.72,729.41960142542,22.96588,14,Waypoint,
15200,2023-10-10 22:14:37,40.0688357050919,-88.2098241398096,22.96588,,,729.41960142542,0.328084,7.3595326,53.423230056,58.60892576,19,10,22.1905,730.40385342542,23.950132,13.3769012,53.423230056,-2.460634,-6.934514,0,252.4, 13.3, 2.1,0,0,1024,1024,1024,1024,0,0,0,0,0,0,0,64,,,,,,,6.549,86.72,729.41960142542,22.96588,14,Waypoint,
15300,2023-10-10 22:14:37,40.0688346713203,-88.2098276930481,22.96588,,,729.41960142542,0.328084,6.4423872,54.484581796,59.6702775,19,10,22.1905,730.40385342542,23.950132,13.3769012,54.484581796,-2.23694,-6.039738,0,252.4, 14.8, 2.3,0,0,1024,1024,1024,1024,0,0,0,0,0,0,0,65,,,,,,,6.549,86.72,729.41960142542,22.96588,14,Waypoint,
15400,2023-10-10 22:14:37,40.0688338084383,-88.2098306773869,22.96588,,,729.41960142542,0.328084,5.6594582,55.375329856,60.56102556,19,10,22.1905,730.40385342542,23.950132,13.3769012,55.375329856,-1.789552,-5.368656,0,252.4, 15.2, 1.8,0,0,1024,1024,1024,1024,0,0,0,0,0,0,0,65,,,,,,,6.549,86.72,729.41960142542,22.96588,14,Waypoint,
15500,2023-10-10 22:14:37,40.0688329218221,-88.2098334158406,22.96588,,,729.41960142542,0.328084,4.7423128,56.204726208,61.39107808,19,10,22.1905,730.40385342542,23.950132,13.3769012,56.204726208,-1.565858,-4.47388,0,252.3, 15.4, 1.3,0,0,1024,1024,1024,1024,0,0,0,0,0,0,0,65,,,,,,,6.549,86.72,729.41960142542,22.96588,14,Waypoint,
15600,2023-10-10 22:14:37,40.0688322716012,-88.20983561328,22.96588,,,729.41960142542,0.328084,4.026492,56.862206544,62.0488865,19,10,22.1905,730.40385342542,23.950132,13.3769012,56.862206544,-1.342164,-3.802798,0,252.3, 15.2, 1.3,0,0,1024,1024,1024,1024,0,0,0,0,0,0,0,65,,,,,,,6.549,86.72,729.41960142542,22.96588,14,Waypoint,
15700,2023-10-10 22:14:37,40.0688316881667,-88.2098375236165,22.637796,,,729.09151742542,0.328084,3.2659324,57.436353544,62.623361584,19,10,22.1905,730.40385342542,23.950132,13.3769012,57.436353544,-0.894776,-3.131716,0,252.3, 14.5, 1.5,0,0,1024,1024,1024,1024,0,0,0,0,0,0,0,65,,,,,,,6.549,86.72,729.09151742542,22.637796,14,Waypoint,
15800,2023-10-10 22:14:37,40.0688310654622,-88.2098390349731,22.637796,,,729.09151742542,0.328084,2.3264176,57.911091092,63.102692308,19,10,22.1905,730.40385342542,23.950132,13.3769012,57.911091092,-0.671082,-2.23694,0,252.3, 13.1, 1.2,0,0,1024,1024,1024,1024,0,0,0,0,0,0,0,65,,,,,,,6.549,86.72,729.09151742542,22.637796,14,Waypoint,
15900,2023-10-10 22:14:38,40.0688306873684,-88.2098401831609,22.637796,,,729.09151742542,0.328084,1.6329662,58.2595163,63.4514456,19,10,22.1905,730.40385342542,23.950132,13.3769012,58.2595163,-0.447388,-1.565858,0,252.3, 11.1, 1,0,0,1024,1024,1024,1024,0,0,0,0,0,0,0,65,,,,,,,6.549,86.72,729.09151742542,22.637796,14,Waypoint,
16000,2023-10-10 22:14:38,40.068830412577,-88.2098409578362,22.637796,,,729.09151742542,0.328084,1.6329662,58.4973772,63.689962668,19,10,22.1905,730.40385342542,23.950132,13.3769012,58.4973772,-0.223694,-1.11847,0,252.1, 9.1, 0.6,0,0,1024,1024,1024,1024,0,0,0,0,0,0,0,65,,,,,,,6.549,86.72,729.09151742542,22.637796,14,Waypoint,
16100,2023-10-10 22:14:38,40.0688301986523,-88.2098414814881,22.637796,,,729.09151742542,0.328084,0.4921268,58.6614192,63.855645088,19,10,22.1905,730.40385342542,23.950132,13.3769012,58.6614192,-0.223694,-0.447388,0,251.7, 5.8, 0.4,0,0,1024,1024,1024,1024,0,0,0,0,0,0,0,65,,,,,,,6.549,86.72,729.09151742542,22.637796,14,Waypoint,
16200,2023-10-10 22:14:38,40.0688299737279,-88.2098417616618,22.637796,,,729.09151742542,0.328084,0.4921268,58.763453324,63.969162152,19,10,22.1475,730.40385342542,23.950132,13.3769012,58.763453324,0,-0.223694,0,251.4, 4, 0.2,0,0,1024,1024,1024,1024,0,0,0,0,0,0,0,64,,,,,,,7.641,86.72,729.09151742542,22.637796,14,Waypoint,
16300,2023-10-10 22:14:38,40.068829835469,-88.2098418677623,22.637796,,,729.09151742542,0.328084,0,58.808728916,64.027561104,19,10,22.1475,730.40385342542,23.950132,13.3769012,58.808728916,0,0,0,251.1, 3, 0.1,0,0,1024,1024,1024,1024,0,0,0,0,0,0,0,65,,,,,,,7.641,86.72,729.09151742542,22.637796,14,Waypoint,
16400,2023-10-10 22:14:38,40.0688297345398,-88.2098418017826,22.637796,,,729.09151742542,0.328084,0,58.804463824,64.068899688,19,10,22.1475,730.40385342542,23.950132,13.3769012,58.808728916,0,0.223694,0.223694,250.9, 2, 0.2,0,0,1024,1024,1024,1024,0,0,0,0,0,0,0,65,,,,,,,7.641,86.72,729.09151742542,22.637796,14,Waypoint,
16500,2023-10-10 22:14:38,40.0688295460327,-88.2098416128211,22.637796,,,729.09151742542,0.328084,0.447388,58.779201356,64.155513864,19,10,22.1475,730.40385342542,23.950132,13.3769012,58.808728916,0,0.447388,0.223694,250.8, 1.3, 0.8,0,0,1024,1024,1024,1024,0,0,0,0,0,0,0,65,,,,,,,7.641,86.72,729.09151742542,22.637796,14,Waypoint,
16600,2023-10-10 22:14:38,40.0688295277126,-88.2098412966463,22.309712,,,728.76343342542,0.328084,0.671082,58.69914886,64.244096544,19,10,22.1475,730.40385342542,23.950132,13.3769012,58.808728916,0,0.671082,0.671082,250.7, 1, 1.4,0,0,1024,1024,1024,1024,0,0,0,0,0,0,0,65,,,,,,,7.641,86.72,728.76343342542,22.309712,14,Waypoint,
16700,2023-10-10 22:14:38,40.0688295663787,-88.2098408668484,22.309712,,,728.76343342542,0.328084,0.894776,58.581694788,64.364831456,19,10,22.1475,730.40385342542,23.950132,13.3769012,58.808728916,0,0.894776,0.894776,250.7, 0.7, 1.6,0,0,1024,1024,1024,1024,0,0,0,0,0,0,0,65,,,,,,,7.641,86.72,728.76343342542,22.309712,14,Waypoint,
16800,2023-10-10 22:14:39,40.0688296411836,-88.2098403554656,22.309712,,,728.76343342542,0.328084,0.9171454,58.438650164,64.510172668,19,10,22.1475,730.40385342542,23.950132,13.3769012,58.808728916,0.223694,0.894776,1.11847,250.6, 0.5, 1.9,0,0,1024,1024,1024,1024,0,0,0,0,0,0,0,65,,,,,,,7.641,86.72,728.76343342542,22.309712,14,Waypoint,
16900,2023-10-10 22:14:39,40.0688297513648,-88.2098396917718,21.981628,,,728.43534942542,0.328084,1.1408394,58.250986116,64.69980522,19,10,22.1475,730.40385342542,23.950132,13.3769012,58.808728916,0.223694,1.11847,1.342164,250.7, 0, 2.1,0,0,1024,1024,1024,1024,0,0,0,0,0,0,0,65,,,,,,,7.641,86.72,728.43534942542,21.981628,14,Waypoint,
17000,2023-10-10 22:14:39,40.0688299021825,-88.2098390094504,21.653544,,,728.10726542542,0.328084,1.1408394,58.053479548,64.897967956,19,10,22.1475,730.40385342542,23.950132,13.3769012,58.808728916,0.447388,1.342164,1.565858,250.9, -0.7, 2.1,0,0,1024,1024,1024,1024,0,0,0,0,0,0,0,65,,,,,,,7.641,86.72,728.10726542542,21.653544,14,Waypoint,
17100,2023-10-10 22:14:39,40.0688300967849,-88.2098382236704,21.32546,,,727.77918142542,0.328084,1.4092722,57.82316458,65.128611008,19,10,22.1475,730.40385342542,23.950132,13.3769012,58.808728916,0.447388,1.342164,1.789552,251, -1.9, 2.2,0,0,1024,1024,1024,1024,0,0,0,0,0,0,0,65,,,,,,,7.641,86.72,727.77918142542,21.32546,14,Waypoint,
17200,2023-10-10 22:14:39,40.0688303182869,-88.2098372987216,21.32546,,,727.77918142542,0.328084,1.6329662,57.552823364,65.399280308,19,10,22.1475,730.40385342542,23.950132,13.3769012,58.808728916,0.447388,1.565858,1.789552,251, -2.9, 1.8,0,0,1024,1024,1024,1024,0,0,0,0,0,0,0,65,,,,,,,7.641,86.72,727.77918142542,21.32546,14,Waypoint,
17300,2023-10-10 22:14:39,40.068830578275,-88.2098363761907,20.997376,,,727.45109742542,0.328084,1.7000744,57.27854514,65.673886616,19,10,22.1475,730.40385342542,23.950132,13.3769012,58.808728916,0.671082,1.565858,2.013246,251, -4, 1.3,0,0,1024,1024,1024,1024,0,0,0,0,0,0,0,65,,,,,,,7.641,86.72,727.45109742542,20.997376,14,Waypoint,
17400,2023-10-10 22:14:39,40.0688308319366,-88.2098354820488,20.669292,,,727.12301342542,0.328084,1.7000744,57.012140932,65.93996274,19,10,22.1475,730.40385342542,23.950132,13.3769012,58.808728916,0.671082,1.565858,2.013246,250.8, -4.6, 0.8,0,0,1024,1024,1024,1024,0,0,0,0,0,0,0,65,,,,,,,7.641,86.72,727.12301342542,20.669292,14,Waypoint,
17500,2023-10-10 22:14:39,40.0688310925972,-88.209834539312,20.341208,,,726.79492942542,0.328084,1.7000744,56.73228528,66.219818392,19,10,22.1475,730.40385342542,23.950132,13.3769012,58.808728916,0.671082,1.565858,1.789552,250.7, -4.8, 0.7,0,0,1024,1024,1024,1024,0,0,0,0,0,0,0,65,,,,,,,7.641,86.72,726.79492942542,20.341208,14,Waypoint,
17600,2023-10-10 22:14:39,40.0688313340768,-88.2098335881794,20.013124,,,726.46684542542,0.328084,1.7000744,56.452757712,66.499674044,19,10,22.1475,730.40385342542,23.950132,13.3769012,58.808728916,0.447388,1.565858,1.789552,250.6, -4.9, 1.1,0,0,1024,1024,1024,1024,0,0,0,0,0,0,0,65,,,,,,,7.641,86.72,726.46684542542,20.013124,14,Waypoint,
17700,2023-10-10 22:14:39,40.0688315515996,-88.2098326558982,19.68504,,,726.13876142542,0.328084,1.6329662,56.181432244,66.77165568,19,10,22.1475,730.40385342542,23.950132,13.3769012,58.808728916,0.447388,1.565858,1.565858,250.5, -5.4, 1.6,0,0,1024,1024,1024,1024,0,0,0,0,0,0,0,65,,,,,,,7.641,86.72,726.13876142542,19.68504,14,Waypoint,
17800,2023-10-10 22:14:40,40.0688317604827,-88.2098317654617,19.356956,,,725.81067742542,0.328084,1.6329662,55.9219178,67.031826292,19,10,22.1475,730.40385342542,23.950132,13.3769012,58.808728916,0.447388,1.565858,1.342164,250.3, -5.8, 2,0,0,1024,1024,1024,1024,0,0,0,0,0,0,0,65,,,,,,,7.641,86.72,725.81067742542,19.356956,14,Waypoint,
17900,2023-10-10 22:14:40,40.0688319658792,-88.2098307633945,19.356956,,,725.81067742542,0.328084,1.6329662,55.633531964,67.321524464,19,10,22.1475,730.40385342542,23.950132,13.3769012,58.808728916,0.447388,1.565858,0.894776,250.1, -5.9, 2,0,0,1024,1024,1024,1024,0,0,0,0,0,0,0,65,,,,,,,7.641,86.72,725.81067742542,19.356956,14,Waypoint,
18000,2023-10-10 22:14:40,40.0688321748909,-88.2098299143325,19.028872,,,725.48259342542,0.328084,1.6329662,55.384844292,67.57054022,19,10,22.1475,730.40385342542,23.950132,13.3769012,58.808728916,0.447388,1.565858,0.671082,250, -6.5, 1.9,0,0,1024,1024,1024,1024,0,0,0,0,0,0,0,65,,,,,,,7.641,86.72,725.48259342542,19.028872,14,Waypoint,
18100,2023-10-10 22:14:40,40.0688323888413,-88.2098290670056,19.028872,,,725.48259342542,0.328084,1.4092722,55.13615662,67.819555976,19,10,22.1835,730.40385342542,23.950132,13.3769012,58.808728916,0.447388,1.342164,0.447388,249.8, -7, 1.8,0,0,1024,1024,1024,1024,0,0,0,0,0,0,0,64,,,,,,,6.251,86.72,725.48259342542,19.028872,14,Waypoint,
18200,2023-10-10 22:14:40,40.0688325750183,-88.2098283009165,19.028872,,,725.48259342542,0.328084,1.4092722,54.912075248,68.043965432,19,10,22.1835,730.40385342542,23.950132,13.3769012,58.808728916,0.447388,1.342164,0.223694,248.9, -7.3, 1.8,0,0,1024,1024,1024,1024,0,0,0,0,0,0,0,64,,,,,,,6.251,86.72,725.48259342542,19.028872,14,Waypoint,
