time(millisecond),datetime(utc),latitude,longitude,height_above_takeoff(feet),height_above_ground_at_drone_location(feet),ground_elevation_at_drone_location(feet),altitude_above_seaLevel(feet),height_sonar(feet),speed(mph),distance(feet),mileage(feet),satellites,gpslevel,voltage(v),max_altitude(feet),max_ascent(feet),max_speed(mph),max_distance(feet), xSpeed(mph), ySpeed(mph), zSpeed(mph), compass_heading(degrees), pitch(degrees), roll(degrees),isPhoto,isVideo,rc_elevator,rc_aileron,rc_throttle,rc_rudder,rc_elevator(percent),rc_aileron(percent),rc_throttle(percent),rc_rudder(percent),gimbal_heading(degrees),gimbal_pitch(degrees),gimbal_roll(degrees),battery_percent,voltageCell1,voltageCell2,voltageCell3,voltageCell4,voltageCell5,voltageCell6,current(A),battery_temperature(f),altitude(feet),ascent(feet),flycStateRaw,flycState,message
0,2023-10-10 22:11:51,40.068885225173,-88.209645280081,0,Available with any HD 360 subscription,Available with any HD 360 subscription,706.43970403652,0.328084,0,0,0,22,10,0,706.43970403652,0,0,0,0,0,0,180.9, -0.2, 0,0,0,1024,1024,1024,1024,0,0,0,0,0,0,0,67,,,,,,,0,86.9,706.43970403652,0,41,Motors_Started,"Your aircraft is flying in an Altitude Zone (500m). Please fly with caution."
100,2023-10-10 22:11:51,40.0688852283304,-88.2096452932011,0,,,706.43970403652,0.328084,0,0.0038401247948,0.0038401247948,22,10,0,706.43970403652,0,0,0.0038401247948,0,0,0,180.9, -0.2, 0,0,0,1024,1024,1024,1024,0,0,0,0,0,0,0,67,,,,,,,0,86.9,706.43970403652,0,41,Motors_Started,"Setting new Return-To-Home altitude to 100m (328 ft). Data Recorder File Index is 36. Setting new Maximum Flight Altitude to 120m (394 ft)"
200,2023-10-10 22:11:51,40.0688852130998,-88.2096452663643,0,,,706.43970403652,0.328084,0,0.0058370080608,0.0131688652508,22,10,0,706.43970403652,0,0,0.0058370080608,0,0,0,180.9, -0.2, 0,0,0,1024,1024,1024,1024,0,0,0,0,0,0,0,67,,,,,,,0,86.9,706.43970403652,0,41,Motors_Started,
300,2023-10-10 22:11:51,40.0688852146442,-88.2096452903158,0,,,706.43970403652,0.328084,0,0.0047877626204,0.0198800203212,22,10,0,706.43970403652,0,0,0.0058370080608,0,0,0,180.9, -0.2, 0,0,0,1024,1024,1024,1024,0,0,0,0,0,0,0,67,,,,,,,0,86.9,706.43970403652,0,41,Motors_Started,
400,2023-10-10 22:11:51,40.068885218472,-88.2096453225567,0,,,706.43970403652,0.328084,0,0.0121089898888,0.028989666282,22,10,0,706.43970403652,0,0,0.0121089898888,0,0,0,180.9, -0.2, 0,0,0,1024,1024,1024,1024,0,0,0,0,0,0,0,67,,,,,,,0,86.9,706.43970403652,0,41,Motors_Started,
500,2023-10-10 22:11:52,40.0688852128064,-88.2096453527512,0,,,706.43970403652,0.328084,0,0.02078576182,0.037669948712,22,10,0,706.43970403652,0,0,0.02078576182,0,0,0,180.9, -0.2, 0,0,0,1024,1024,1024,1024,0,0,0,0,0,0,0,67,,,,,,,0,86.9,706.43970403652,0,41,Motors_Started,"Infrared sensors blocked"
600,2023-10-10 22:11:52,40.068885166483,-88.2096453313244,0,,,706.43970403652,0.328084,0,0.0257531504304,0.055598426976,22,10,0,706.43970403652,0,0,0.0257531504304,0,0,0,180.9, -0.2, 0,0,0,1024,1024,1024,1024,0,0,0,0,0,0,0,67,,,,,,,0,86.9,706.43970403652,0,41,Motors_Started,
700,2023-10-10 22:11:52,40.068885167904,-88.2096453555869,0,,,706.43970403652,0.328084,0,0.0296821531808,0.062392718532,22,10,0,706.43970403652,0,0,0.0296821531808,0,0,0,180.9, -0.2, 0,0,0,1024,1024,1024,1024,0,0,0,0,0,0,0,67,,,,,,,0,86.9,706.43970403652,0,41,Motors_Started,
800,2023-10-10 22:11:52,40.0688851697772,-88.2096453877459,0,,,706.43970403652,0.328084,0,0.03622375444,0.07139764008,22,10,0,706.43970403652,0,0,0.03622375444,0,0,0,180.9, -0.2, 0,0,0,1024,1024,1024,1024,0,0,0,0,0,0,0,67,,,,,,,0,86.9,706.43970403652,0,41,Motors_Started,
900,2023-10-10 22:11:52,40.0688851272631,-88.2096453227435,0,,,706.43970403652,0.328084,0,0.037656169184,0.09527231276,22,10,0,706.43970403652,0,0,0.037656169184,0,0,0,180.9, -0.2, 0,0,0,1024,1024,1024,1024,0,0,0,0,0,0,0,67,,,,,,,0,86.9,706.43970403652,0,41,Motors_Started,
1000,2023-10-10 22:11:52,40.0688851222475,-88.2096453440234,0,,,706.43970403652,0.328084,0,0.041580381908,0.101489176476,22,10,0,706.43970403652,0,0,0.041580381908,0,0,0,181, -0.2, 0,0,0,1024,1024,1024,1024,0,0,0,0,0,0,0,67,,,,,,,0,86.9,706.43970403652,0,41,Motors_Started,
1100,2023-10-10 22:11:52,40.0688851202967,-88.2096453536296,0,,,706.43970403652,0.328084,0,0.043426182492,0.104264110948,22,10,0,706.43970403652,0,0,0.043426182492,0,0,0,180.9, -0.2, 0,0,0,1024,1024,1024,1024,0,0,0,0,0,0,0,67,,,,,,,0,86.9,706.43970403652,0,41,Motors_Started,
1200,2023-10-10 22:11:52,40.0688851179202,-88.2096453732345,0,,,706.43970403652,0.328084,0,0.04698655006,0.10980643396,22,10,22.6075,706.43970403652,0,0,0.04698655006,0,0,0,180.8, -0.3, 0,0,0,1024,1024,1024,1024,0,0,0,0,0,0,0,67,,,,,,,4.816,86.9,706.43970403652,0,41,Motors_Started,
1300,2023-10-10 22:11:52,40.0688851259716,-88.2096452810101,0,,,706.43970403652,0.328084,0,0.036194554964,0.135723101456,22,10,22.6075,706.43970403652,0,0,0.04698655006,0,0,0,180.8, -0.3, 0,0,0,1024,1024,1024,1024,0,0,0,0,0,0,0,67,,,,,,,4.816,86.9,706.43970403652,0,41,Motors_Started,
1400,2023-10-10 22:11:52,40.0688851456626,-88.2096452906012,0,,,706.43970403652,0.328084,0,0.0291576780984,0.143390424536,22,10,22.6075,706.43970403652,0,0,0.04698655006,0,0,0,180.8, -0.2, 0,0,0,1024,1024,1024,1024,0,0,0,0,0,0,0,67,,,,,,,4.816,86.9,706.43970403652,0,41,Motors_Started,
1500,2023-10-10 22:11:53,40.0688851554871,-88.2096452803265,0,,,706.43970403652,0.328084,0,0.0254249680052,0.147981303948,22,10,22.6075,706.43970403652,0,0,0.04698655006,0,0,0,180.8, -0.3, 0,0,0,1024,1024,1024,1024,0,0,0,0,0,0,0,67,,,,,,,4.816,86.9,706.43970403652,0,41,Motors_Started,
1600,2023-10-10 22:11:53,40.0688851589453,-88.2096452105718,0,,,706.43970403652,0.328084,0,0.030992126976,0.16749836494,22,10,22.6075,706.43970403652,0,0,0.04698655006,0,0,0,180.9, -0.3, 0,0,0,1024,1024,1024,1024,0,0,0,0,0,0,0,67,,,,,,,4.816,86.9,706.43970403652,0,41,Motors_Started,
1700,2023-10-10 22:11:53,40.0688851615574,-88.2096452130992,0,,,706.43970403652,0.328084,0,0.0298072188016,0.168684060516,22,10,22.6075,706.43970403652,0,0,0.04698655006,0,0,0,180.8, -0.3, 0,0,0,1024,1024,1024,1024,0,0,0,0,0,0,0,67,,,,,,,4.816,86.9,706.43970403652,0,41,Motors_Started,
1800,2023-10-10 22:11:53,40.0688851633578,-88.2096452240312,0,,,706.43970403652,0.328084,0,0.0274510179388,0.171806435944,22,10,22.6075,706.43970403652,0,0,0.04698655006,0,0,0,180.9, -0.3, 0,0,0,1024,1024,1024,1024,0,0,0,0,0,0,0,67,,,,,,,4.816,86.9,706.43970403652,0,41,Motors_Started,
1900,2023-10-10 22:11:53,40.0688851583136,-88.2096452346562,0,,,706.43970403652,0.328084,0,0.0274938000924,0.175297577788,22,10,22.6075,706.43970403652,0,0,0.04698655006,0,0,0,180.9, -0.3, 0,0,0,1024,1024,1024,1024,0,0,0,0,0,0,0,67,,,,,,,4.816,86.9,706.43970403652,0,41,Motors_Started,
2000,2023-10-10 22:11:53,40.0688851303254,-88.2096451811553,0,,,706.43970403652,0.328084,0,0.04427657622,0.193392066556,22,10,22.6075,706.43970403652,0,0,0.04698655006,0,0,0,180.9, -0.3, 0,0,0,1024,1024,1024,1024,0,0,0,0,0,0,0,67,,,,,,,4.816,86.9,706.43970403652,0,11,AutoTakeoff,
2100,2023-10-10 22:11:53,40.0688851299672,-88.2096451986196,0,,,706.43970403652,0.328084,0,0.041519686368,0.198270019468,22,10,22.6075,706.43970403652,0,0,0.04698655006,0,0,0,180.9, -0.4, 0,0,0,1024,1024,1024,1024,0,0,0,0,0,0,0,67,,,,,,,4.816,86.9,706.43970403652,0,11,AutoTakeoff,
2200,2023-10-10 22:11:53,40.0688851298133,-88.2096452260763,0,,,706.43970403652,0.328084,0,0.037918964468,0.205936358296,22,10,22.7035,706.43970403652,0,0,0.04698655006,0,0,0,180.9, -0.3, 0,0,0,1024,1024,1024,1024,0,0,0,0,0,0,0,67,,,,,,,2.14,86.9,706.43970403652,0,11,AutoTakeoff,
2300,2023-10-10 22:11:53,40.0688851038183,-88.2096452233998,0,,,706.43970403652,0.328084,0,0.047019686544,0.215450138128,22,10,22.7035,706.43970403652,0,0,0.047019686544,0,0,0,180.9, -0.3, 0,0,0,1024,1024,1024,1024,0,0,0,0,0,0,0,67,,,,,,,2.14,86.9,706.43970403652,0,11,AutoTakeoff,
2400,2023-10-10 22:11:53,40.0688850964876,-88.2096452731345,0,,,706.43970403652,0.328084,0,0.046990815152,0.22959154278,22,10,22.7035,706.43970403652,0,0,0.047019686544,0,0,0,180.9, -0.3, 0,0,0,1024,1024,1024,1024,0,0,0,0,0,0,0,67,,,,,,,2.14,86.9,706.43970403652,0,11,AutoTakeoff,
2500,2023-10-10 22:11:54,40.0688850944977,-88.209645309057,0,,,706.43970403652,0.328084,0,0.048358269264,0.239647645464,22,10,22.7035,706.43970403652,0,0,0.048358269264,0,0,0,180.9, -0.3, 0,0,0,1024,1024,1024,1024,0,0,0,0,0,0,0,67,,,,,,,2.14,86.9,706.43970403652,0,11,AutoTakeoff,
2600,2023-10-10 22:11:54,40.0688850974917,-88.2096453554823,0,,,706.43970403652,0.328084,0,0.051120736544,0.25265584798,22,10,22.7035,706.43970403652,0,0,0.051120736544,0,0,0,180.9, -0.1, 0,0,0,1024,1024,1024,1024,0,0,0,0,0,0,0,67,,,,,,,2.14,86.9,706.43970403652,0,11,AutoTakeoff,
2700,2023-10-10 22:11:54,40.0688850969751,-88.209645310975,0,,,706.43970403652,0.328084,0,0.047561681312,0.265084326068,22,10,22.7035,706.43970403652,0,0,0.051120736544,0,0,0,180.8, 0, 0.1,0,0,1024,1024,1024,1024,0,0,0,0,0,0,0,67,,,,,,,2.14,86.9,706.43970403652,0,11,AutoTakeoff,
2800,2023-10-10 22:11:54,40.0688851190532,-88.2096453357507,0,,,706.43970403652,0.328084,0,0.041721129944,0.27570210856,22,10,22.7035,706.43970403652,0,0,0.051120736544,0,0,-0.223694,180.9, 0.7, 0.1,0,0,1024,1024,1024,1024,0,0,0,0,0,0,0,67,,,,,,,2.14,86.9,706.43970403652,0,11,AutoTakeoff,
2900,2023-10-10 22:11:54,40.068885175088,-88.209645357866,0,,,706.43970403652,0.328084,0,0.0283831373912,0.297058408456,22,10,22.7035,706.43970403652,0,0,0.051120736544,0,0,-0.223694,180.9, 2.2, 0.3,0,0,1024,1024,1024,1024,0,0,0,0,0,0,0,67,,,,,,,2.14,86.9,706.43970403652,0,11,AutoTakeoff,
3000,2023-10-10 22:11:54,40.0688852848891,-88.2096453374362,0.328084,,,706.76778803652,0.328084,0.223694,0.0270396006028,0.33752297668,22,10,22.7035,706.76778803652,0.328084,0.223694,0.051120736544,0.223694,0,-0.671082,180.8, 3.5, 0.7,0,0,1024,1024,1024,1024,0,0,0,0,0,0,0,67,,,,,,,2.14,86.9,706.76778803652,0.328084,11,AutoTakeoff,
3100,2023-10-10 22:11:54,40.0688854543371,-88.2096453385668,0.328084,,,706.76778803652,0.328084,0.447388,0.085189963356,0.39934712564,22,10,22.7035,706.76778803652,0.328084,0.447388,0.085189963356,0.447388,0,-0.894776,180.6, 2.2, 0.6,0,0,1024,1024,1024,1024,0,0,0,0,0,0,0,67,,,,,,,2.14,86.9,706.76778803652,0.328084,11,AutoTakeoff,
3200,2023-10-10 22:11:54,40.0688856779122,-88.2096453456997,0.328084,,,706.76778803652,0.328084,0.447388,0.166194559124,0.48094161644,22,10,22.7035,706.76778803652,0.328084,0.447388,0.166194559124,0.447388,0,-1.11847,180.6, -0.2, 0.1,0,0,1024,1024,1024,1024,0,0,0,0,0,0,0,67,,,,,,,2.14,86.9,706.76778803652,0.328084,11,AutoTakeoff,
3300,2023-10-10 22:11:54,40.0688859160294,-88.2096453400148,0.656168,,,707.09587203652,0.328084,0.447388,0.252613525144,0.56783466384,22,10,22.555,707.09587203652,0.656168,0.447388,0.252613525144,0.447388,0,-1.342164,180.5, -2, -0.7,0,0,1024,1024,1024,1024,0,0,0,0,0,0,0,67,,,,,,,4.471,86.9,707.09587203652,0.656168,11,AutoTakeoff,
3400,2023-10-10 22:11:54,40.0688861378734,-88.2096452310516,0.984252,,,707.42395603652,0.328084,0.447388,0.33328085056,0.65430120204,22,10,22.555,707.42395603652,0.984252,0.447388,0.33328085056,0.447388,0,-1.342164,180.6, -3.2, -1.1,0,0,1024,1024,1024,1024,0,0,0,0,0,0,0,67,,,,,,,4.471,86.9,707.42395603652,0.984252,11,AutoTakeoff,
3500,2023-10-10 22:11:54,40.0688862916643,-88.2096451770869,0.984252,,,707.42395603652,0.328084,0.223694,0.39017061616,0.7124015976,22,10,22.555,707.42395603652,0.984252,0.447388,0.39017061616,0.223694,0,-1.342164,180.6, -3.2, -1.1,0,0,1024,1024,1024,1024,0,0,0,0,0,0,0,67,,,,,,,4.471,86.9,707.42395603652,0.984252,11,AutoTakeoff,
3600,2023-10-10 22:11:55,40.0688864154565,-88.2096450893836,1.312336,,,707.75204003652,0.328084,0.223694,0.43752626072,0.76377627116,22,10,22.555,707.75204003652,1.312336,0.447388,0.43752626072,0.223694,0,-1.342164,180.5, -2.7, -0.9,0,0,1024,1024,1024,1024,0,0,0,0,0,0,0,67,,,,,,,4.471,86.9,707.75204003652,1.312336,11,AutoTakeoff,
3700,2023-10-10 22:11:55,40.0688864752143,-88.209644865243,1.312336,,,707.75204003652,0.328084,0,0.470554477,0.83004923916,22,10,22.555,707.75204003652,1.312336,0.447388,0.470554477,0,0,-1.11847,180.2, -2.5, -0.2,0,0,1024,1024,1024,1024,0,0,0,0,0,0,0,67,,,,,,,4.471,86.9,707.75204003652,1.312336,11,AutoTakeoff,
3800,2023-10-10 22:11:55,40.0688865210218,-88.2096446967116,1.64042,,,708.08012403652,0.328084,0.223694,0.50005907112,0.87998362396,22,10,22.555,708.08012403652,1.64042,0.447388,0.50005907112,0,0.223694,-1.11847,180.1, -1.9, 0.8,0,0,1024,1024,1024,1024,0,0,0,0,0,0,0,67,,,,,,,4.471,86.9,708.08012403652,1.64042,11,AutoTakeoff,
3900,2023-10-10 22:11:55,40.0688865281525,-88.2096445317263,1.64042,,,708.08012403652,0.328084,0.223694,0.51928479352,0.92612207688,22,10,22.555,708.08012403652,1.64042,0.447388,0.51928479352,0,0.223694,-1.11847,180.1, -0.9, 1.9,0,0,1024,1024,1024,1024,0,0,0,0,0,0,0,67,,,,,,,4.471,86.9,708.08012403652,1.64042,11,AutoTakeoff,
4000,2023-10-10 22:11:55,40.0688865296016,-88.2096443816552,1.968504,,,708.40820803652,0.328084,0,0.53798230068,0.9680282462,22,10,22.555,708.40820803652,1.968504,0.447388,0.53798230068,0,0,-1.11847,180.2, -0.7, 2.6,0,0,1024,1024,1024,1024,0,0,0,0,0,0,0,67,,,,,,,4.471,86.9,708.40820803652,1.968504,11,AutoTakeoff,
4100,2023-10-10 22:11:55,40.0688865172199,-88.2096441834324,1.968504,,,708.40820803652,0.328084,0,0.56211615972,1.0235564632,22,10,22.555,708.40820803652,1.968504,0.447388,0.56211615972,0,0,-0.894776,180.3, -1.3, 2.3,0,0,1024,1024,1024,1024,0,0,0,0,0,0,0,67,,,,,,,4.471,86.9,708.40820803652,1.968504,11,AutoTakeoff,
4200,2023-10-10 22:11:55,40.0688865252887,-88.2096440795728,1.968504,,,708.40820803652,0.328084,0,0.58082679024,1.05270344576,22,10,22.555,708.40820803652,1.968504,0.447388,0.58082679024,0,0,-0.894776,180.3, -1.3, 1.7,0,0,1024,1024,1024,1024,0,0,0,0,0,0,0,67,,,,,,,4.471,86.9,708.40820803652,1.968504,11,AutoTakeoff,
4300,2023-10-10 22:11:55,40.0688865624681,-88.2096439813922,2.296588,,,708.73629203652,0.328084,0,0.60789700108,1.08329071708,22,10,22.4715,708.73629203652,2.296588,0.447388,0.60789700108,0,0,-0.894776,180.3, -1.2, 1.1,0,0,1024,1024,1024,1024,0,0,0,0,0,0,0,67,,,,,,,8.21,86.9,708.73629203652,2.296588,11,AutoTakeoff,
4400,2023-10-10 22:11:55,40.0688866289655,-88.2096438502704,2.296588,,,708.73629203652,0.328084,0,0.64937994204,1.12721132216,22,10,22.4715,708.73629203652,2.296588,0.447388,0.64937994204,0,0,-0.894776,180.2, -1.3, 1.1,0,0,1024,1024,1024,1024,0,0,0,0,0,0,0,67,,,,,,,8.21,86.9,708.73629203652,2.296588,11,AutoTakeoff,
4500,2023-10-10 22:11:55,40.0688866312829,-88.2096437157399,2.296588,,,708.73629203652,0.328084,0,0.67376642576,1.164780221,22,10,22.4715,708.73629203652,2.296588,0.447388,0.67376642576,0,0,-0.894776,180.2, -0.9, 1.6,0,0,1024,1024,1024,1024,0,0,0,0,0,0,0,67,,,,,,,8.21,86.9,708.73629203652,2.296588,11,AutoTakeoff,
4600,2023-10-10 22:11:56,40.0688866330198,-88.2096435812819,2.624672,,,709.06437603652,0.328084,0,0.69915356568,1.2023294348,22,10,22.4715,709.06437603652,2.624672,0.447388,0.69915356568,0,0,-0.894776,180.4, -0.3, 2.4,0,0,1024,1024,1024,1024,0,0,0,0,0,0,0,67,,,,,,,8.21,86.9,709.06437603652,2.624672,11,AutoTakeoff,
4700,2023-10-10 22:11:56,40.0688866636192,-88.2096434808477,2.624672,,,709.06437603652,0.328084,0,0.72649936708,1.23250988196,22,10,22.4715,709.06437603652,2.624672,0.447388,0.72649936708,0,0,-0.894776,180.5, -0.8, 2.6,0,0,1024,1024,1024,1024,0,0,0,0,0,0,0,67,,,,,,,8.21,86.9,709.06437603652,2.624672,11,AutoTakeoff,
4800,2023-10-10 22:11:56,40.068886728036,-88.2096433110972,2.952756,,,709.39246003652,0.328084,0,0.77645671776,1.28541342696,22,10,22.4715,709.39246003652,2.952756,0.447388,0.77645671776,0,0,-0.894776,180.4, -1.9, 2.2,0,0,1024,1024,1024,1024,0,0,0,0,0,0,0,67,,,,,,,8.21,86.9,709.39246003652,2.952756,11,AutoTakeoff,
4900,2023-10-10 22:11:56,40.0688867574369,-88.2096431858811,2.952756,,,709.39246003652,0.328084,0,0.80896656132,1.32198495044,22,10,22.4715,709.39246003652,2.952756,0.447388,0.80896656132,0,0,-0.894776,180.3, -2.6, 1.6,0,0,1024,1024,1024,1024,0,0,0,0,0,0,0,67,,,,,,,8.21,86.9,709.39246003652,2.952756,11,AutoTakeoff,
5000,2023-10-10 22:11:56,40.0688867834485,-88.209643047773,2.952756,,,709.39246003652,0.328084,0,0.84362863592,1.3616962378,22,10,22.4715,709.39246003652,2.952756,0.447388,0.84362863592,0,0,-0.894776,180.1, -2.8, 1.8,0,0,1024,1024,1024,1024,0,0,0,0,0,0,0,67,,,,,,,8.21,86.9,709.39246003652,2.952756,11,AutoTakeoff,
5100,2023-10-10 22:11:56,40.0688867857327,-88.2096427835367,2.952756,,,709.39246003652,0.328084,0,0.90003939888,1.43547904856,22,10,22.4715,709.39246003652,2.952756,0.447388,0.90003939888,0,0,-0.894776,180.1, -3, 2,0,0,1024,1024,1024,1024,0,0,0,0,0,0,0,67,,,,,,,8.21,86.9,709.39246003652,2.952756,11,AutoTakeoff,
5200,2023-10-10 22:11:56,40.0688867806535,-88.2096426451228,3.28084,,,709.72054403652,0.328084,0,0.92915685388,1.47416999468,22,10,22.4715,709.72054403652,3.28084,0.447388,0.92915685388,0,0,-0.894776,180.2, -2.8, 2.4,0,0,1024,1024,1024,1024,0,0,0,0,0,0,0,67,,,,,,,8.21,86.9,709.72054403652,3.28084,11,AutoTakeoff,
5300,2023-10-10 22:11:56,40.068886740229,-88.2096425078633,3.28084,,,709.72054403652,0.328084,0,0.95114176272,1.51523298812,22,10,22.4715,709.72054403652,3.28084,0.447388,0.95114176272,0,0,-0.894776,180.3, -2.2, 3.3,0,0,1024,1024,1024,1024,0,0,0,0,0,0,0,67,,,,,,,8.21,86.9,709.72054403652,3.28084,14,Waypoint,
5400,2023-10-10 22:11:56,40.0688866919591,-88.2096423915045,3.608924,,,710.04862803652,0.328084,0,0.9679134168,1.55218836988,22,10,22.4715,710.04862803652,3.608924,0.447388,0.9679134168,0,0,-0.894776,179.9, 0.2, 1,0,0,1024,1024,1024,1024,0,0,0,0,0,0,0,67,,,,,,,8.21,86.9,710.04862803652,3.608924,14,Waypoint,
5500,2023-10-10 22:11:57,40.0688865949619,-88.2096421934615,3.608924,,,710.04862803652,0.328084,0,0.99623690852,1.61783797828,22,10,22.4715,710.04862803652,3.608924,0.447388,0.99623690852,0,0,-0.447388,180.1, 1.1, 0,0,0,1024,1024,1024,1024,0,0,0,0,0,0,0,67,,,,,,,8.21,86.9,710.04862803652,3.608924,14,Waypoint,
5600,2023-10-10 22:11:57,40.0688865995321,-88.2096420270168,3.608924,,,710.04862803652,0.328084,0.223694,1.03750331404,1.66434060444,22,10,22.44,710.04862803652,3.608924,0.447388,1.03750331404,0,0.223694,-0.447388,179.9, 0.2, 1.3,0,0,1024,1024,1024,1024,0,0,0,0,0,0,0,67,,,,,,,8.553,86.9,710.04862803652,3.608924,14,Waypoint,
5700,2023-10-10 22:11:57,40.0688866521605,-88.2096417702543,3.608924,,,710.04862803652,0.328084,0.223694,1.10968835572,1.73855648608,22,10,22.44,710.04862803652,3.608924,0.447388,1.10968835572,0,0.223694,-0.223694,179.7, -0.8, 2.3,0,0,1024,1024,1024,1024,0,0,0,0,0,0,0,67,,,,,,,8.553,86.9,710.04862803652,3.608924,14,Waypoint,
5800,2023-10-10 22:11:57,40.0688867058559,-88.2096414110244,3.608924,,,710.04862803652,0.328084,0.223694,1.2078248418,1.84075465208,22,10,22.44,710.04862803652,3.608924,0.447388,1.2078248418,0,0.223694,-0.447388,179.5, -1.9, 2.7,0,0,1024,1024,1024,1024,0,0,0,0,0,0,0,67,,,,,,,8.553,86.9,710.04862803652,3.608924,14,Waypoint,
5900,2023-10-10 22:11:57,40.0688867708613,-88.2096411860106,3.608924,,,710.04862803652,0.328084,0.223694,1.27464242924,1.9079068852,22,10,22.44,710.04862803652,3.608924,0.447388,1.27464242924,0,0.223694,-0.447388,179.4, -2.1, 2.8,0,0,1024,1024,1024,1024,0,0,0,0,0,0,0,67,,,,,,,8.553,86.9,710.04862803652,3.608924,14,Waypoint,
6000,2023-10-10 22:11:57,40.068886817412,-88.2096409665016,3.608924,,,710.04862803652,0.328084,0.223694,1.3371719588,1.9715059686,22,10,22.44,710.04862803652,3.608924,0.447388,1.3371719588,0,0.223694,-0.671082,179.4, -1.9, 3,0,0,1024,1024,1024,1024,0,0,0,0,0,0,0,67,,,,,,,8.553,86.9,710.04862803652,3.608924,14,Waypoint,
6100,2023-10-10 22:11:57,40.068886831837,-88.2096407614537,3.937008,,,710.37671203652,0.328084,0.223694,1.39117130436,2.02899612792,22,10,22.44,710.37671203652,3.937008,0.447388,1.39117130436,0,0.223694,-0.894776,179.5, -1.7, 3.3,0,0,1024,1024,1024,1024,0,0,0,0,0,0,0,67,,,,,,,8.553,86.9,710.37671203652,3.937008,14,Waypoint,
6200,2023-10-10 22:11:57,40.0688868523832,-88.2096404609511,3.937008,,,710.37671203652,0.328084,0.223694,1.47069558512,2.11323497576,22,10,22.44,710.37671203652,3.937008,0.447388,1.47069558512,0,0.223694,-1.342164,179.6, -1.3, 3.2,0,0,1024,1024,1024,1024,0,0,0,0,0,0,0,67,,,,,,,8.553,86.9,710.37671203652,3.937008,14,Waypoint,
6300,2023-10-10 22:11:57,40.0688868341511,-88.2096402813159,4.265092,,,710.70479603652,0.328084,0,1.51412734504,2.1638288094,22,10,22.44,710.70479603652,4.265092,0.447388,1.51412734504,0,0,-1.789552,179.7, -0.7, 2.9,0,0,1024,1024,1024,1024,0,0,0,0,0,0,0,67,,,,,,,8.553,86.9,710.70479603652,4.265092,14,Waypoint,
6400,2023-10-10 22:11:57,40.0688868177372,-88.2096401192671,4.265092,,,710.70479603652,0.328084,0,1.55368443292,2.20946857464,22,10,22.44,710.70479603652,4.265092,0.447388,1.55368443292,0,0,-2.23694,179.6, -0.1, 2.6,0,0,1024,1024,1024,1024,0,0,0,0,0,0,0,67,,,,,,,8.553,86.9,710.70479603652,4.265092,14,Waypoint,
6500,2023-10-10 22:11:58,40.0688867384909,-88.2096398476439,4.593176,,,711.03288003652,0.328084,0,1.61415031412,2.2906332754,22,10,22.44,711.03288003652,4.593176,0.447388,1.61415031412,0,0,-2.908022,179.7, -0.1, 2.5,0,0,1024,1024,1024,1024,0,0,0,0,0,0,0,67,,,,,,,8.553,86.9,711.03288003652,4.593176,14,Waypoint,
6600,2023-10-10 22:11:58,40.0688867339265,-88.2096396968497,5.249344,,,711.68904803652,0.328084,0,1.65322183768,2.33276910352,22,10,22.397,711.68904803652,5.249344,0.447388,1.65322183768,0,0,-3.35541,179.7, -0.3, 2.7,0,0,1024,1024,1024,1024,0,0,0,0,0,0,0,67,,,,,,,8.48,86.9,711.68904803652,5.249344,14,Waypoint,
6700,2023-10-10 22:11:58,40.0688867799,-88.2096395117363,5.577428,,,712.01713203652,0.328084,0.223694,1.70754270556,2.38710965644,22,10,22.397,712.01713203652,5.577428,0.447388,1.70754270556,0,0.223694,-4.026492,179.8, -0.8, 2.7,0,0,1024,1024,1024,1024,0,0,0,0,0,0,0,67,,,,,,,8.48,86.9,712.01713203652,5.577428,14,Waypoint,
6800,2023-10-10 22:11:58,40.068886839583,-88.209639330508,6.233596,,,712.67330003652,0.328084,0,1.76250661808,2.44219496004,22,10,22.397,712.67330003652,6.233596,0.447388,1.76250661808,0,0,-4.47388,179.8, -1.6, 2.9,0,0,1024,1024,1024,1024,0,0,0,0,0,0,0,67,,,,,,,8.48,86.9,712.67330003652,6.233596,14,Waypoint,
6900,2023-10-10 22:11:58,40.0688868552258,-88.2096389673363,6.889764,,,713.32946803652,0.328084,0,1.8602034716,2.54375664308,22,10,22.397,713.32946803652,6.889764,0.447388,1.8602034716,0,0,-4.921268,179.9, -1.9, 2.9,0,0,1024,1024,1024,1024,0,0,0,0,0,0,0,67,,,,,,,8.48,86.9,713.32946803652,6.889764,14,Waypoint,
7000,2023-10-10 22:11:58,40.0688868766236,-88.2096387854447,7.545932,,,713.98563603652,0.328084,0.223694,1.91083995616,2.59513787832,22,10,22.397,713.98563603652,7.545932,0.447388,1.91083995616,0,0.223694,-5.144962,180.3, -1.9, 2.9,0,0,1024,1024,1024,1024,0,0,0,0,0,0,0,67,,,,,,,8.48,86.9,713.98563603652,7.545932,14,Waypoint,
7100,2023-10-10 22:11:58,40.0688868705281,-88.2096385906453,8.2021,,,714.64180403652,0.328084,0.223694,1.96185045648,2.6495735756,22,10,22.397,714.64180403652,8.2021,0.447388,1.96185045648,0,0.223694,-5.59235,180.3, -1.5, 3.8,0,0,1024,1024,1024,1024,0,0,0,0,0,0,0,67,,,,,,,8.48,86.9,714.64180403652,8.2021,14,Waypoint,
7200,2023-10-10 22:11:58,40.0688868339057,-88.2096383035739,9.186352,,,715.62605603652,0.328084,0.223694,2.03440951392,2.73083342072,22,10,22.397,715.62605603652,9.186352,0.447388,2.03440951392,0,0.223694,-5.816044,180.5, -1, 4.2,0,0,1024,1024,1024,1024,0,0,0,0,0,0,0,67,,,,,,,8.48,86.9,715.62605603652,9.186352,14,Waypoint,
7300,2023-10-10 22:11:58,40.0688868520463,-88.2096380849451,9.84252,,,716.28222403652,0.328084,0.223694,2.09479665496,2.79223434132,22,10,22.397,716.28222403652,9.84252,0.447388,2.09479665496,0,0.223694,-6.039738,180.5, -0.8, 4.5,0,0,1024,1024,1024,1024,0,0,0,0,0,0,0,67,,,,,,,8.48,86.9,716.28222403652,9.84252,14,Waypoint,
7400,2023-10-10 22:11:58,40.0688868917066,-88.209637874181,10.826772,,,717.26647603652,0.328084,0.223694,2.15533471464,2.85283473696,22,10,22.397,717.26647603652,10.826772,0.447388,2.15533471464,0,0.223694,-6.263432,180.4, -0.9, 5.2,0,0,1024,1024,1024,1024,0,0,0,0,0,0,0,67,,,,,,,8.48,86.9,717.26647603652,10.826772,14,Waypoint,
7500,2023-10-10 22:11:59,40.0688869068207,-88.2096376888303,11.811024,,,718.25072803652,0.328084,0.223694,2.20655846956,2.90487870188,22,10,22.397,718.25072803652,11.811024,0.447388,2.20655846956,0,0.223694,-6.263432,180.4, -1.6, 5.4,0,0,1024,1024,1024,1024,0,0,0,0,0,0,0,67,,,,,,,8.48,86.9,718.25072803652,11.811024,14,Waypoint,
7600,2023-10-10 22:11:59,40.0688868806225,-88.2096373559451,12.795276,,,719.23498003652,0.328084,0,2.29344823612,2.99831374424,22,10,22.3095,719.23498003652,12.795276,0.447388,2.29344823612,0,0,-6.263432,180.6, -2.1, 5.4,0,0,1024,1024,1024,1024,0,0,0,0,0,0,0,67,,,,,,,12.501,86.9,719.23498003652,12.795276,14,Waypoint,
7700,2023-10-10 22:11:59,40.0688868885048,-88.2096372771694,13.451444,,,719.89114803652,0.328084,0,2.31542658328,3.02049550348,22,10,22.3095,719.89114803652,13.451444,0.447388,2.31542658328,0,0,-6.263432,180.7, -2.1, 5,0,0,1024,1024,1024,1024,0,0,0,0,0,0,0,67,,,,,,,12.501,86.9,719.89114803652,13.451444,14,Waypoint,
7800,2023-10-10 22:11:59,40.0688868861726,-88.2096372363769,14.435696,,,720.87540003652,0.328084,0,2.326197581,3.03191610752,22,10,22.3095,720.87540003652,14.435696,0.447388,2.326197581,0,0,-6.487126,180.7, -2, 4.4,0,0,1024,1024,1024,1024,0,0,0,0,0,0,0,67,,,,,,,12.501,86.9,720.87540003652,14.435696,14,Waypoint,
7900,2023-10-10 22:11:59,40.0688868322307,-88.2096370463016,15.419948,,,721.85965203652,0.328084,0,2.37253616516,3.08852044004,22,10,22.3095,721.85965203652,15.419948,0.447388,2.37253616516,0,0,-6.263432,180.6, -1.9, 3.9,0,0,1024,1024,1024,1024,0,0,0,0,0,0,0,67,,,,,,,12.501,86.9,721.85965203652,15.419948,14,Waypoint,
8000,2023-10-10 22:11:59,40.0688867892519,-88.2096369812285,16.4042,,,722.84390403652,0.328084,0,2.38634850156,3.11251978464,22,10,22.3095,722.84390403652,16.4042,0.447388,2.38634850156,0,0,-6.263432,180.6, -1.8, 4.2,0,0,1024,1024,1024,1024,0,0,0,0,0,0,0,67,,,,,,,12.501,86.9,722.84390403652,16.4042,14,Waypoint,
8100,2023-10-10 22:11:59,40.0688867200633,-88.2096368941514,17.060368,,,723.50007203652,0.328084,0,2.40410768848,3.14756571752,22,10,22.3095,723.50007203652,17.060368,0.447388,2.40410768848,0,0,-6.039738,180.5, -1.5, 4.9,0,0,1024,1024,1024,1024,0,0,0,0,0,0,0,67,,,,,,,12.501,86.9,723.50007203652,17.060368,14,Waypoint,
8200,2023-10-10 22:11:59,40.0688866337596,-88.2096368231635,18.04462,,,724.48432403652,0.328084,0,2.41652566788,3.18477372396,22,10,22.3095,724.48432403652,18.04462,0.447388,2.41652566788,0,0,-5.59235,180.5, -1.1, 5.5,0,0,1024,1024,1024,1024,0,0,0,0,0,0,0,67,,,,,,,12.501,86.9,724.48432403652,18.04462,14,Waypoint,
8300,2023-10-10 22:11:59,40.0688864876304,-88.2096365867167,18.700788,,,725.14049203652,0.328084,0.223694,2.47058078772,3.26963265056,22,10,22.3095,725.14049203652,18.700788,0.447388,2.47058078772,-0.223694,0,-5.368656,180.5, -0.7, 5.6,0,0,1024,1024,1024,1024,0,0,0,0,0,0,0,67,,,,,,,12.501,86.9,725.14049203652,18.700788,14,Waypoint,
8400,2023-10-10 22:11:59,40.0688863751492,-88.2096365334495,19.356956,,,725.79666003652,0.328084,0.223694,2.47791674596,3.3132875076,22,10,22.3095,725.79666003652,19.356956,0.447388,2.47791674596,-0.223694,0,-5.144962,180.4, 0, 5.8,0,0,1024,1024,1024,1024,0,0,0,0,0,0,0,67,,,,,,,12.501,86.9,725.79666003652,19.356956,14,Waypoint,
8500,2023-10-10 22:11:59,40.0688862508387,-88.2096364989973,20.013124,,,726.45282803652,0.328084,0.223694,2.48014771716,3.3596457768,22,10,22.3095,726.45282803652,20.013124,0.447388,2.48014771716,-0.223694,0,-4.697574,180.5, 0.4, 6,0,0,1024,1024,1024,1024,0,0,0,0,0,0,0,67,,,,,,,12.501,86.9,726.45282803652,20.013124,14,Waypoint,
8600,2023-10-10 22:12:00,40.0688860931966,-88.2096364182003,20.669292,,,727.10899603652,0.328084,0.223694,2.49449811132,3.421423994,22,10,22.376,727.10899603652,20.669292,0.447388,2.49449811132,-0.223694,0,-4.250186,180.4, 0.6, 5.8,0,0,1024,1024,1024,1024,0,0,0,0,0,0,0,67,,,,,,,9.69,86.9,727.10899603652,20.669292,14,Waypoint,
8700,2023-10-10 22:12:00,40.0688859774939,-88.2096364050902,21.32546,,,727.76516403652,0.328084,0,2.49313000104,3.4638124468,22,10,22.376,727.76516403652,21.32546,0.447388,2.49449811132,0,0,-3.802798,180.5, 0.7, 5.5,0,0,1024,1024,1024,1024,0,0,0,0,0,0,0,67,,,,,,,9.69,86.9,727.76516403652,21.32546,14,Waypoint,
8800,2023-10-10 22:12:00,40.0688858660083,-88.2096364039204,21.653544,,,728.09324803652,0.328084,0,2.4893045416,3.5044620544,22,10,22.376,728.09324803652,21.653544,0.447388,2.49449811132,0,0,-3.131716,180.6, 0.8, 5.4,0,0,1024,1024,1024,1024,0,0,0,0,0,0,0,67,,,,,,,9.69,86.9,728.09324803652,21.653544,14,Waypoint,
8900,2023-10-10 22:12:00,40.0688857662273,-88.2096363828749,22.309712,,,728.74941603652,0.328084,0,2.49200795376,3.541338696,22,10,22.376,728.74941603652,22.309712,0.447388,2.49449811132,0,0,-2.684328,180.6, 0.8, 5.5,0,0,1024,1024,1024,1024,0,0,0,0,0,0,0,67,,,,,,,9.69,86.9,728.74941603652,22.309712,14,Waypoint,
9000,2023-10-10 22:12:00,40.0688856251564,-88.2096362325299,22.637796,,,729.07750003652,0.328084,0,2.53036753504,3.607775706,22,10,22.376,729.07750003652,22.637796,0.447388,2.53036753504,0,0,-2.013246,180.6, 1, 5.6,0,0,1024,1024,1024,1024,0,0,0,0,0,0,0,67,,,,,,,9.69,86.9,729.07750003652,22.637796,14,Waypoint,
9100,2023-10-10 22:12:00,40.0688855415128,-88.2096362410502,22.637796,,,729.07750003652,0.328084,0,2.52641412284,3.6383859432,22,10,22.376,729.07750003652,22.637796,0.447388,2.53036753504,0,0,-1.565858,180.6, 1.1, 5.5,0,0,1024,1024,1024,1024,0,0,0,0,0,0,0,67,,,,,,,9.69,86.9,729.07750003652,22.637796,14,Waypoint,
9200,2023-10-10 22:12:00,40.0688854638656,-88.2096362430946,22.96588,,,729.40558403652,0.328084,0,2.52470808604,3.6666995924,22,10,22.376,729.40558403652,22.96588,0.447388,2.53036753504,0,0,-1.11847,180.6, 1.2, 5.6,0,0,1024,1024,1024,1024,0,0,0,0,0,0,0,67,,,,,,,9.69,86.9,729.40558403652,22.96588,14,Waypoint,"Sensor system error. Return to home or land"
9300,2023-10-10 22:12:00,40.0688853112422,-88.2096360954446,22.96588,,,729.40558403652,0.328084,0,2.56462278548,3.7359909332,22,10,22.376,729.40558403652,22.96588,0.447388,2.56462278548,0,0,-0.671082,180.7, 1.1, 5.7,0,0,1024,1024,1024,1024,0,0,0,0,0,0,0,67,,,,,,,9.69,86.9,729.40558403652,22.96588,14,Waypoint,
9400,2023-10-10 22:12:00,40.0688852293429,-88.2096361001043,22.96588,,,729.40558403652,0.328084,0,2.56313000328,3.765912194,22,10,22.376,729.40558403652,22.96588,0.447388,2.56462278548,0,0,-0.447388,180.6, 1.2, 6.1,0,0,1024,1024,1024,1024,0,0,0,0,0,0,0,67,,,,,,,9.69,86.9,729.40558403652,22.96588,14,Waypoint,
9500,2023-10-10 22:12:00,40.0688851528049,-88.2096361297666,22.96588,,,729.40558403652,0.328084,0,2.55498367756,3.7950460532,22,10,22.376,729.40558403652,22.96588,0.447388,2.56462278548,0,0,0,184.1, 0.9, 5.5,0,0,1024,1024,1024,1024,0,0,0,0,0,0,0,67,,,,,,,9.69,86.9,729.40558403652,22.96588,14,Waypoint,
9600,2023-10-10 22:12:01,40.0688850798386,-88.209636213095,22.96588,,,729.40558403652,0.328084,0.223694,2.5321359078,3.8303807,22,10,22.4135,729.40558403652,22.96588,0.447388,2.56462278548,0,-0.223694,0,191.5, 0, 3.6,0,0,1024,1024,1024,1024,0,0,0,0,0,0,0,67,,,,,,,6.624,86.9,729.40558403652,22.96588,14,Waypoint,
9700,2023-10-10 22:12:01,40.0688849356015,-88.2096361065816,22.96588,,,729.40558403652,0.328084,0,2.56349745736,3.8908465812,22,10,22.4135,729.40558403652,22.96588,0.447388,2.56462278548,0,0,0,199.5, 0, 2.9,0,0,1024,1024,1024,1024,0,0,0,0,0,0,0,67,,,,,,,6.624,86.9,729.40558403652,22.96588,14,Waypoint,
9800,2023-10-10 22:12:01,40.0688848593443,-88.2096360821219,22.96588,,,729.40558403652,0.328084,0,2.57161753636,3.9194883144,22,10,22.4135,729.40558403652,22.96588,0.447388,2.57161753636,0,0,0,207.8, 0.4, 3.8,0,0,1024,1024,1024,1024,0,0,0,0,0,0,0,67,,,,,,,6.624,86.9,729.40558403652,22.96588,14,Waypoint,
9900,2023-10-10 22:12:01,40.0688847960627,-88.2096360091442,22.96588,,,729.40558403652,0.328084,0,2.593257957,3.950295402,22,10,22.4135,729.40558403652,22.96588,0.447388,2.593257957,0,0,0,216.2, 0.2, 4.8,0,0,1024,1024,1024,1024,0,0,0,0,0,0,0,67,,,,,,,6.624,86.9,729.40558403652,22.96588,14,Waypoint,
10000,2023-10-10 22:12:01,40.0688847275654,-88.209635847059,22.96588,,,729.40558403652,0.328084,0,2.64003289288,4.001968632,22,10,22.4135,729.40558403652,22.96588,0.447388,2.64003289288,0,0,0,224.6, -0.8, 5.3,0,0,1024,1024,1024,1024,0,0,0,0,0,0,0,67,,,,,,,6.624,86.9,729.40558403652,22.96588,14,Waypoint,
10100,2023-10-10 22:12:01,40.0688847143297,-88.2096357000667,22.96588,,,729.40558403652,0.328084,0,2.68130914092,4.043307216,22,10,22.4135,729.40558403652,22.96588,0.447388,2.68130914092,0,0,0,233.2, -2.3, 5.2,0,0,1024,1024,1024,1024,0,0,0,0,0,0,0,67,,,,,,,6.624,86.9,729.40558403652,22.96588,14,Waypoint,
10200,2023-10-10 22:12:01,40.0688847338879,-88.2096355254942,22.96588,,,729.40558403652,0.328084,0,2.72945874876,4.0925526244,22,10,22.4135,729.40558403652,22.96588,0.447388,2.72945874876,0,0,0,240.5, -3.6, 4.6,0,0,1024,1024,1024,1024,0,0,0,0,0,0,0,67,,,,,,,6.624,86.9,729.40558403652,22.96588,14,Waypoint,
10300,2023-10-10 22:12:01,40.0688847814277,-88.2096353128789,22.637796,,,729.07750003652,0.328084,0,2.78763460364,4.1543964584,22,10,22.4135,729.40558403652,22.96588,0.447388,2.78763460364,0,0,0,245.8, -4.5, 4.1,0,0,1024,1024,1024,1024,0,0,0,0,0,0,0,67,,,,,,,6.624,86.9,729.07750003652,22.637796,14,Waypoint,
10400,2023-10-10 22:12:01,40.0688847715901,-88.209634948189,22.637796,,,729.07750003652,0.328084,0.3131716,2.88949812396,4.2562993488,22,10,22.4135,729.40558403652,22.96588,0.447388,2.88949812396,0.223694,0.223694,0,249, -5.5, 4.1,0,0,1024,1024,1024,1024,0,0,0,0,0,0,0,67,,,,,,,6.624,86.9,729.07750003652,22.637796,14,Waypoint,
10500,2023-10-10 22:12:02,40.0688848212519,-88.2096346644864,22.637796,,,729.07750003652,0.328084,0.3131716,2.96762804772,4.3375657556,22,10,22.4135,729.40558403652,22.96588,0.447388,2.96762804772,0.223694,0.223694,0,250.7, -6.1, 4.2,0,0,1024,1024,1024,1024,0,0,0,0,0,0,0,67,,,,,,,6.624,86.9,729.07750003652,22.637796,14,Waypoint,
10600,2023-10-10 22:12:02,40.0688848909293,-88.2096343923882,22.637796,,,729.07750003652,0.328084,0.3131716,3.04238526796,4.4176838684,22,10,22.4135,729.40558403652,22.96588,0.447388,3.04238526796,0.223694,0.223694,0,251.4, -6.8, 3.8,0,0,1024,1024,1024,1024,0,0,0,0,0,0,0,67,,,,,,,6.624,86.9,729.07750003652,22.637796,14,Waypoint,
10700,2023-10-10 22:12:02,40.0688849212157,-88.2096338823487,22.637796,,,729.07750003652,0.328084,0.3131716,3.18427831712,4.5604988336,22,10,22.344,729.40558403652,22.96588,0.447388,3.18427831712,0.223694,0.223694,0,251.6, -7.3, 3.1,0,0,1024,1024,1024,1024,0,0,0,0,0,0,0,67,,,,,,,8.928,86.9,729.07750003652,22.637796,14,Waypoint,
10800,2023-10-10 22:12:02,40.068885013515,-88.2096336376908,22.637796,,,729.07750003652,0.328084,0.223694,3.2515749072,4.6366799384,22,10,22.344,729.40558403652,22.96588,0.447388,3.2515749072,0.223694,0,0,251.7, -7.7, 2.7,0,0,1024,1024,1024,1024,0,0,0,0,0,0,0,67,,,,,,,8.928,86.9,729.07750003652,22.637796,14,Waypoint,
10900,2023-10-10 22:12:02,40.0688850794188,-88.2096334264915,22.309712,,,728.74941603652,0.328084,0.223694,3.310039476,4.7003610428,22,10,22.344,729.40558403652,22.96588,0.447388,3.310039476,0.223694,0,0,251.8, -8.3, 1.9,0,0,1024,1024,1024,1024,0,0,0,0,0,0,0,67,,,,,,,8.928,86.9,728.74941603652,22.309712,14,Waypoint,
11000,2023-10-10 22:12:02,40.0688851294535,-88.2096332735522,22.309712,,,728.74941603652,0.328084,0,3.3524935456,4.7467849288,22,10,22.344,729.40558403652,22.96588,0.447388,3.3524935456,0,0,0,251.9, -9.2, 1.8,0,0,1024,1024,1024,1024,0,0,0,0,0,0,0,67,,,,,,,8.928,86.9,728.74941603652,22.309712,14,Waypoint,
11100,2023-10-10 22:12:02,40.0688850549433,-88.2096329487758,22.309712,,,728.74941603652,0.328084,0,3.443569664,4.8414699712,22,10,22.344,729.40558403652,22.96588,0.447388,3.443569664,0,0,0,251.8, -9.8, 2.1,0,0,1024,1024,1024,1024,0,0,0,0,0,0,0,67,,,,,,,8.928,86.9,728.74941603652,22.309712,14,Waypoint,
11200,2023-10-10 22:12:02,40.068885036962,-88.2096329505375,22.309712,,,728.74941603652,0.328084,0.223694,3.4432087716,4.8480316512,22,10,22.344,729.40558403652,22.96588,0.447388,3.443569664,0,-0.223694,0,251.9, -10.4, 2.8,0,0,1024,1024,1024,1024,0,0,0,0,0,0,0,67,,,,,,,8.928,86.9,728.74941603652,22.309712,14,Waypoint,
11300,2023-10-10 22:12:02,40.0688850424768,-88.2096330442123,22.309712,,,728.74941603652,0.328084,0.447388,3.41699486,4.8742783712,22,10,22.344,729.40558403652,22.96588,0.447388,3.443569664,0,-0.447388,0,251.7, -11.1, 3.2,0,0,1024,1024,1024,1024,0,0,0,0,0,0,0,67,,,,,,,8.928,86.9,728.74941603652,22.309712,14,Waypoint,
11400,2023-10-10 22:12:02,40.068885033308,-88.2096331802998,22.309712,,,728.74941603652,0.328084,0.671082,3.379101158,4.912401732,22,10,22.344,729.40558403652,22.96588,0.671082,3.443569664,0,-0.671082,0,251.7, -11.8, 3.2,0,0,1024,1024,1024,1024,0,0,0,0,0,0,0,67,,,,,,,8.928,86.9,728.74941603652,22.309712,14,Waypoint,
11500,2023-10-10 22:12:03,40.0688850028313,-88.2096335403635,22.309712,,,728.74941603652,0.328084,0.894776,3.27883540676,5.0135500292,22,10,22.344,729.40558403652,22.96588,0.894776,3.443569664,0,-0.894776,0,251.6, -12.7, 2.7,0,0,1024,1024,1024,1024,0,0,0,0,0,0,0,67,,,,,,,8.928,86.9,728.74941603652,22.309712,14,Waypoint,
11600,2023-10-10 22:12:03,40.068884939078,-88.2096340774122,22.309712,,,728.74941603652,0.328084,1.11847,3.12962280356,5.1652888792,22,10,22.344,729.40558403652,22.96588,1.11847,3.443569664,0,-1.11847,0,251.8, -13.9, 1.9,0,0,1024,1024,1024,1024,0,0,0,0,0,0,0,67,,,,,,,8.928,86.9,728.74941603652,22.309712,14,Waypoint,
11700,2023-10-10 22:12:03,40.0688848242485,-88.2096347692641,22.309712,,,728.74941603652,0.328084,1.5882274,2.93835639324,5.3629594892,22,10,22.344,729.40558403652,22.96588,1.5882274,3.443569664,-0.223694,-1.565858,0,251.9, -15.4, 1.5,0,0,1024,1024,1024,1024,0,0,0,0,0,0,0,67,,,,,,,8.928,86.9,728.74941603652,22.309712,14,Waypoint,
11800,2023-10-10 22:12:03,40.0688846313068,-88.2096356070588,22.309712,,,728.74941603652,0.328084,2.0356154,2.70946859064,5.6072508356,22,10,22.344,729.40558403652,22.96588,2.0356154,3.443569664,-0.223694,-2.013246,0,251.8, -16.9, 1.4,0,0,1024,1024,1024,1024,0,0,0,0,0,0,0,67,,,,,,,8.928,86.9,728.74941603652,22.309712,14,Waypoint,
11900,2023-10-10 22:12:03,40.0688844076784,-88.2096367146554,22.309712,,,728.74941603652,0.328084,2.5053728,2.41006897476,5.9270671188,22,10,22.344,729.40558403652,22.96588,2.5053728,3.443569664,-0.447388,-2.460634,0,251.9, -18.4, 1.4,0,0,1024,1024,1024,1024,0,0,0,0,0,0,0,67,,,,,,,8.928,86.9,728.74941603652,22.309712,14,Waypoint,
12000,2023-10-10 22:12:03,40.068884113528,-88.2096381361614,22.309712,,,728.74941603652,0.328084,2.9751302,2.03546266356,6.3382219876,22,10,22.344,729.40558403652,22.96588,2.9751302,3.443569664,-0.671082,-2.908022,0,251.9, -19.8, 1.5,0,0,1024,1024,1024,1024,0,0,0,0,0,0,0,67,,,,,,,8.928,86.9,728.74941603652,22.309712,14,Waypoint,
12100,2023-10-10 22:12:03,40.0688836912968,-88.2096396988714,22.309712,,,728.74941603652,0.328084,3.467257,1.65576448868,6.8009516612,22,10,22.344,729.40558403652,22.96588,3.467257,3.443569664,-0.894776,-3.35541,0,251.9, -21.2, 1.3,0,0,1024,1024,1024,1024,0,0,0,0,0,0,0,67,,,,,,,8.928,86.9,728.74941603652,22.309712,14,Waypoint,
12200,2023-10-10 22:12:03,40.0688832251776,-88.2096417104924,22.309712,,,728.74941603652,0.328084,4.1830778,1.23522969832,7.387795512,22,10,22.343,729.40558403652,22.96588,4.1830778,3.443569664,-1.11847,-4.026492,0,251.8, -22.5, 1.3,0,0,1024,1024,1024,1024,0,0,0,0,0,0,0,67,,,,,,,8.673,86.9,728.74941603652,22.309712,14,Waypoint,
12300,2023-10-10 22:12:03,40.0688826929172,-88.2096439442031,22.309712,,,728.74941603652,0.328084,4.8765292,0.9963418954,8.0409779476,22,10,22.343,729.40558403652,22.96588,4.8765292,3.443569664,-1.342164,-4.697574,0,251.6, -23.6, 1.2,0,0,1024,1024,1024,1024,0,0,0,0,0,0,0,67,,,,,,,8.673,86.9,728.74941603652,22.309712,14,Waypoint,
12400,2023-10-10 22:12:03,40.0688820435831,-88.2096466375605,22.309712,,,728.74941603652,0.328084,5.59235,1.2211122438,8.8294294164,22,10,22.343,729.40558403652,22.96588,5.59235,3.443569664,-1.565858,-5.368656,0,251.6, -24, 0.9,0,0,1024,1024,1024,1024,0,0,0,0,0,0,0,67,,,,,,,8.673,86.9,728.74941603652,22.309712,14,Waypoint,
12500,2023-10-10 22:12:04,40.0688812731889,-88.2096494704761,21.981628,,,728.42133203652,0.328084,6.3081708,1.85685373396,9.6688651388,22,10,22.343,729.40558403652,22.96588,6.3081708,3.443569664,-1.789552,-6.039738,0,251.8, -24.1, 0.8,0,0,1024,1024,1024,1024,0,0,0,0,0,0,0,67,,,,,,,8.673,86.9,728.42133203652,21.981628,14,Waypoint,
12600,2023-10-10 22:12:04,40.0688804512608,-88.2096528754812,21.981628,,,728.42133203652,0.328084,7.0016222,2.74428486472,10.6657483728,22,10,22.343,729.40558403652,22.96588,7.0016222,3.443569664,-2.013246,-6.71082,0,252, -24.4, 0.7,0,0,1024,1024,1024,1024,0,0,0,0,0,0,0,67,,,,,,,8.673,86.9,728.42133203652,21.981628,14,Waypoint,
12700,2023-10-10 22:12:04,40.0688795969537,-88.2096564387918,21.981628,,,728.42133203652,0.328084,7.6503348,3.7314305656,11.708333708,22,10,22.343,729.40558403652,22.96588,7.6503348,3.7314305656,-2.013246,-7.381902,0,252.1, -24.1, 0,0,0,1024,1024,1024,1024,0,0,0,0,0,0,0,67,,,,,,,8.673,86.9,728.42133203652,21.981628,14,Waypoint,
12800,2023-10-10 22:12:04,40.068878584486,-88.209660496729,21.981628,,,728.42133203652,0.328084,8.3661556,4.89091223,12.9000332212,22,10,22.343,729.40558403652,22.96588,8.3661556,4.89091223,-2.23694,-8.052984,0,252.1, -23.8, -0.5,0,0,1024,1024,1024,1024,0,0,0,0,0,0,0,67,,,,,,,8.673,86.9,728.42133203652,21.981628,14,Waypoint,
12900,2023-10-10 22:12:04,40.0688775607098,-88.209664718972,21.981628,,,728.42133203652,0.328084,8.8582824,6.1055448148,14.1366802424,22,10,22.343,729.40558403652,22.96588,8.8582824,6.1055448148,-2.460634,-8.500372,0,252.1, -24.1, -0.6,0,0,1024,1024,1024,1024,0,0,0,0,0,0,0,67,,,,,,,8.673,86.9,728.42133203652,21.981628,14,Waypoint,
13000,2023-10-10 22:12:04,40.0688763919144,-88.2096694830488,21.981628,,,728.42133203652,0.328084,9.5517338,7.4868440716,15.5335634892,22,10,22.343,729.40558403652,22.96588,9.5517338,7.4868440716,-2.684328,-9.171454,0,252, -23.9, -0.7,0,0,1024,1024,1024,1024,0,0,0,0,0,0,0,67,,,,,,,8.673,86.9,728.42133203652,21.981628,14,Waypoint,
13100,2023-10-10 22:12:04,40.0688751810124,-88.2096742904926,21.981628,,,728.42133203652,0.328084,10.3346628,8.8903546152,16.9466540856,22,10,22.343,729.40558403652,22.96588,10.3346628,8.8903546152,-3.131716,-9.842536,0,251.9, -23.2, -0.9,0,0,1024,1024,1024,1024,0,0,0,0,0,0,0,67,,,,,,,8.673,86.9,728.42133203652,21.981628,14,Waypoint,
13200,2023-10-10 22:12:04,40.068873774253,-88.2096795057052,21.981628,,,728.42133203652,0.328084,10.8267896,10.429462276,18.4906173896,22,10,22.31,729.40558403652,22.96588,10.8267896,10.429462276,-3.35541,-10.289924,0,251.9, -22.2, -0.5,0,0,1024,1024,1024,1024,0,0,0,0,0,0,0,67,,,,,,,8.794,86.9,728.42133203652,21.981628,14,Waypoint,
13300,2023-10-10 22:12:04,40.0688723840948,-88.2096848435526,21.981628,,,728.42133203652,0.328084,11.3189164,11.9989177068,20.0649284636,22,10,22.31,729.40558403652,22.96588,11.3189164,11.9989177068,-3.579104,-10.737312,0,251.8, -21.2, -0.2,0,0,1024,1024,1024,1024,0,0,0,0,0,0,0,67,,,,,,,8.794,86.9,728.42133203652,21.981628,14,Waypoint,
13400,2023-10-10 22:12:04,40.0688708456708,-88.2096906846892,21.981628,,,728.42133203652,0.328084,11.8110432,13.7200463708,21.78969886,22,10,22.31,729.40558403652,22.96588,11.8110432,13.7200463708,-3.802798,-11.1847,0,251.8, -20.4, 0.1,0,0,1024,1024,1024,1024,0,0,0,0,0,0,0,67,,,,,,,8.794,86.9,728.42133203652,21.981628,14,Waypoint,
13500,2023-10-10 22:12:05,40.0688692817511,-88.2096963848911,21.981628,,,728.42133203652,0.328084,12.0347372,15.4090556112,23.4804469456,22,10,22.31,729.40558403652,22.96588,12.0347372,15.4090556112,-3.802798,-11.408394,0,251.8, -19.7, 0.5,0,0,1024,1024,1024,1024,0,0,0,0,0,0,0,67,,,,,,,8.794,86.9,728.42133203652,21.981628,14,Waypoint,
13600,2023-10-10 22:12:05,40.0688676189463,-88.2097026200959,21.981628,,,728.42133203652,0.328084,12.526864,17.2504270612,25.3240493668,22,10,22.31,729.40558403652,22.96588,12.526864,17.2504270612,-4.026492,-11.855782,-0.223694,251.9, -18.9, 0.6,0,0,1024,1024,1024,1024,0,0,0,0,0,0,0,67,,,,,,,8.794,86.9,728.42133203652,21.981628,14,Waypoint,
13700,2023-10-10 22:12:05,40.068865968859,-88.2097087082679,21.981628,,,728.42133203652,0.328084,12.526864,19.0523956228,27.1273630728,22,10,22.31,729.40558403652,22.96588,12.526864,19.0523956228,-4.250186,-12.079476,-0.223694,251.9, -18.4, 0.6,0,0,1024,1024,1024,1024,0,0,0,0,0,0,0,67,,,,,,,8.794,86.9,728.42133203652,21.981628,14,Waypoint,
13800,2023-10-10 22:12:05,40.0688641870342,-88.2097152432365,21.981628,,,728.42133203652,0.328084,13.0189908,20.9882552648,29.0643382004,22,10,22.31,729.40558403652,22.96588,13.0189908,20.9882552648,-4.250186,-12.30317,-0.223694,252, -17.7, 0.9,0,0,1024,1024,1024,1024,0,0,0,0,0,0,0,67,,,,,,,8.794,86.9,728.42133203652,21.981628,14,Waypoint,
13900,2023-10-10 22:12:05,40.0688623945673,-88.2097215697877,21.981628,,,728.42133203652,0.328084,13.0189908,22.8715230416,30.9479668696,22,10,22.31,729.40558403652,22.96588,13.0189908,22.8715230416,-4.250186,-12.526864,-0.223694,251.9, -16.3, 1.6,0,0,1024,1024,1024,1024,0,0,0,0,0,0,0,67,,,,,,,8.794,86.9,728.42133203652,21.981628,14,Waypoint,
14000,2023-10-10 22:12:05,40.0688605499804,-88.2097283309897,21.981628,,,728.42133203652,0.328084,13.309793,24.874836754,32.952100792,22,10,22.31,729.40558403652,22.96588,13.309793,24.874836754,-4.47388,-12.526864,-0.223694,252, -14, 1.7,0,0,1024,1024,1024,1024,0,0,0,0,0,0,0,67,,,,,,,8.794,86.9,728.42133203652,21.981628,14,Waypoint,
14100,2023-10-10 22:12:05,40.0688588769126,-88.2097345014014,21.981628,,,728.42133203652,0.328084,13.309793,26.7018709332,34.779856756,22,10,22.31,729.40558403652,22.96588,13.309793,26.7018709332,-4.47388,-12.750558,-0.223694,252, -11.9, 1.6,0,0,1024,1024,1024,1024,0,0,0,0,0,0,0,67,,,,,,,8.794,86.9,728.42133203652,21.981628,14,Waypoint,
14200,2023-10-10 22:12:05,40.0688571843812,-88.2097406336346,21.981628,,,728.42133203652,0.328084,13.5111176,28.5215560308,36.600066788,22,10,22.2875,729.40558403652,22.96588,13.5111176,28.5215560308,-4.47388,-12.750558,-0.223694,252.1, -10, 1.5,0,0,1024,1024,1024,1024,0,0,0,0,0,0,0,67,,,,,,,9.929,86.9,728.42133203652,21.981628,14,Waypoint,
14300,2023-10-10 22:12:05,40.0688553600418,-88.2097472894357,21.981628,,,728.42133203652,0.328084,13.4440094,30.4950469076,38.573820132,22,10,22.2875,729.40558403652,22.96588,13.5111176,30.4950469076,-4.250186,-12.750558,-0.223694,252.2, -8.9, 1.3,0,0,1024,1024,1024,1024,0,0,0,0,0,0,0,67,,,,,,,9.929,86.9,728.42133203652,21.981628,14,Waypoint,
14400,2023-10-10 22:12:05,40.0688534665193,-88.2097543172829,21.981628,,,728.42133203652,0.328084,13.4440094,32.57464015,40.654200776,22,10,22.2875,729.40558403652,22.96588,13.5111176,32.57464015,-4.250186,-12.750558,-0.223694,252.3, -7.1, 1.4,0,0,1024,1024,1024,1024,0,0,0,0,0,0,0,67,,,,,,,9.929,86.9,728.42133203652,21.981628,14,Waypoint,
14500,2023-10-10 22:12:05,40.0688516788798,-88.2097609505609,21.981628,,,728.42133203652,0.328084,13.4440094,34.537730764,42.617783516,22,10,22.2875,729.40558403652,22.96588,13.5111176,34.537730764,-4.250186,-12.526864,-0.223694,252.2, -5.1, 0.9,0,0,1024,1024,1024,1024,0,0,0,0,0,0,0,67,,,,,,,9.929,86.9,728.42133203652,21.981628,14,Waypoint,
14600,2023-10-10 22:12:06,40.0688496048859,-88.2097682608205,21.981628,,,728.42133203652,0.328084,13.0189908,36.71424002,44.794620856,22,10,22.2875,729.40558403652,22.96588,13.5111176,36.71424002,-4.250186,-12.30317,-0.223694,252.1, -3.5, 0.5,0,0,1024,1024,1024,1024,0,0,0,0,0,0,0,67,,,,,,,9.929,86.9,728.42133203652,21.981628,14,Waypoint,
14700,2023-10-10 22:12:06,40.0688478611317,-88.209774699495,21.981628,,,728.42133203652,0.328084,12.7281886,38.621064228,46.701773148,22,10,22.2875,729.40558403652,22.96588,13.5111176,38.621064228,-4.026492,-12.079476,-0.223694,252, -1.2, 0.7,0,0,1024,1024,1024,1024,0,0,0,0,0,0,0,67,,,,,,,9.929,86.9,728.42133203652,21.981628,14,Waypoint,
14800,2023-10-10 22:12:06,40.0688460760387,-88.209781296089,21.981628,,,728.42133203652,0.328084,12.526864,40.57414828,48.655185284,22,10,22.2875,729.40558403652,22.96588,13.5111176,40.57414828,-4.026492,-11.855782,-0.223694,251.8, 1.2, 0.9,0,0,1024,1024,1024,1024,0,0,0,0,0,0,0,67,,,,,,,9.929,86.9,728.42133203652,21.981628,14,Waypoint,
14900,2023-10-10 22:12:06,40.0688442399092,-88.2097875795307,21.981628,,,728.42133203652,0.328084,12.1018454,42.452101096,50.5331381,22,10,22.2875,729.40558403652,22.96588,13.5111176,42.452101096,-4.026492,-11.408394,-0.223694,252, 2.8, 1.2,0,0,1024,1024,1024,1024,0,0,0,0,0,0,0,67,,,,,,,9.929,86.9,728.42133203652,21.981628,14,Waypoint,
15000,2023-10-10 22:12:06,40.0688425589921,-88.2097937259977,21.981628,,,728.42133203652,0.328084,11.6097186,44.274279632,52.35564472,22,10,22.2875,729.40558403652,22.96588,13.5111176,44.274279632,-3.802798,-10.961006,-0.223694,252.2, 4.7, 1.7,0,0,1024,1024,1024,1024,0,0,0,0,0,0,0,67,,,,,,,9.929,86.9,728.42133203652,21.981628,14,Waypoint,
15100,2023-10-10 22:12:06,40.0688410241639,-88.2097993194724,21.981628,,,728.42133203652,0.328084,11.0952224,45.933072336,54.014765508,22,10,22.2875,729.40558403652,22.96588,13.5111176,45.933072336,-3.579104,-10.513618,-0.223694,252.6, 6.7, 2.2,0,0,1024,1024,1024,1024,0,0,0,0,0,0,0,67,,,,,,,9.929,86.9,728.42133203652,21.981628,14,Waypoint,
15200,2023-10-10 22:12:06,40.0688395045674,-88.2098049296939,21.981628,,,728.42133203652,0.328084,10.6030956,47.594489712,55.676510968,22,10,22.332,729.40558403652,22.96588,13.5111176,47.594489712,-3.35541,-10.06623,-0.223694,252.8, 8.6, 2.6,0,0,1024,1024,1024,1024,0,0,0,0,0,0,0,67,,,,,,,7.627,86.9,728.42133203652,21.981628,14,Waypoint,
15300,2023-10-10 22:12:06,40.068837935802,-88.2098101348458,21.981628,,,728.42133203652,0.328084,10.6030956,49.156169552,57.238518892,22,10,22.332,729.40558403652,22.96588,13.5111176,49.156169552,-3.131716,-9.395148,-0.223694,253, 10.7, 2.6,0,0,1024,1024,1024,1024,0,0,0,0,0,0,0,67,,,,,,,7.627,86.9,728.42133203652,21.981628,14,Waypoint,
15400,2023-10-10 22:12:06,40.0688365849277,-88.2098151618725,21.981628,,,728.42133203652,0.328084,9.1938234,50.643702408,58.726051748,22,10,22.332,729.40558403652,22.96588,13.5111176,50.643702408,-2.908022,-8.724066,-0.223694,253.1, 12.6, 2.1,0,0,1024,1024,1024,1024,0,0,0,0,0,0,0,67,,,,,,,7.627,86.9,728.42133203652,21.981628,14,Waypoint,
15500,2023-10-10 22:12:06,40.068835374107,-88.2098196147717,21.981628,,,728.42133203652,0.328084,8.4780026,51.962928172,60.045277512,22,10,22.332,729.40558403652,22.96588,13.5111176,51.962928172,-2.684328,-8.052984,0,253, 13.6, 1.2,0,0,1024,1024,1024,1024,0,0,0,0,0,0,0,67,,,,,,,7.627,86.9,728.42133203652,21.981628,14,Waypoint,
15600,2023-10-10 22:12:07,40.0688341062274,-88.2098239726976,21.981628,,,728.42133203652,0.328084,7.7845512,53.2644374,61.347114824,22,10,22.332,729.40558403652,22.96588,13.5111176,53.2644374,-2.460634,-7.381902,0,252.9, 14.8, 1.2,0,0,1024,1024,1024,1024,0,0,0,0,0,0,0,67,,,,,,,7.627,86.9,728.42133203652,21.981628,14,Waypoint,
15700,2023-10-10 22:12:07,40.0688330736208,-88.2098277220173,21.653544,,,728.09324803652,0.328084,7.7845512,54.376970244,62.459647668,22,10,22.332,729.40558403652,22.96588,13.5111176,54.376970244,-2.23694,-6.71082,0,252.9, 15.7, 1.2,0,0,1024,1024,1024,1024,0,0,0,0,0,0,0,67,,,,,,,7.627,86.9,728.09324803652,21.653544,14,Waypoint,
15800,2023-10-10 22:12:07,40.0688320964754,-88.2098312664906,21.981628,,,728.42133203652,0.328084,6.375279,55.428807548,63.511484972,22,10,22.332,729.40558403652,22.96588,13.5111176,55.428807548,-2.013246,-6.039738,0,253, 15.9, 1.5,0,0,1024,1024,1024,1024,0,0,0,0,0,0,0,67,,,,,,,7.627,86.9,728.42133203652,21.981628,14,Waypoint,
15900,2023-10-10 22:12:07,40.0688312402112,-88.2098342239294,21.653544,,,728.09324803652,0.328084,6.375279,56.311681592,64.394359016,22,10,22.332,729.40558403652,22.96588,13.5111176,56.311681592,-1.789552,-5.144962,0,253.1, 15.5, 2,0,0,1024,1024,1024,1024,0,0,0,0,0,0,0,67,,,,,,,7.627,86.9,728.09324803652,21.653544,14,Waypoint,
16000,2023-10-10 22:12:07,40.0688302460736,-88.2098370270085,21.653544,,,728.09324803652,0.328084,4.6752046,57.17191784,65.257219936,22,10,22.332,729.40558403652,22.96588,13.5111176,57.17191784,-1.342164,-4.47388,0,253.4, 15.3, 2.8,0,0,1024,1024,1024,1024,0,0,0,0,0,0,0,67,,,,,,,7.627,86.9,728.09324803652,21.653544,14,Waypoint,
16100,2023-10-10 22:12:07,40.0688296005644,-88.2098392390566,21.653544,,,728.09324803652,0.328084,3.7580592,57.8330071,65.917981112,22,10,22.332,729.40558403652,22.96588,13.5111176,57.8330071,-1.11847,-3.579104,0,253.5, 15.5, 3.5,0,0,1024,1024,1024,1024,0,0,0,0,0,0,0,67,,,,,,,7.627,86.9,728.09324803652,21.653544,14,Waypoint,
16200,2023-10-10 22:12:07,40.0688290715673,-88.2098411748157,21.653544,,,728.09324803652,0.328084,3.0422384,58.406826016,66.492128112,22,10,22.344,729.40558403652,22.96588,13.5111176,58.406826016,-0.894776,-2.908022,0,253.6, 15.5, 3.4,0,0,1024,1024,1024,1024,0,0,0,0,0,0,0,66,,,,,,,7.029,86.9,728.09324803652,21.653544,14,Waypoint,
16300,2023-10-10 22:12:07,40.0688285398417,-88.2098427437564,21.653544,,,728.09324803652,0.328084,3.0422384,58.884844404,66.971130752,22,10,22.344,729.40558403652,22.96588,13.5111176,58.884844404,-0.447388,-2.013246,0,253.5, 15, 3.3,0,0,1024,1024,1024,1024,0,0,0,0,0,0,0,66,,,,,,,7.029,86.9,728.09324803652,21.653544,14,Waypoint,
16400,2023-10-10 22:12:07,40.0688283010733,-88.2098439106613,21.653544,,,728.09324803652,0.328084,1.3645334,59.22080242,67.308401104,22,10,22.344,729.40558403652,22.96588,13.5111176,59.22080242,-0.223694,-1.342164,0,253.4, 13.8, 2.7,0,0,1024,1024,1024,1024,0,0,0,0,0,0,0,66,,,,,,,7.029,86.9,728.09324803652,21.653544,14,Waypoint,
16500,2023-10-10 22:12:07,40.0688281611868,-88.2098446618061,21.653544,,,728.09324803652,0.328084,0.894776,59.435041272,67.524280376,22,10,22.344,729.40558403652,22.96588,13.5111176,59.435041272,0,-0.894776,0,253, 10.1, 1.4,0,0,1024,1024,1024,1024,0,0,0,0,0,0,0,66,,,,,,,7.029,86.9,728.09324803652,21.653544,14,Waypoint,
16600,2023-10-10 22:12:08,40.0688280913463,-88.2098451525913,21.653544,,,728.09324803652,0.328084,0.223694,59.572180384,67.663716076,22,10,22.344,729.40558403652,22.96588,13.5111176,59.572180384,0,-0.223694,0,252.7, 6.5, 0.1,0,0,1024,1024,1024,1024,0,0,0,0,0,0,0,66,,,,,,,7.029,86.9,728.09324803652,21.653544,14,Waypoint,
16700,2023-10-10 22:12:08,40.0688278511816,-88.2098454618256,21.653544,,,728.09324803652,0.328084,0,59.683728944,67.786747576,22,10,22.344,729.40558403652,22.96588,13.5111176,59.683728944,0,0,0,252.4, 4.1, -0.3,0,0,1024,1024,1024,1024,0,0,0,0,0,0,0,66,,,,,,,7.029,86.9,728.09324803652,21.653544,14,Waypoint,
16800,2023-10-10 22:12:08,40.06882780705,-88.2098455308728,21.653544,,,728.09324803652,0.328084,0.223694,59.707679076,67.81168196,22,10,22.344,729.40558403652,22.96588,13.5111176,59.707679076,0,0.223694,0,252, 2.9, 0,0,0,1024,1024,1024,1024,0,0,0,0,0,0,0,66,,,,,,,7.029,86.9,728.09324803652,21.653544,14,Waypoint,
16900,2023-10-10 22:12:08,40.0688277366098,-88.2098454519523,21.653544,,,728.09324803652,0.328084,0.447388,59.695868052,67.845474612,22,10,22.344,729.40558403652,22.96588,13.5111176,59.707679076,0,0.447388,0,251.7, 2.1, 0.4,0,0,1024,1024,1024,1024,0,0,0,0,0,0,0,66,,,,,,,7.029,86.9,728.09324803652,21.653544,14,Waypoint,
17000,2023-10-10 22:12:08,40.0688275684102,-88.2098452453261,21.32546,,,727.76516403652,0.328084,0.671082,59.663387736,67.9297922,22,10,22.344,729.40558403652,22.96588,13.5111176,59.707679076,0,0.671082,0.223694,251.6, 1.6, 1,0,0,1024,1024,1024,1024,0,0,0,0,0,0,0,66,,,,,,,7.029,86.9,727.76516403652,21.32546,14,Waypoint,
17100,2023-10-10 22:12:08,40.0688275033072,-88.2098449222556,21.32546,,,727.76516403652,0.328084,0.671082,59.587600332,68.022968056,22,10,22.344,729.40558403652,22.96588,13.5111176,59.707679076,0,0.671082,0.447388,251.4, 1.4, 1.5,0,0,1024,1024,1024,1024,0,0,0,0,0,0,0,67,,,,,,,7.029,86.9,727.76516403652,21.32546,14,Waypoint,
17200,2023-10-10 22:12:08,40.0688274718543,-88.2098444955921,21.32546,,,727.76516403652,0.328084,0.9171454,59.47998878,68.142718716,22,10,22.3235,729.40558403652,22.96588,13.5111176,59.707679076,0.223694,0.894776,0.671082,251.4, 1.4, 2.1,0,0,1024,1024,1024,1024,0,0,0,0,0,0,0,66,,,,,,,8.719,86.9,727.76516403652,21.32546,14,Waypoint,
17300,2023-10-10 22:12:08,40.0688274864435,-88.2098439880154,20.997376,,,727.43708003652,0.328084,1.1408394,59.345802424,68.284451004,22,10,22.3235,729.40558403652,22.96588,13.5111176,59.707679076,0.223694,1.11847,1.11847,251.5, 1.5, 2.8,0,0,1024,1024,1024,1024,0,0,0,0,0,0,0,66,,,,,,,8.719,86.9,727.43708003652,20.997376,14,Waypoint,
17400,2023-10-10 22:12:08,40.0688273502406,-88.2098433483896,20.669292,,,727.10899603652,0.328084,1.1408394,59.196524204,68.469818464,22,10,22.3235,729.40558403652,22.96588,13.5111176,59.707679076,0.223694,1.11847,1.11847,251.6, 1.2, 3.2,0,0,1024,1024,1024,1024,0,0,0,0,0,0,0,66,,,,,,,8.719,86.9,727.10899603652,20.669292,14,Waypoint,
17500,2023-10-10 22:12:09,40.0688274810506,-88.2098426535977,20.669292,,,727.10899603652,0.328084,1.4092722,58.998361468,68.66962162,22,10,22.3235,729.40558403652,22.96588,13.5111176,59.707679076,0.447388,1.342164,1.342164,251.7, 0.8, 3.2,0,0,1024,1024,1024,1024,0,0,0,0,0,0,0,66,,,,,,,8.719,86.9,727.10899603652,20.669292,14,Waypoint,
17600,2023-10-10 22:12:09,40.0688276699561,-88.2098418667207,20.341208,,,726.78091203652,0.328084,1.4092722,58.768374584,68.899936588,22,10,22.3235,729.40558403652,22.96588,13.5111176,59.707679076,0.447388,1.342164,1.565858,251.8, 0.3, 3.2,0,0,1024,1024,1024,1024,0,0,0,0,0,0,0,66,,,,,,,8.719,86.9,726.78091203652,20.341208,14,Waypoint,
17700,2023-10-10 22:12:09,40.0688277605795,-88.2098408864939,20.013124,,,726.45282803652,0.328084,1.7000744,58.500986124,69.175527148,22,10,22.3235,729.40558403652,22.96588,13.5111176,59.707679076,0.671082,1.565858,1.565858,251.9, 0, 3.5,0,0,1024,1024,1024,1024,0,0,0,0,0,0,0,66,,,,,,,8.719,86.9,726.45282803652,20.013124,14,Waypoint,
17800,2023-10-10 22:12:09,40.0688280195781,-88.2098399528134,19.68504,,,726.12474403652,0.328084,1.7000744,58.223755144,69.453086212,22,10,22.3235,729.40558403652,22.96588,13.5111176,59.707679076,0.671082,1.565858,1.789552,252.1, -0.5, 4.1,0,0,1024,1024,1024,1024,0,0,0,0,0,0,0,66,,,,,,,8.719,86.9,726.12474403652,19.68504,14,Waypoint,
17900,2023-10-10 22:12:09,40.068828309597,-88.2098389893782,19.356956,,,725.79666003652,0.328084,1.9908766,57.93471314,69.742128216,22,10,22.3235,729.40558403652,22.96588,13.5111176,59.707679076,0.894776,1.789552,1.789552,252.3, -1.5, 3.5,0,0,1024,1024,1024,1024,0,0,0,0,0,0,0,66,,,,,,,8.719,86.9,725.79666003652,19.356956,14,Waypoint,
18000,2023-10-10 22:12:09,40.0688286570645,-88.2098379438432,19.028872,,,725.46857603652,0.328084,1.9908766,57.616799744,70.060369696,22,10,22.3235,729.40558403652,22.96588,13.5111176,59.707679076,0.894776,1.789552,1.565858,252.2, -3.5, 2.4,0,0,1024,1024,1024,1024,0,0,0,0,0,0,0,66,,,,,,,8.719,86.9,725.46857603652,19.028872,14,Waypoint,
18100,2023-10-10 22:12:09,40.0688288601394,-88.2098367840917,18.700788,,,725.14049203652,0.328084,1.9908766,57.288059576,70.392390704,22,10,22.3235,729.40558403652,22.96588,13.5111176,59.707679076,0.894776,1.789552,1.342164,252, -5.2, 1.5,0,0,1024,1024,1024,1024,0,0,0,0,0,0,0,67,,,,,,,8.719,86.9,725.14049203652,18.700788,14,Waypoint,
18200,2023-10-10 22:12:09,40.0688291971726,-88.2098357501429,18.700788,,,725.14049203652,0.328084,1.9908766,56.974411272,70.706367092,22,10,22.321,729.40558403652,22.96588,13.5111176,59.707679076,0.894776,1.789552,1.11847,251.9, -6.1, 1,0,0,1024,1024,1024,1024,0,0,0,0,0,0,0,66,,,,,,,7.193,86.9,725.14049203652,18.700788,14,Waypoint,
18300,2023-10-10 22:12:09,40.0688294979857,-88.2098348042381,18.372704,,,724.81240803652,0.328084,1.8119214,56.688322024,70.992128256,22,10,22.321,729.40558403652,22.96588,13.5111176,59.707679076,0.894776,1.565858,0.894776,251.8, -6.1, 0.9,0,0,1024,1024,1024,1024,0,0,0,0,0,0,0,66,,,,,,,7.193,86.9,724.81240803652,18.372704,14,Waypoint,
18400,2023-10-10 22:12:09,40.0688297425622,-88.2098337944244,18.372704,,,724.81240803652,0.328084,1.7000744,56.393374508,71.288060024,22,10,22.321,729.40558403652,22.96588,13.5111176,59.707679076,0.671082,1.565858,0.447388,251.7, -6, 0.9,0,0,1024,1024,1024,1024,0,0,0,0,0,0,0,66,,,,,,,7.193,86.9,724.81240803652,18.372704,14,Waypoint,
