time(millisecond),datetime(utc),latitude,longitude,height_above_takeoff(feet),height_above_ground_at_drone_location(feet),ground_elevation_at_drone_location(feet),altitude_above_seaLevel(feet),height_sonar(feet),speed(mph),distance(feet),mileage(feet),satellites,gpslevel,voltage(v),max_altitude(feet),max_ascent(feet),max_speed(mph),max_distance(feet), xSpeed(mph), ySpeed(mph), zSpeed(mph), compass_heading(degrees), pitch(degrees), roll(degrees),isPhoto,isVideo,rc_elevator,rc_aileron,rc_throttle,rc_rudder,rc_elevator(percent),rc_aileron(percent),rc_throttle(percent),rc_rudder(percent),gimbal_heading(degrees),gimbal_pitch(degrees),gimbal_roll(degrees),battery_percent,voltageCell1,voltageCell2,voltageCell3,voltageCell4,voltageCell5,voltageCell6,current(A),battery_temperature(f),altitude(feet),ascent(feet),flycStateRaw,flycState,message
0,2023-10-10 21:54:03,40.0688903561437,-88.2098406267435,0,Available with any HD 360 subscription,Available with any HD 360 subscription,706.12661872466,0.656168,0,0,0,19,10,0,706.12661872466,0,0,0,0,0,0,17.4, -1, -2.1,0,0,364,364,364,1684,-100,-100,-100,100,0,0,0,82,,,,,,,0,87.62,706.12661872466,0,41,Motors_Started,"GEO: You are in a Warning Zone (Airport). Fly with caution."
100,2023-10-10 21:54:03,40.0688903632181,-88.2098406268001,0,,,706.12661872466,0.656168,0,0.0025811352532,0.0025811352532,19,10,0,706.12661872466,0,0,0.0025811352532,0,0,0,17.4, -1, -2.1,0,0,364,364,364,1684,-100,-100,-100,100,0,0,0,82,,,,,,,0,87.62,706.12661872466,0,41,Motors_Started,"Setting new Return-To-Home altitude to 100m (328 ft). Data Recorder File Index is 35. Setting new Maximum Flight Altitude to 120m (394 ft)"
200,2023-10-10 21:54:03,40.0688903508841,-88.2098405831468,0,,,706.12661872466,0.656168,0,0.0123229334652,0.0155737209708,19,10,0,706.12661872466,0,0,0.0123229334652,0,0,0,17.4, -1, -2.1,0,0,364,364,364,1684,-100,-100,-100,100,0,0,0,82,,,,,,,0,87.62,706.12661872466,0,41,Motors_Started,
300,2023-10-10 21:54:03,40.0688903553602,-88.2098405858623,0,,,706.12661872466,0.656168,0,0.011417979368,0.0173742459628,19,10,0,706.12661872466,0,0,0.0123229334652,0,0,0,17.4, -1, -2.1,0,0,364,364,364,1684,-100,-100,-100,100,0,0,0,82,,,,,,,0,87.62,706.12661872466,0,41,Motors_Started,
400,2023-10-10 21:54:03,40.0688903510934,-88.2098405874133,0,,,706.12661872466,0.656168,0,0.011134842876,0.0189900924712,19,10,0,706.12661872466,0,0,0.0123229334652,0,0,0,17.4, -1, -2.1,0,0,364,364,364,1684,-100,-100,-100,100,0,0,0,82,,,,,,,0,87.62,706.12661872466,0,41,Motors_Started,
500,2023-10-10 21:54:03,40.0688903475308,-88.2098405914954,0,,,706.12661872466,0.656168,0,0.0103311026928,0.020718832684,19,10,0,706.12661872466,0,0,0.0123229334652,0,0,0,17.4, -1, -2.1,0,0,364,364,364,1684,-100,-100,-100,100,0,0,0,82,,,,,,,0,87.62,706.12661872466,0,41,Motors_Started,
600,2023-10-10 21:54:03,40.0688903214213,-88.2098405642392,0,,,706.12661872466,0.656168,0,0.0215650925536,0.032911418376,19,10,0,706.12661872466,0,0,0.0215650925536,0,0,0,17.4, -1, -2,0,0,364,364,364,1684,-100,-100,-100,100,0,0,0,82,,,,,,,0,87.62,706.12661872466,0,41,Motors_Started,
700,2023-10-10 21:54:03,40.0688903198565,-88.2098405775961,0,,,706.12661872466,0.656168,0,0.019067913996,0.036684384376,19,10,0,706.12661872466,0,0,0.0215650925536,0,0,0,17.4, -0.9, -2.1,0,0,364,364,364,1684,-100,-100,-100,100,0,0,0,82,,,,,,,0,87.62,706.12661872466,0,41,Motors_Started,
800,2023-10-10 21:54:04,40.0688903344498,-88.2098405718877,0,,,706.12661872466,0.656168,0,0.017240486116,0.042242127336,19,10,0,706.12661872466,0,0,0.0215650925536,0,0,0,17.5, -1.1, -2,0,0,1017,1024,1024,1024,-1,0,0,0,0,0,0,82,,,,,,,0,87.62,706.12661872466,0,41,Motors_Started,
900,2023-10-10 21:54:04,40.0688903188932,-88.2098405531159,0,,,706.12661872466,0.656168,0,0.024643865618,0.049967849368,19,10,0,706.12661872466,0,0,0.024643865618,0,0,0,17.5, -0.9, -2.1,0,0,1024,1024,1024,1024,0,0,0,0,0,0,0,82,,,,,,,0,87.62,706.12661872466,0,41,Motors_Started,
1000,2023-10-10 21:54:04,40.0688903236735,-88.2098405534619,0,,,706.12661872466,0.656168,0,0.023643045376,0.051714568584,19,10,0,706.12661872466,0,0,0.024643865618,0,0,0,17.6, -1, -2,0,0,1024,1024,1024,1024,0,0,0,0,0,0,0,82,,,,,,,0,87.62,706.12661872466,0,41,Motors_Started,
1100,2023-10-10 21:54:04,40.0688903275418,-88.2098405553265,0,,,706.12661872466,0.656168,0,0.0225058078068,0.053218833724,19,10,0,706.12661872466,0,0,0.024643865618,0,0,0,17.6, -1.1, -2,0,0,1024,1024,1024,1024,0,0,0,0,0,0,0,82,,,,,,,0,87.62,706.12661872466,0,41,Motors_Started,
1200,2023-10-10 21:54:04,40.0688903309044,-88.2098405648794,0,,,706.12661872466,0.656168,0,0.0195743444584,0.056154529356,19,10,0,706.12661872466,0,0,0.024643865618,0,0,0,17.5, -1, -2.1,0,0,1024,1024,1024,1024,0,0,0,0,0,0,0,82,,,,,,,0,87.62,706.12661872466,0,41,Motors_Started,
1300,2023-10-10 21:54:04,40.0688903252212,-88.2098405613137,0,,,706.12661872466,0.656168,0,0.0214715229968,0.05845472628,19,10,0,706.12661872466,0,0,0.024643865618,0,0,0,17.4, -1, -2,0,0,1024,1024,1024,1024,0,0,0,0,0,0,0,82,,,,,,,0,87.62,706.12661872466,0,41,Motors_Started,
1400,2023-10-10 21:54:04,40.0688903253777,-88.2098405688806,0,,,706.12661872466,0.656168,0,0.019672572808,0.060568243408,19,10,0,706.12661872466,0,0,0.024643865618,0,0,0,17.5, -1, -2,0,0,1024,1024,1024,1024,0,0,0,0,0,0,0,82,,,,,,,0,87.62,706.12661872466,0,41,Motors_Started,
1500,2023-10-10 21:54:04,40.068890327476,-88.2098405756416,0,,,706.12661872466,0.656168,0,0.0176911751068,0.062605316964,19,10,0,706.12661872466,0,0,0.024643865618,0,0,-0.223694,17.5, -1, -2.1,0,0,1024,1024,1024,1024,0,0,0,0,0,0,0,82,,,,,,,0,87.62,706.12661872466,0,41,Motors_Started,
1600,2023-10-10 21:54:04,40.0688903177132,-88.2098405503031,0,,,706.12661872466,0.656168,0,0.0255365493736,0.070526248976,19,10,0,706.12661872466,0,0,0.0255365493736,0,0,-0.223694,17.5, -1, -2,0,0,1024,1024,1024,1024,0,0,0,0,0,0,0,82,,,,,,,0,87.62,706.12661872466,0,41,Motors_Started,
1700,2023-10-10 21:54:04,40.0688903228259,-88.2098405584932,0,,,706.12661872466,0.656168,0,0.0226031503296,0.073477364556,19,10,0,706.12661872466,0,0,0.0255365493736,0,0,-0.223694,17.5, -1, -2.1,0,0,1024,1024,1024,1024,0,0,0,0,0,0,0,82,,,,,,,0,87.62,706.12661872466,0,41,Motors_Started,
1800,2023-10-10 21:54:05,40.0688903325702,-88.209840567516,0,,,706.12661872466,0.656168,0,0.018639764376,0.07783464816,19,10,0,706.12661872466,0,0,0.0255365493736,0,0,-0.223694,17.5, -1, -2.1,0,0,1024,1024,1024,1024,0,0,0,0,0,0,0,82,,,,,,,0,87.62,706.12661872466,0,41,Motors_Started,
1900,2023-10-10 21:54:05,40.0688903389089,-88.2098405825545,0,,,706.12661872466,0.656168,0,0.013847933514,0.082628283484,19,10,0,706.12661872466,0,0,0.0255365493736,0,0,-0.223694,17.5, -1, -2.1,0,0,1024,1024,1024,1024,0,0,0,0,0,0,0,82,,,,,,,0,87.62,706.12661872466,0,41,Motors_Started,
2000,2023-10-10 21:54:05,40.0688903336102,-88.2098405686607,0,,,706.12661872466,0.656168,0,0.0181821200044,0.086962601208,19,10,0,706.12661872466,0,0,0.0255365493736,0,0,-0.223694,17.5, -1, -2,0,0,1024,1024,1024,1024,0,0,0,0,0,0,0,82,,,,,,,0,87.62,706.12661872466,0,10,Assisted_Takeoff,
2100,2023-10-10 21:54:05,40.0688903396871,-88.2098405856163,0,,,706.12661872466,0.656168,0,0.0129580712808,0.092190291664,19,10,0,706.12661872466,0,0,0.0255365493736,0,0,-0.223694,17.4, -1, -2.1,0,0,1024,1024,1024,1024,0,0,0,0,0,0,0,82,,,,,,,0,87.62,706.12661872466,0,10,Assisted_Takeoff,
2200,2023-10-10 21:54:05,40.0688903504411,-88.2098406019858,0,,,706.12661872466,0.656168,0,0.0072188978688,0.098213913904,19,10,0,706.12661872466,0,0,0.0255365493736,0,0,-0.223694,17.4, -1, -2,0,0,1024,1024,1024,1024,0,0,0,0,0,0,0,82,,,,,,,0,87.62,706.12661872466,0,10,Assisted_Takeoff,
2300,2023-10-10 21:54:05,40.0688903417891,-88.209840579665,0,,,706.12661872466,0.656168,0,0.0141496723688,0.105199806516,19,10,0,706.12661872466,0,0,0.0255365493736,0,0,-0.223694,17.4, -1, -2.1,0,0,1024,1024,1024,1024,0,0,0,0,0,0,0,82,,,,,,,0,87.62,706.12661872466,0,10,Assisted_Takeoff,
2400,2023-10-10 21:54:05,40.068890342653,-88.2098405925005,0.328084,,,706.45470272466,0.656168,0,0.0107535436512,0.10879757566,19,10,0,706.45470272466,0.328084,0,0.0255365493736,0,0,-0.223694,17.4, -1, -2.1,0,0,1024,1024,1024,1024,0,0,0,0,0,0,0,82,,,,,,,0,87.62,706.45470272466,0.328084,10,Assisted_Takeoff,
2500,2023-10-10 21:54:05,40.0688903472861,-88.2098406008777,0.328084,,,706.45470272466,0.656168,0,0.0079120409356,0.111683402524,19,10,0,706.45470272466,0.328084,0,0.0255365493736,0,0,-0.223694,17.4, -1, -2.1,0,0,1024,1024,1024,1024,0,0,0,0,0,0,0,82,,,,,,,0,87.62,706.45470272466,0.328084,10,Assisted_Takeoff,
2600,2023-10-10 21:54:05,40.0688903533626,-88.2098406125872,0.328084,,,706.45470272466,0.656168,0,0.0040807416004,0.115633533884,19,10,0,706.45470272466,0.328084,0,0.0255365493736,0,0,-0.223694,17.4, -1, -2.1,0,0,1024,1024,1024,1024,0,0,0,0,0,0,0,82,,,,,,,0,87.62,706.45470272466,0.328084,10,Assisted_Takeoff,
2700,2023-10-10 21:54:05,40.0688903510777,-88.2098405971691,0.328084,,,706.45470272466,0.656168,0,0.0084617456776,0.120018376544,19,10,23.5745,706.45470272466,0.328084,0,0.0255365493736,0,0,-0.223694,17.4, -1, -2.1,0,0,1024,1024,1024,1024,0,0,0,0,0,0,0,81,,,,,,,1.466,87.62,706.45470272466,0.328084,10,Assisted_Takeoff,
2800,2023-10-10 21:54:05,40.0688903605814,-88.2098406019759,0.328084,,,706.45470272466,0.656168,0,0.007102362432,0.123736552516,19,10,23.5745,706.45470272466,0.328084,0,0.0255365493736,0,0,-0.223694,17.4, -1, -2.1,0,0,1024,1024,1024,1024,0,0,0,0,0,0,0,81,,,,,,,1.466,87.62,706.45470272466,0.328084,10,Assisted_Takeoff,
2900,2023-10-10 21:54:06,40.0688903701703,-88.2098406068275,0.328084,,,706.45470272466,0.656168,0,0.0075572180896,0.127487864972,19,10,23.5745,706.45470272466,0.328084,0,0.0255365493736,0,0,-0.223694,17.4, -1, -2.1,0,0,1024,1024,1218,1024,0,0,29,0,0,0,0,81,,,,,,,1.466,87.62,706.45470272466,0.328084,10,Assisted_Takeoff,
3000,2023-10-10 21:54:06,40.0688903544418,-88.2098405693171,0.328084,,,706.45470272466,0.656168,0,0.0160459650804,0.139430450656,19,10,23.5745,706.45470272466,0.328084,0,0.0255365493736,0,0,-0.223694,17.4, -1, -2.1,0,0,1024,1024,1684,1024,0,0,100,0,0,0,0,81,,,,,,,1.466,87.62,706.45470272466,0.328084,10,Assisted_Takeoff,
3100,2023-10-10 21:54:06,40.0688903586683,-88.2098405784678,0.328084,,,706.45470272466,0.656168,0,0.0135104335032,0.14241470272,19,10,23.5745,706.45470272466,0.328084,0,0.0255365493736,0,0,-0.223694,17.4, -1, -2.1,0,0,1024,1024,1684,1024,0,0,100,0,0,0,0,82,,,,,,,1.466,87.62,706.45470272466,0.328084,10,Assisted_Takeoff,
3200,2023-10-10 21:54:06,40.0688903593891,-88.2098405930603,0.328084,,,706.45470272466,0.656168,0,0.0094788716944,0.146497380016,19,10,23.5745,706.45470272466,0.328084,0,0.0255365493736,0,0,-0.223694,17.5, -0.9, -2.2,0,0,1024,1024,1684,1024,0,0,100,0,0,0,0,82,,,,,,,1.466,87.62,706.45470272466,0.328084,10,Assisted_Takeoff,
3300,2023-10-10 21:54:06,40.0688903584144,-88.2098406099707,0.328084,,,706.45470272466,0.656168,0,0.0047558072388,0.151232288304,19,10,23.5745,706.45470272466,0.328084,0,0.0255365493736,0,0,-0.223694,17.5, -0.8, -2.3,0,0,1024,1024,1684,1024,0,0,100,0,0,0,0,82,,,,,,,1.466,87.62,706.45470272466,0.328084,10,Assisted_Takeoff,
3400,2023-10-10 21:54:06,40.0688903121048,-88.2098405842867,0.328084,,,706.45470272466,0.656168,0,0.0199672906652,0.169587275768,19,10,23.5745,706.45470272466,0.328084,0,0.0255365493736,0,0,-0.223694,17.5, -0.6, -2.3,0,0,1024,1024,1684,1024,0,0,100,0,0,0,0,82,,,,,,,1.466,87.62,706.45470272466,0.328084,10,Assisted_Takeoff,
3500,2023-10-10 21:54:06,40.0688902998349,-88.209840598816,0.328084,,,706.45470272466,0.656168,0,0.02197424611,0.175628614544,19,10,23.5745,706.45470272466,0.328084,0,0.0255365493736,0,0,-0.223694,17.5, -0.2, -2.4,0,0,1024,1024,1684,1024,0,0,100,0,0,0,0,82,,,,,,,1.466,87.62,706.45470272466,0.328084,10,Assisted_Takeoff,
3600,2023-10-10 21:54:06,40.0688902732097,-88.2098406267431,0.328084,,,706.45470272466,0.656168,0,0.0302584327268,0.188084979772,19,10,23.5745,706.45470272466,0.328084,0,0.0302584327268,0,0,-0.447388,17.5, 1.3, -2.6,0,0,1024,1024,1684,1024,0,0,100,0,0,0,0,82,,,,,,,1.466,87.62,706.45470272466,0.328084,10,Assisted_Takeoff,
3700,2023-10-10 21:54:06,40.068890208581,-88.2098406543723,0.328084,,,706.45470272466,0.984252,0,0.0543881251,0.212894691852,19,10,23.5745,706.45470272466,0.328084,0,0.0543881251,0,0,-0.894776,17.3, 2.5, -2.8,0,0,1024,1024,1684,1024,0,0,100,0,0,0,0,82,,,,,,,1.466,87.62,706.45470272466,0.328084,6,P-GPS,
3800,2023-10-10 21:54:07,40.0688901043374,-88.2098406964177,0.328084,,,706.45470272466,0.984252,0.223694,0.093908467572,0.2526984989,19,10,23.5745,706.45470272466,0.328084,0.223694,0.093908467572,-0.223694,0,-1.565858,17.1, 2, -2.5,0,0,1024,1024,1684,1024,0,0,100,0,0,0,0,82,,,,,,,1.466,87.62,706.45470272466,0.328084,6,P-GPS,
3900,2023-10-10 21:54:07,40.0688899579987,-88.2098407323337,0.656168,,,706.78278672466,1.312336,0.223694,0.148224414192,0.307023631872,19,10,23.5745,706.78278672466,0.656168,0.223694,0.148224414192,-0.223694,0,-2.23694,16.6, 0.6, -1.9,0,0,1024,1024,1684,1024,0,0,100,0,0,0,0,82,,,,,,,1.466,87.62,706.78278672466,0.656168,6,P-GPS,
4000,2023-10-10 21:54:07,40.0688897801635,-88.2098407534376,0.984252,,,707.11087072466,1.64042,0.447388,0.213102369024,0.37217520876,19,10,23.5745,707.11087072466,0.984252,0.447388,0.213102369024,-0.447388,0,-2.908022,16.4, -0.4, -1.8,0,0,1024,1024,1684,1024,0,0,100,0,0,0,0,82,,,,,,,1.466,87.62,707.11087072466,0.984252,6,P-GPS,
4100,2023-10-10 21:54:07,40.0688895824826,-88.2098406856629,1.64042,,,707.76703872466,1.968504,0.447388,0.282748696712,0.44673885944,19,10,23.5745,707.76703872466,1.64042,0.447388,0.282748696712,-0.447388,0,-3.579104,16.7, -1.8, -1.3,0,0,1024,1024,1684,1024,0,0,100,0,0,0,0,82,,,,,,,1.466,87.62,707.76703872466,1.64042,6,P-GPS,
4200,2023-10-10 21:54:07,40.0688893532379,-88.2098405694008,1.968504,,,708.09512272466,2.624672,0.4921268,0.36625985424,0.53645671008,19,10,23.5745,708.09512272466,1.968504,0.4921268,0.36625985424,-0.447388,0.223694,-4.250186,17, -3, -2.2,0,0,1024,1024,1684,1024,0,0,100,0,0,0,0,82,,,,,,,1.466,87.62,708.09512272466,1.968504,6,P-GPS,
4300,2023-10-10 21:54:07,40.0688891441693,-88.2098404102726,2.624672,,,708.75129072466,3.28084,0.4921268,0.44629922688,0.62473099112,19,10,23.5745,708.75129072466,2.624672,0.4921268,0.44629922688,-0.447388,0.223694,-4.921268,17.2, -3.7, -3.6,0,0,1024,1024,1684,1024,0,0,100,0,0,0,0,82,,,,,,,1.466,87.62,708.75129072466,2.624672,6,P-GPS,
4400,2023-10-10 21:54:07,40.0688889359815,-88.2098401923394,3.28084,,,709.40745872466,3.937008,0.4921268,0.532152248,0.72205710972,19,10,23.5745,709.40745872466,3.28084,0.4921268,0.532152248,-0.447388,0.223694,-5.59235,17.4, -3.8, -4.6,0,0,1024,1024,1684,1024,0,0,100,0,0,0,0,82,,,,,,,1.466,87.62,709.40745872466,3.28084,6,P-GPS,
4500,2023-10-10 21:54:07,40.0688888004158,-88.2098400211915,4.265092,,,710.39171072466,4.92126,0.3131716,0.59225395596,0.7908300778,19,10,23.5745,710.39171072466,4.265092,0.4921268,0.59225395596,-0.223694,0.223694,-6.487126,17.5, -3.4, -4.5,0,0,1024,1024,1684,1024,0,0,100,0,0,0,0,82,,,,,,,1.466,87.62,710.39171072466,4.265092,6,P-GPS,
4600,2023-10-10 21:54:07,40.0688887086423,-88.2098398324292,5.249344,,,711.37596272466,5.577428,0.3131716,0.6406988394,0.85327102468,19,10,23.5745,711.37596272466,5.249344,0.4921268,0.6406988394,-0.223694,0.223694,-7.158208,17.6, -2.2, -4.1,0,0,1024,1024,1684,1024,0,0,100,0,0,0,0,82,,,,,,,1.466,87.62,711.37596272466,5.249344,6,P-GPS,
4700,2023-10-10 21:54:07,40.0688886492484,-88.2098396342968,6.233596,,,712.36021472466,6.56168,0.223694,0.6816273184,0.91268375624,19,10,23.263,712.36021472466,6.233596,0.4921268,0.6816273184,0,0.223694,-8.052984,17.6, -1.4, -4.3,0,0,1024,1024,1684,1024,0,0,100,0,0,0,0,81,,,,,,,13.204,87.62,712.36021472466,6.233596,6,P-GPS,
4800,2023-10-10 21:54:08,40.068888534002,-88.2098394612902,7.545932,,,713.67255072466,7.545932,0.447388,0.7401739082,0.97672575304,19,10,23.263,713.67255072466,7.545932,0.4921268,0.7401739082,0,0.447388,-8.724066,17.6, -1.5, -5,0,0,1024,1024,1024,1024,0,0,0,0,0,0,0,81,,,,,,,13.204,87.62,713.67255072466,7.545932,6,P-GPS,
4900,2023-10-10 21:54:08,40.0688884972849,-88.209839275929,8.858268,,,714.98488672466,8.530184,0.447388,0.77602036604,1.03018704084,19,10,23.263,714.98488672466,8.858268,0.4921268,0.77602036604,0,0.223694,-9.395148,17.3, -1, -5.6,0,0,1024,1024,1024,1024,0,0,0,0,0,0,0,81,,,,,,,13.204,87.62,714.98488672466,8.858268,6,P-GPS,
5000,2023-10-10 21:54:08,40.0688884147723,-88.2098390301143,10.170604,,,716.29722272466,9.514436,0.223694,0.83691931812,1.10513126896,19,10,23.263,716.29722272466,10.170604,0.4921268,0.83691931812,0,0.223694,-9.618842,17.2, -1.2, -6.2,0,0,1024,1024,1024,1024,0,0,0,0,0,0,0,81,,,,,,,13.204,87.62,716.29722272466,10.170604,6,P-GPS,
5100,2023-10-10 21:54:08,40.068888219921,-88.2098387006551,11.48294,,,717.60955872466,10.498688,0.223694,0.94692916416,1.22138783436,19,10,23.263,717.60955872466,11.48294,0.4921268,0.94692916416,0,0.223694,-9.395148,17.2, -2, -6.7,0,0,1024,1024,1024,1024,0,0,0,0,0,0,0,82,,,,,,,13.204,87.62,717.60955872466,11.48294,6,P-GPS,
5200,2023-10-10 21:54:08,40.0688881718446,-88.2098384857478,12.795276,,,718.92189472466,11.154856,0.223694,0.99622378516,1.28390424056,19,10,23.263,718.92189472466,12.795276,0.4921268,0.99622378516,0,0.223694,-8.94776,17.2, -1.9, -7,0,0,1024,1024,1024,1024,0,0,0,0,0,0,0,82,,,,,,,13.204,87.62,718.92189472466,12.795276,6,P-GPS,
5300,2023-10-10 21:54:08,40.0688881446408,-88.2098383081294,14.107612,,,720.23423072466,12.139108,0.223694,1.03447181788,1.33448167,19,10,23.263,720.23423072466,14.107612,0.4921268,1.03447181788,0,0.223694,-8.500372,17.4, -1.1, -6.7,0,0,1024,1024,1024,1024,0,0,0,0,0,0,0,82,,,,,,,13.204,87.62,720.23423072466,14.107612,6,P-GPS,
5400,2023-10-10 21:54:08,40.068888114319,-88.2098381618922,15.091864,,,721.21848272466,12.467192,0.223694,1.06894360376,1.37678482096,19,10,23.263,721.21848272466,15.091864,0.4921268,1.06894360376,0,0.223694,-7.82929,17.6, -0.9, -5.9,0,0,1024,1024,1024,1024,0,0,0,0,0,0,0,82,,,,,,,13.204,87.62,721.21848272466,15.091864,6,P-GPS,
5500,2023-10-10 21:54:08,40.0688880286914,-88.2098379887512,16.4042,,,722.53081872466,11.154856,0.223694,1.124097805,1.43434387792,19,10,23.263,722.53081872466,16.4042,0.4921268,1.124097805,0,0.223694,-7.158208,17.8, -1, -5.4,0,0,1024,1024,1024,1024,0,0,0,0,0,0,0,82,,,,,,,13.204,87.62,722.53081872466,16.4042,6,P-GPS,
5600,2023-10-10 21:54:08,40.0688880132027,-88.2098378239189,17.388452,,,723.51507072466,12.139108,0.223694,1.15893704496,1.48071198964,19,10,23.263,723.51507072466,17.388452,0.4921268,1.15893704496,0,0.223694,-6.487126,17.9, -1.3, -5.5,0,0,1024,1024,1024,1024,0,0,0,0,0,0,0,82,,,,,,,13.204,87.62,723.51507072466,17.388452,6,P-GPS,
5700,2023-10-10 21:54:08,40.068888003869,-88.2098376627617,18.04462,,,724.17123872466,13.12336,0.223694,1.19223429012,1.525836663,19,10,23.255,724.17123872466,18.04462,0.4921268,1.19223429012,0,0.223694,-5.59235,17.9, -1, -5.9,0,0,1024,1024,1024,1024,0,0,0,0,0,0,0,81,,,,,,,16.315,87.62,724.17123872466,18.04462,6,P-GPS,
5800,2023-10-10 21:54:09,40.0688879419194,-88.2098374018526,18.700788,,,724.82740672466,9.84252,0.223694,1.25960633952,1.60210963132,19,10,23.255,724.82740672466,18.700788,0.4921268,1.25960633952,0,0.223694,-4.697574,17.9, -0.8, -6.4,0,0,1024,1024,1024,1024,0,0,0,0,0,0,0,81,,,,,,,16.315,87.62,724.82740672466,18.700788,6,P-GPS,
5900,2023-10-10 21:54:09,40.0688879358589,-88.2098372316587,19.356956,,,725.48357472466,10.170604,0.223694,1.29550857164,1.64968181132,19,10,23.255,725.48357472466,19.356956,0.4921268,1.29550857164,0,0.223694,-3.802798,17.9, -0.5, -6.7,0,0,1024,1024,1024,1024,0,0,0,0,0,0,0,81,,,,,,,16.315,87.62,725.48357472466,19.356956,6,P-GPS,
6000,2023-10-10 21:54:09,40.0688879398465,-88.2098370605142,20.013124,,,726.13974272466,10.826772,0.223694,1.32990817904,1.69748693096,19,10,23.255,726.13974272466,20.013124,0.4921268,1.32990817904,0,0.223694,-2.684328,17.8, -0.2, -7.1,0,0,1024,1024,1024,1024,0,0,0,0,0,0,0,81,,,,,,,16.315,87.62,726.13974272466,20.013124,6,P-GPS,
6100,2023-10-10 21:54:09,40.0688879393915,-88.209836898605,20.341208,,,726.46782672466,7.874016,0.223694,1.3641896762,1.74269362532,19,10,23.255,726.46782672466,20.341208,0.4921268,1.3641896762,0,0.223694,-1.789552,17.6, 0.5, -7.3,0,0,1024,1024,1024,1024,0,0,0,0,0,0,0,82,,,,,,,16.315,87.62,726.46782672466,20.341208,6,P-GPS,
6200,2023-10-10 21:54:09,40.0688879232681,-88.2098367175114,20.341208,,,726.46782672466,8.2021,0.223694,1.4068570004,1.79359913876,19,10,23.255,726.46782672466,20.341208,0.4921268,1.4068570004,0,0.223694,-1.11847,17.5, 0.9, -6.7,0,0,1024,1024,1024,1024,0,0,0,0,0,0,0,82,,,,,,,16.315,87.62,726.46782672466,20.341208,6,P-GPS,
6300,2023-10-10 21:54:09,40.0688878778002,-88.2098365659823,20.669292,,,726.79591072466,8.2021,0.223694,1.450213301,1.8390420536,19,10,23.255,726.79591072466,20.669292,0.4921268,1.450213301,0,0.223694,-0.671082,17.5, 0.5, -7.4,0,0,1024,1024,1024,1024,0,0,0,0,0,0,0,82,,,,,,,16.315,87.62,726.79591072466,20.669292,6,P-GPS,
6400,2023-10-10 21:54:09,40.0688877941655,-88.2098364282191,20.669292,,,726.79591072466,6.233596,0.223694,1.4993110716,1.8881398242,19,10,23.255,726.79591072466,20.669292,0.4921268,1.4993110716,0,0.223694,-0.223694,17.5, -0.5, -8.4,0,0,1024,1024,1024,1024,0,0,0,0,0,0,0,82,,,,,,,16.315,87.62,726.79591072466,20.669292,6,P-GPS,
6500,2023-10-10 21:54:09,40.0688877091039,-88.2098363021722,20.669292,,,726.79591072466,6.233596,0,1.546177871,1.93506239788,19,10,23.255,726.79591072466,20.669292,0.4921268,1.546177871,0,0,0,17.6, -1.4, -8.1,0,0,1024,1024,1024,1024,0,0,0,0,0,0,0,82,,,,,,,16.315,87.62,726.79591072466,20.669292,6,P-GPS,
6600,2023-10-10 21:54:09,40.0688876261386,-88.2098362288881,20.669292,,,726.79591072466,6.889764,0,1.5811024128,1.97160111296,19,10,23.255,726.79591072466,20.669292,0.4921268,1.5811024128,0,0,0,17.6, -1.7, -7.5,0,0,1024,1024,1024,1024,0,0,0,0,0,0,0,82,,,,,,,16.315,87.62,726.79591072466,20.669292,6,P-GPS,
6700,2023-10-10 21:54:09,40.068887567119,-88.2098361989855,20.669292,,,726.79591072466,6.56168,0,1.60119099612,1.99469494572,19,10,23.438,726.79591072466,20.669292,0.4921268,1.60119099612,0,0,0.223694,17.5, -1.8, -7,0,0,1024,1024,1024,1024,0,0,0,0,0,0,0,81,,,,,,,4.741,87.62,726.79591072466,20.669292,6,P-GPS,
6800,2023-10-10 21:54:10,40.0688875377725,-88.2098362015705,20.341208,,,726.46782672466,6.233596,0,1.6074639622,2.00542657336,19,10,23.438,726.79591072466,20.669292,0.4921268,1.6074639622,0,0,0.223694,17.5, -1.5, -7.1,0,0,1024,1024,1024,1024,0,0,0,0,0,0,0,81,,,,,,,4.741,87.62,726.46782672466,20.341208,6,P-GPS,
6900,2023-10-10 21:54:10,40.0688875337334,-88.2098362135134,20.341208,,,726.46782672466,6.233596,0,1.60584650808,2.0090715866,19,10,23.438,726.79591072466,20.669292,0.4921268,1.6074639622,0,0,0.223694,17.3, -1.2, -6.5,0,0,1024,1024,1024,1024,0,0,0,0,0,0,0,81,,,,,,,4.741,87.62,726.46782672466,20.341208,6,P-GPS,
7000,2023-10-10 21:54:10,40.0688875527388,-88.2098362622685,20.341208,,,726.46782672466,5.905512,0,1.59095805616,2.02435045848,19,10,23.438,726.79591072466,20.669292,0.4921268,1.6074639622,0,0,0.223694,17.1, -0.9, -4.7,0,0,1024,1024,1024,1024,0,0,0,0,0,0,0,81,,,,,,,4.741,87.62,726.46782672466,20.341208,6,P-GPS,
7100,2023-10-10 21:54:10,40.0688875812446,-88.2098362934609,20.013124,,,726.13974272466,6.56168,0,1.57760175652,2.03791673188,19,10,23.438,726.79591072466,20.669292,0.4921268,1.6074639622,0,0,0.223694,17, -1, -3.7,0,0,1024,1024,1024,1024,0,0,0,0,0,0,0,82,,,,,,,4.741,87.62,726.13974272466,20.013124,6,P-GPS,
7200,2023-10-10 21:54:10,40.0688876080598,-88.209836235024,20.013124,,,726.13974272466,6.56168,0,1.5839403394,2.0569390422,19,10,23.438,726.79591072466,20.669292,0.4921268,1.6074639622,0,0,0.223694,17, -0.9, -3.8,0,0,1024,1024,1024,1024,0,0,0,0,0,0,0,82,,,,,,,4.741,87.62,726.13974272466,20.013124,6,P-GPS,
7300,2023-10-10 21:54:10,40.0688876336361,-88.2098361876264,20.013124,,,726.13974272466,6.56168,0,1.5883530692,2.07313326844,19,10,23.438,726.79591072466,20.669292,0.4921268,1.6074639622,0,0,0.223694,17.1, 0.1, -5.4,0,0,1024,1024,1024,1024,0,0,0,0,0,0,0,82,,,,,,,4.741,87.62,726.13974272466,20.013124,6,P-GPS,
7400,2023-10-10 21:54:10,40.0688876490505,-88.2098361511422,20.013124,,,726.13974272466,6.56168,0,1.59282157328,2.08476712708,19,10,23.438,726.79591072466,20.669292,0.4921268,1.6074639622,0,0,0.223694,17.3, 0.4, -7,0,0,1024,1024,1024,1024,0,0,0,0,0,0,0,82,,,,,,,4.741,87.62,726.13974272466,20.013124,6,P-GPS,
7500,2023-10-10 21:54:10,40.0688876562533,-88.2098361344247,19.68504,,,725.81165872466,6.889764,0,1.59486225576,2.0901247388,19,10,23.438,726.79591072466,20.669292,0.4921268,1.6074639622,0,0,0,17.4, 0.2, -7.6,0,0,1024,1024,1024,1024,0,0,0,0,0,0,0,82,,,,,,,4.741,87.62,725.81165872466,19.68504,6,P-GPS,
7600,2023-10-10 21:54:10,40.0688876213137,-88.2098361221431,19.68504,,,725.81165872466,7.545932,0,1.60545280728,2.10332683896,19,10,23.438,726.79591072466,20.669292,0.4921268,1.6074639622,0,0,0,17.5, -0.2, -7.3,0,0,1024,1024,1024,1024,0,0,0,0,0,0,0,82,,,,,,,4.741,87.62,725.81165872466,19.68504,6,P-GPS,
7700,2023-10-10 21:54:10,40.0688876178978,-88.2098361541124,19.68504,,,725.81165872466,7.545932,0,1.599245458,2.11233930644,19,10,23.356,726.79591072466,20.669292,0.4921268,1.6074639622,0,0,0,17.6, -0.5, -6.6,0,0,1024,1024,1024,1024,0,0,0,0,0,0,0,81,,,,,,,7.627,87.8,725.81165872466,19.68504,6,P-GPS,
7800,2023-10-10 21:54:11,40.068887620987,-88.2098362485209,19.68504,,,725.81165872466,7.874016,0,1.5780348274,2.13872382172,19,10,23.356,726.79591072466,20.669292,0.4921268,1.6074639622,0,0,0,17.6, -0.6, -6.1,0,0,1024,1024,1024,1024,0,0,0,0,0,0,0,81,,,,,,,7.627,87.8,725.81165872466,19.68504,6,P-GPS,
7900,2023-10-10 21:54:11,40.0688875727515,-88.2098363463304,19.68504,,,725.81165872466,7.874016,0,1.56831369848,2.1712106994,19,10,23.356,726.79591072466,20.669292,0.4921268,1.6074639622,0,0,0,17.6, -0.9, -6,0,0,1024,1024,1024,1024,0,0,0,0,0,0,0,81,,,,,,,7.627,87.8,725.81165872466,19.68504,6,P-GPS,
8000,2023-10-10 21:54:11,40.0688875546316,-88.2098364465054,19.356956,,,725.48357472466,8.2021,0,1.55145346172,2.1999508578,19,10,23.356,726.79591072466,20.669292,0.4921268,1.6074639622,0,0,0,17.6, -1.2, -5.8,0,0,1024,1024,1024,1024,0,0,0,0,0,0,0,81,,,,,,,7.627,87.8,725.48357472466,19.356956,6,P-GPS,
8100,2023-10-10 21:54:11,40.0688875395206,-88.2098365392569,19.356956,,,725.48357472466,8.2021,0,1.53575136148,2.22643051744,19,10,23.356,726.79591072466,20.669292,0.4921268,1.6074639622,0,0,0,17.8, -1.7, -6,0,0,1024,1024,1024,1024,0,0,0,0,0,0,0,82,,,,,,,7.627,87.8,725.48357472466,19.356956,6,P-GPS,
8200,2023-10-10 21:54:11,40.0688875454536,-88.2098366359398,19.356956,,,725.48357472466,8.2021,0,1.51433075712,2.2535105708,19,10,23.356,726.79591072466,20.669292,0.4921268,1.6074639622,0,0,0,17.8, -1.5, -6.3,0,0,1024,1024,1024,1024,0,0,0,0,0,0,0,82,,,,,,,7.627,87.8,725.48357472466,19.356956,6,P-GPS,
8300,2023-10-10 21:54:11,40.0688875352288,-88.2098367475234,19.356956,,,725.48357472466,7.874016,0,1.49412406356,2.28488852456,19,10,23.356,726.79591072466,20.669292,0.4921268,1.6074639622,0,0,0,17.8, -1.3, -6.9,0,0,1024,1024,1024,1024,0,0,0,0,0,0,0,82,,,,,,,7.627,87.8,725.48357472466,19.356956,6,P-GPS,
8400,2023-10-10 21:54:11,40.0688875450737,-88.2098368045695,19.356956,,,725.48357472466,8.2021,0,1.48012471928,2.30121726524,19,10,23.356,726.79591072466,20.669292,0.4921268,1.6074639622,0,0,0,17.8, -1.1, -6.8,0,0,1024,1024,1024,1024,0,0,0,0,0,0,0,82,,,,,,,7.627,87.8,725.48357472466,19.356956,6,P-GPS,
8500,2023-10-10 21:54:11,40.0688875535459,-88.2098368554089,19.356956,,,725.48357472466,8.2021,0,1.46776907584,2.31574482476,19,10,23.356,726.79591072466,20.669292,0.4921268,1.6074639622,0,0,0,17.7, -1, -6.6,0,0,1024,1024,1024,1024,0,0,0,0,0,0,0,82,,,,,,,7.627,87.8,725.48357472466,19.356956,6,P-GPS,
8600,2023-10-10 21:54:11,40.068887508456,-88.2098368493361,19.356956,,,725.48357472466,7.874016,0,1.48048561168,2.33228025836,19,10,23.356,726.79591072466,20.669292,0.4921268,1.6074639622,0,0,0,17.6, -1.3, -7,0,0,1024,1024,1024,1024,0,0,0,0,0,0,0,82,,,,,,,7.627,87.8,725.48357472466,19.356956,6,P-GPS,
8700,2023-10-10 21:54:11,40.0688875142627,-88.2098368709637,19.356956,,,725.48357472466,8.2021,0,1.47469820992,2.3386811772,19,10,23.345,726.79591072466,20.669292,0.4921268,1.6074639622,0,0,0,17.7, -1.6, -7.3,0,0,1024,1024,1024,1024,0,0,0,0,0,0,0,81,,,,,,,8.239,87.62,725.48357472466,19.356956,6,P-GPS,
8800,2023-10-10 21:54:11,40.0688875137438,-88.2098369005751,19.028872,,,725.15549072466,8.2021,0,1.4689633016,2.34695217484,19,10,23.345,726.79591072466,20.669292,0.4921268,1.6074639622,0,0,0,17.7, -1.6, -7.3,0,0,1024,1024,1024,1024,0,0,0,0,0,0,0,81,,,,,,,8.239,87.62,725.15549072466,19.028872,6,P-GPS,
8900,2023-10-10 21:54:12,40.0688875188553,-88.2098369295461,19.028872,,,725.15549072466,8.2021,0,1.4619258998,2.35525270004,19,10,23.345,726.79591072466,20.669292,0.4921268,1.6074639622,0,0,0,17.8, -1.4, -7.3,0,0,1024,1024,1024,1024,0,0,0,0,0,0,0,81,,,,,,,8.239,87.62,725.15549072466,19.028872,6,P-GPS,
9000,2023-10-10 21:54:12,40.0688875073831,-88.2098369548454,19.028872,,,725.15549072466,8.2021,0,1.4599245874,2.36346136172,19,10,23.345,726.79591072466,20.669292,0.4921268,1.6074639622,0,0,0,17.8, -1.4, -7.2,0,0,1024,1024,1024,1024,0,0,0,0,0,0,0,81,,,,,,,8.239,87.62,725.15549072466,19.028872,6,P-GPS,
9100,2023-10-10 21:54:12,40.0688875397308,-88.2098369875743,19.028872,,,725.15549072466,8.2021,0,1.44510503312,2.37838918372,19,10,23.345,726.79591072466,20.669292,0.4921268,1.6074639622,0,0,0,17.7, -1.2, -7,0,0,1024,1024,1024,1024,0,0,0,0,0,0,0,82,,,,,,,8.239,87.62,725.15549072466,19.028872,6,P-GPS,
9200,2023-10-10 21:54:12,40.0688875737063,-88.2098370158826,19.028872,,,725.15549072466,8.2021,0,1.43073495392,2.39309062776,19,10,23.345,726.79591072466,20.669292,0.4921268,1.6074639622,0,0,0,17.7, -1.2, -7.1,0,0,1024,1024,1024,1024,0,0,0,0,0,0,0,82,,,,,,,8.239,87.62,725.15549072466,19.028872,6,P-GPS,
9300,2023-10-10 21:54:12,40.0688875561844,-88.2098370285797,19.028872,,,725.15549072466,8.530184,0,1.4327920406,2.40040033928,19,10,23.345,726.79591072466,20.669292,0.4921268,1.6074639622,0,0,0,17.4, -0.8, -6.6,0,0,1024,1024,1024,1024,0,0,0,0,0,0,0,82,,,,,,,8.239,87.62,725.15549072466,19.028872,6,P-GPS,
9400,2023-10-10 21:54:12,40.0688875709205,-88.209837058584,19.028872,,,725.15549072466,8.2021,0,1.42308403504,2.41035440784,19,10,23.345,726.79591072466,20.669292,0.4921268,1.6074639622,0,0,0,17.4, -1.2, -6.3,0,0,1024,1024,1024,1024,0,0,0,0,0,0,0,82,,,,,,,8.239,87.62,725.15549072466,19.028872,6,P-GPS,
9500,2023-10-10 21:54:12,40.0688875850991,-88.2098370849404,19.028872,,,725.15549072466,8.2021,0,1.41424217124,2.41935047112,19,10,23.345,726.79591072466,20.669292,0.4921268,1.6074639622,0,0,0,17.4, -1.6, -6.6,0,0,1024,1024,1024,1024,0,0,0,0,0,0,0,82,,,,,,,8.239,87.62,725.15549072466,19.028872,6,P-GPS,
9600,2023-10-10 21:54:12,40.068887609953,-88.2098371043868,19.028872,,,725.15549072466,8.2021,0,1.40396329952,2.42991805676,19,10,23.345,726.79591072466,20.669292,0.4921268,1.6074639622,0,0,0,17.4, -1.6, -7.1,0,0,1024,1024,1024,1024,0,0,0,0,0,0,0,82,,,,,,,8.239,87.62,725.15549072466,19.028872,6,P-GPS,
9700,2023-10-10 21:54:12,40.0688876217824,-88.2098371122458,19.028872,,,725.15549072466,8.2021,0,1.39934715764,2.4347605766,19,10,23.338,726.79591072466,20.669292,0.4921268,1.6074639622,0,0,0,17.4, -1.4, -6.9,0,0,1024,1024,1024,1024,0,0,0,0,0,0,0,81,,,,,,,8.091,87.8,725.15549072466,19.028872,6,P-GPS,
9800,2023-10-10 21:54:13,40.0688876685933,-88.2098371716438,18.700788,,,724.82740672466,7.874016,0,1.3755413826,2.45856635164,19,10,23.338,726.79591072466,20.669292,0.4921268,1.6074639622,0,0,0,17.4, -1.5, -6.3,0,0,1024,1024,1024,1024,0,0,0,0,0,0,0,81,,,,,,,8.091,87.8,724.82740672466,18.700788,6,P-GPS,
9900,2023-10-10 21:54:13,40.0688877151941,-88.2098372381518,18.700788,,,724.82740672466,7.874016,0,1.35040030568,2.4837435178,19,10,23.338,726.79591072466,20.669292,0.4921268,1.6074639622,0,0,0,17.3, -1.5, -5.8,0,0,1024,1024,1024,1024,0,0,0,0,0,0,0,81,,,,,,,8.091,87.8,724.82740672466,18.700788,6,P-GPS,
10000,2023-10-10 21:54:13,40.0688877320206,-88.2098372656514,18.700788,,,724.82740672466,8.2021,0,1.34063980668,2.49357619528,19,10,23.338,726.79591072466,20.669292,0.4921268,1.6074639622,0,0,0,17.3, -1.6, -5.7,0,0,1024,1024,1024,1024,0,0,0,0,0,0,0,81,,,,,,,8.091,87.8,724.82740672466,18.700788,6,P-GPS,
10100,2023-10-10 21:54:13,40.0688877786285,-88.2098373166713,18.700788,,,724.82740672466,8.2021,0,1.31852366424,2.51575795452,19,10,23.338,726.79591072466,20.669292,0.4921268,1.6074639622,0,0,0,17.4, -1.6, -5.6,0,0,1024,1024,1024,1024,0,0,0,0,0,0,0,82,,,,,,,8.091,87.8,724.82740672466,18.700788,6,P-GPS,
10200,2023-10-10 21:54:13,40.0688878239626,-88.2098373592051,18.700788,,,724.82740672466,8.2021,0,1.2984088342,2.53611884756,19,10,23.338,726.79591072466,20.669292,0.4921268,1.6074639622,0,0,0,17.4, -1.4, -5.9,0,0,1024,1024,1024,1024,0,0,0,0,0,0,0,82,,,,,,,8.091,87.8,724.82740672466,18.700788,6,P-GPS,
10300,2023-10-10 21:54:13,40.0688878671944,-88.209837387347,18.700788,,,724.82740672466,8.2021,0,1.2816765502,2.55374352004,19,10,23.338,726.79591072466,20.669292,0.4921268,1.6074639622,0,0,0,17.4, -1.1, -6.4,0,0,1024,1024,1024,1024,0,0,0,0,0,0,0,82,,,,,,,8.091,87.8,724.82740672466,18.700788,6,P-GPS,
10400,2023-10-10 21:54:13,40.0688878603633,-88.2098373713651,18.700788,,,724.82740672466,8.2021,0,1.28659124852,2.55885178792,19,10,23.338,726.79591072466,20.669292,0.4921268,1.6074639622,0,0,0,17.4, -1.1, -6.8,0,0,1024,1024,1024,1024,0,0,0,0,0,0,0,82,,,,,,,8.091,87.8,724.82740672466,18.700788,6,P-GPS,
10500,2023-10-10 21:54:13,40.0688878983903,-88.2098373955491,18.700788,,,724.82740672466,8.2021,0,1.27201119556,2.57428485928,19,10,23.338,726.79591072466,20.669292,0.4921268,1.6074639622,0,0,0,17.5, -1.2, -6.9,0,0,1024,1024,1024,1024,0,0,0,0,0,0,0,82,,,,,,,8.091,87.8,724.82740672466,18.700788,6,P-GPS,
10600,2023-10-10 21:54:13,40.0688879433578,-88.2098374510305,18.700788,,,724.82740672466,8.2021,0,1.2494587014,2.59684719596,19,10,23.338,726.79591072466,20.669292,0.4921268,1.6074639622,0,0,0,17.6, -1.2, -6.6,0,0,1024,1024,1024,1024,0,0,0,0,0,0,0,82,,,,,,,8.091,87.8,724.82740672466,18.700788,6,P-GPS,
10700,2023-10-10 21:54:13,40.0688879435986,-88.2098375062269,18.700788,,,724.82740672466,8.2021,0,1.23850725748,2.61225730144,19,10,23.333,726.79591072466,20.669292,0.4921268,1.6074639622,0,0,0,17.6, -0.9, -6.2,0,0,1024,1024,1024,1024,0,0,0,0,0,0,0,81,,,,,,,7.912,87.8,724.82740672466,18.700788,6,P-GPS,
10800,2023-10-10 21:54:14,40.0688879754984,-88.2098375831418,18.700788,,,724.82740672466,8.2021,0,1.21514767668,2.63668643608,19,10,23.333,726.79591072466,20.669292,0.4921268,1.6074639622,0,0,0,17.6, -0.8, -5.9,0,0,1024,1024,1024,1024,0,0,0,0,0,0,0,81,,,,,,,7.912,87.8,724.82740672466,18.700788,6,P-GPS,
10900,2023-10-10 21:54:14,40.0688879940768,-88.2098376649326,18.700788,,,724.82740672466,8.2021,0,1.194389802,2.66050533448,19,10,23.333,726.79591072466,20.669292,0.4921268,1.6074639622,0,0,0,17.6, -1.3, -5.8,0,0,1024,1024,1024,1024,0,0,0,0,0,0,0,81,,,,,,,7.912,87.8,724.82740672466,18.700788,6,P-GPS,
11000,2023-10-10 21:54:14,40.0688880050245,-88.209837755966,18.700788,,,724.82740672466,8.2021,0,1.17401250476,2.6862369626,19,10,23.333,726.79591072466,20.669292,0.4921268,1.6074639622,0,0,0,17.6, -1.6, -5.7,0,0,1024,1024,1024,1024,0,0,0,0,0,0,0,81,,,,,,,7.912,87.8,724.82740672466,18.700788,6,P-GPS,
11100,2023-10-10 21:54:14,40.0688879938126,-88.2098378423434,18.700788,,,724.82740672466,8.2021,0,1.16071526024,2.71069890564,19,10,23.333,726.79591072466,20.669292,0.4921268,1.6074639622,0,0,-0.223694,17.5, -1.8, -5.7,0,0,1024,1024,1024,1024,0,0,0,0,0,0,0,82,,,,,,,7.912,87.8,724.82740672466,18.700788,6,P-GPS,
11200,2023-10-10 21:54:14,40.0688880199844,-88.2098379236528,18.700788,,,724.82740672466,8.2021,0,1.1384678842,2.73532489068,19,10,23.333,726.79591072466,20.669292,0.4921268,1.6074639622,0,0,-0.223694,17.6, -1.9, -5.8,0,0,1024,1024,1024,1024,0,0,0,0,0,0,0,82,,,,,,,7.912,87.8,724.82740672466,18.700788,6,P-GPS,
11300,2023-10-10 21:54:14,40.0688880517165,-88.2098379994359,18.700788,,,724.82740672466,8.2021,0,1.11580056064,2.75944562636,19,10,23.333,726.79591072466,20.669292,0.4921268,1.6074639622,0,0,-0.223694,17.7, -1.6, -5.8,0,0,1024,1024,1024,1024,0,0,0,0,0,0,0,82,,,,,,,7.912,87.8,724.82740672466,18.700788,6,P-GPS,
11400,2023-10-10 21:54:14,40.0688880814406,-88.2098380616077,18.700788,,,724.82740672466,8.2021,0,1.09623363088,2.77991478712,19,10,23.333,726.79591072466,20.669292,0.4921268,1.6074639622,0,0,-0.223694,17.7, -1.6, -5.8,0,0,1024,1024,1024,1024,0,0,0,0,0,0,0,82,,,,,,,7.912,87.8,724.82740672466,18.700788,6,P-GPS,
11500,2023-10-10 21:54:14,40.0688881172977,-88.2098381279166,18.700788,,,724.82740672466,8.2021,0,1.07424872204,2.80258539152,19,10,23.333,726.79591072466,20.669292,0.4921268,1.6074639622,0,0,-0.223694,17.7, -1.6, -5.9,0,0,1024,1024,1024,1024,0,0,0,0,0,0,0,82,,,,,,,7.912,87.8,724.82740672466,18.700788,6,P-GPS,
11600,2023-10-10 21:54:14,40.0688881521078,-88.209838197002,18.700788,,,724.82740672466,8.2021,0,1.052083367,2.82567922428,19,10,23.333,726.79591072466,20.669292,0.4921268,1.6074639622,0,0,-0.223694,17.6, -1.4, -6,0,0,1024,1024,1024,1024,0,0,0,0,0,0,0,82,,,,,,,7.912,87.8,724.82740672466,18.700788,6,P-GPS,
11700,2023-10-10 21:54:14,40.0688881835974,-88.2098382596525,18.700788,,,724.82740672466,8.2021,0,1.0320374346,2.84660770264,19,10,23.3095,726.79591072466,20.669292,0.4921268,1.6074639622,0,0,-0.223694,17.5, -1.4, -6.1,0,0,1024,1024,1024,1024,0,0,0,0,0,0,0,81,,,,,,,8.091,87.62,724.82740672466,18.700788,6,P-GPS,
11800,2023-10-10 21:54:15,40.0688881676055,-88.2098383073128,18.372704,,,724.49932272466,8.2021,0,1.02809386492,2.861138543,19,10,23.3095,726.79591072466,20.669292,0.4921268,1.6074639622,0,0,0,17.4, -1.6, -6.1,0,0,1024,1024,1024,1024,0,0,0,0,0,0,0,81,,,,,,,8.091,87.62,724.49932272466,18.372704,6,P-GPS,
11900,2023-10-10 21:54:15,40.068888177077,-88.2098383740869,18.700788,,,724.82740672466,8.2021,0,1.01374018992,2.88009851736,19,10,23.3095,726.79591072466,20.669292,0.4921268,1.6074639622,0,0,-0.223694,17.3, -2.1, -5.5,0,0,1024,1024,1024,1024,0,0,0,0,0,0,0,81,,,,,,,8.091,87.62,724.82740672466,18.700788,6,P-GPS,
12000,2023-10-10 21:54:15,40.0688881925113,-88.2098384106984,18.372704,,,724.49932272466,8.2021,0,1.00299215808,2.89176846524,19,10,23.3095,726.79591072466,20.669292,0.4921268,1.6074639622,0,0,-0.223694,17.3, -2.3, -5.4,0,0,1024,1024,1024,1024,0,0,0,0,0,0,0,81,,,,,,,8.091,87.62,724.49932272466,18.372704,6,P-GPS,
12100,2023-10-10 21:54:15,40.0688881745892,-88.2098383750262,18.700788,,,724.82740672466,8.2021,0,1.0142880902,2.90368447612,19,10,23.3095,726.79591072466,20.669292,0.4921268,1.6074639622,0,0,-0.223694,17.4, -2.2, -5.8,0,0,1024,1024,1024,1024,0,0,0,0,0,0,0,82,,,,,,,8.091,87.62,724.82740672466,18.700788,6,P-GPS,
12200,2023-10-10 21:54:15,40.0688881817163,-88.2098383866216,18.372704,,,724.49932272466,8.530184,0,1.01024281448,2.90783473872,19,10,23.3095,726.79591072466,20.669292,0.4921268,1.6074639622,0,0,-0.223694,17.5, -1.9, -6.3,0,0,1024,1024,1024,1024,0,0,0,0,0,0,0,82,,,,,,,8.091,87.62,724.49932272466,18.372704,6,P-GPS,
12300,2023-10-10 21:54:15,40.0688881868866,-88.2098383968591,18.700788,,,724.82740672466,8.2021,0,1.00699150204,2.91125993568,19,10,23.3095,726.79591072466,20.669292,0.4921268,1.6074639622,0,0,-0.223694,17.6, -2, -6.7,0,0,1024,1024,1024,1024,0,0,0,0,0,0,0,82,,,,,,,8.091,87.62,724.82740672466,18.700788,6,P-GPS,
12400,2023-10-10 21:54:15,40.0688881875408,-88.2098384115852,18.372704,,,724.49932272466,8.2021,0,1.004265124,2.91538067072,19,10,23.3095,726.79591072466,20.669292,0.4921268,1.6074639622,0,0,-0.223694,17.6, -2, -6.8,0,0,1024,1024,1024,1024,0,0,0,0,0,0,0,82,,,,,,,8.091,87.62,724.49932272466,18.372704,6,P-GPS,
12500,2023-10-10 21:54:15,40.0688881590834,-88.2098384147554,18.372704,,,724.49932272466,8.2021,0,1.0119258854,2.92580061856,19,10,23.3095,726.79591072466,20.669292,0.4921268,1.6074639622,0,0,-0.223694,17.6, -1.9, -6.6,0,0,1024,1024,1024,1024,0,0,0,0,0,0,0,82,,,,,,,8.091,87.62,724.49932272466,18.372704,6,P-GPS,
12600,2023-10-10 21:54:15,40.0688881752756,-88.2098384437225,18.372704,,,724.49932272466,8.2021,0,1.0023130242,2.93581702308,19,10,23.3095,726.79591072466,20.669292,0.4921268,1.6074639622,0,0,0,17.5, -1.8, -6.5,0,0,1024,1024,1024,1024,0,0,0,0,0,0,0,82,,,,,,,8.091,87.62,724.49932272466,18.372704,6,P-GPS,
12700,2023-10-10 21:54:15,40.0688881968643,-88.209838472158,18.372704,,,724.49932272466,8.2021,0,0.99123362752,2.9469981258,19,10,23.301,726.79591072466,20.669292,0.4921268,1.6074639622,0,0,-0.223694,17.4, -1.6, -6.2,0,0,1024,1024,1024,1024,0,0,0,0,0,0,0,81,,,,,,,8.121,87.62,724.49932272466,18.372704,6,P-GPS,
12800,2023-10-10 21:54:16,40.0688881490454,-88.2098384897427,18.372704,,,724.49932272466,8.2021,0,1.00222444152,2.9651247668,19,10,23.301,726.79591072466,20.669292,0.4921268,1.6074639622,0,0,-0.223694,17.4, -1.6, -6,0,0,1024,1024,1024,1024,0,0,0,0,0,0,0,81,,,,,,,8.121,87.62,724.49932272466,18.372704,6,P-GPS,
12900,2023-10-10 21:54:16,40.0688881620989,-88.2098385164497,18.372704,,,724.49932272466,8.2021,0,0.9939632864,2.97397319228,19,10,23.301,726.79591072466,20.669292,0.4921268,1.6074639622,0,0,-0.223694,17.4, -1.7, -6.1,0,0,1024,1024,1024,1024,0,0,0,0,0,0,0,81,,,,,,,8.121,87.62,724.49932272466,18.372704,6,P-GPS,
13000,2023-10-10 21:54:16,40.0688881654123,-88.2098385424209,18.372704,,,724.49932272466,7.874016,0,0.98870409988,2.98132227388,19,10,23.301,726.79591072466,20.669292,0.4921268,1.6074639622,0,0,-0.223694,17.5, -1.8, -6.3,0,0,1024,1024,1024,1024,0,0,0,0,0,0,0,81,,,,,,,8.121,87.62,724.49932272466,18.372704,6,P-GPS,
13100,2023-10-10 21:54:16,40.0688881760999,-88.2098385621102,18.372704,,,724.49932272466,8.2021,0,0.98231958524,2.98806440008,19,10,23.301,726.79591072466,20.669292,0.4921268,1.6074639622,0,0,-0.223694,17.6, -1.8, -6.6,0,0,1024,1024,1024,1024,0,0,0,0,0,0,0,82,,,,,,,8.121,87.62,724.49932272466,18.372704,6,P-GPS,
13200,2023-10-10 21:54:16,40.0688881008154,-88.2098385664294,18.372704,,,724.49932272466,8.2021,0,1.00399937596,3.01555783928,19,10,23.301,726.79591072466,20.669292,0.4921268,1.6074639622,0,0,-0.223694,17.6, -1.5, -6.2,0,0,1024,1024,1024,1024,0,0,0,0,0,0,0,82,,,,,,,8.121,87.62,724.49932272466,18.372704,6,P-GPS,
13300,2023-10-10 21:54:16,40.0688881218993,-88.2098385886131,18.372704,,,724.49932272466,8.530184,0,0.9941437326,3.02543316768,19,10,23.301,726.79591072466,20.669292,0.4921268,1.6074639622,0,0,-0.223694,17.5, -1.3, -5.9,0,0,1024,1024,1024,1024,0,0,0,0,0,0,0,82,,,,,,,8.121,87.62,724.49932272466,18.372704,6,P-GPS,
13400,2023-10-10 21:54:16,40.0688881453425,-88.2098386051906,18.372704,,,724.49932272466,8.530184,0,0.9844816588,3.03515757744,19,10,23.301,726.79591072466,20.669292,0.4921268,1.6074639622,0,0,-0.223694,17.5, -1.1, -5.9,0,0,1024,1024,1024,1024,0,0,0,0,0,0,0,82,,,,,,,8.121,87.62,724.49932272466,18.372704,6,P-GPS,
13500,2023-10-10 21:54:16,40.0688880864788,-88.2098385856926,18.372704,,,724.49932272466,8.530184,0,1.00522969096,3.05731308996,19,10,23.301,726.79591072466,20.669292,0.4921268,1.6074639622,0,0,-0.223694,17.5, -1.2, -6.3,0,0,1024,1024,1024,1024,0,0,0,0,0,0,0,82,,,,,,,8.121,87.62,724.49932272466,18.372704,6,P-GPS,
13600,2023-10-10 21:54:16,40.0688880899015,-88.2098385921147,18.372704,,,724.49932272466,8.530184,0,1.00318572764,3.0594981294,19,10,23.301,726.79591072466,20.669292,0.4921268,1.6074639622,0,0,-0.223694,17.6, -1.2, -7,0,0,1024,1024,1024,1024,0,0,0,0,0,0,0,82,,,,,,,8.121,87.62,724.49932272466,18.372704,6,P-GPS,
13700,2023-10-10 21:54:16,40.0688880987511,-88.2098386124647,18.372704,,,724.49932272466,8.530184,0,0.9973097432,3.06603356268,19,10,23.301,726.79591072466,20.669292,0.4921268,1.6074639622,0,0,0,17.7, -1.4, -6.8,0,0,1024,1024,1024,1024,0,0,0,0,0,0,0,82,,,,,,,8.121,87.62,724.49932272466,18.372704,6,P-GPS,
13800,2023-10-10 21:54:17,40.068888098945,-88.2098386258654,18.372704,,,724.49932272466,8.2021,0,0.99514766964,3.06977700112,19,10,23.284,726.79591072466,20.669292,0.4921268,1.6074639622,0,0,0,17.7, -1.6, -6.3,0,0,1024,1024,1024,1024,0,0,0,0,0,0,0,81,,,,,,,8.03,87.62,724.49932272466,18.372704,6,P-GPS,
13900,2023-10-10 21:54:17,40.0688880655635,-88.2098386145542,18.372704,,,724.49932272466,8.530184,0,1.00700790624,3.08235902252,19,10,23.284,726.79591072466,20.669292,0.4921268,1.6074639622,0,0,-0.223694,17.7, -1.8, -6.1,0,0,1024,1024,1024,1024,0,0,0,0,0,0,0,81,,,,,,,8.03,87.62,724.49932272466,18.372704,6,P-GPS,
14000,2023-10-10 21:54:17,40.068888090717,-88.209838630828,18.372704,,,724.49932272466,8.530184,0,0.99685698728,3.09259852416,19,10,23.284,726.79591072466,20.669292,0.4921268,1.6074639622,0,0,-0.223694,17.5, -1.4, -6.2,0,0,1024,1024,1024,1024,0,0,0,0,0,0,0,81,,,,,,,8.03,87.62,724.49932272466,18.372704,6,P-GPS,
14100,2023-10-10 21:54:17,40.0688881115878,-88.2098386452489,18.372704,,,724.49932272466,8.530184,0,0.98829399488,3.10121401,19,10,23.284,726.79591072466,20.669292,0.4921268,1.6074639622,0,0,-0.223694,17.5, -1.3, -6.6,0,0,1024,1024,1024,1024,0,0,0,0,0,0,0,82,,,,,,,8.03,87.62,724.49932272466,18.372704,6,P-GPS,
14200,2023-10-10 21:54:17,40.06888807723,-88.2098386308954,18.372704,,,724.49932272466,8.530184,0,1.00093179056,3.11437345924,19,10,23.284,726.79591072466,20.669292,0.4921268,1.6074639622,0,0,-0.223694,17.6, -1.5, -7,0,0,1024,1024,1024,1024,0,0,0,0,0,0,0,82,,,,,,,8.03,87.62,724.49932272466,18.372704,6,P-GPS,
14300,2023-10-10 21:54:17,40.0688880889503,-88.2098386561988,18.372704,,,724.49932272466,8.530184,0,0.99345147536,3.12263133352,19,10,23.284,726.79591072466,20.669292,0.4921268,1.6074639622,0,0,-0.223694,17.8, -2, -6.9,0,0,1024,1024,1024,1024,0,0,0,0,0,0,0,82,,,,,,,8.03,87.62,724.49932272466,18.372704,6,P-GPS,
14400,2023-10-10 21:54:17,40.0688881057564,-88.2098386867602,18.372704,,,724.49932272466,8.530184,0,0.9836286404,3.13313986404,19,10,23.284,726.79591072466,20.669292,0.4921268,1.6074639622,0,0,-0.223694,17.9, -2, -6.8,0,0,1024,1024,1024,1024,0,0,0,0,0,0,0,82,,,,,,,8.03,87.62,724.49932272466,18.372704,6,P-GPS,
14500,2023-10-10 21:54:17,40.0688881378626,-88.2098387137707,18.372704,,,724.49932272466,8.2021,0,0.96969819376,3.14707031068,19,10,23.284,726.79591072466,20.669292,0.4921268,1.6074639622,0,0,-0.223694,17.9, -1.7, -6.6,0,0,1024,1024,1024,1024,0,0,0,0,0,0,0,82,,,,,,,8.03,87.62,724.49932272466,18.372704,6,P-GPS,
14600,2023-10-10 21:54:17,40.068888135093,-88.2098386894249,18.372704,,,724.49932272466,8.530184,0,0.97429793144,3.15394367048,19,10,23.284,726.79591072466,20.669292,0.4921268,1.6074639622,0,0,-0.223694,17.9, -1.5, -6.5,0,0,1024,1024,1024,1024,0,0,0,0,0,0,0,82,,,,,,,8.03,87.62,724.49932272466,18.372704,6,P-GPS,
14700,2023-10-10 21:54:17,40.0688881937278,-88.2098386968925,18.372704,,,724.49932272466,8.530184,0,0.95540029304,3.17543645332,19,10,23.284,726.79591072466,20.669292,0.4921268,1.6074639622,0,0,-0.223694,17.8, -1, -6.5,0,0,1024,1024,1024,1024,0,0,0,0,0,0,0,82,,,,,,,8.03,87.62,724.49932272466,18.372704,6,P-GPS,
14800,2023-10-10 21:54:17,40.0688882612899,-88.2098386896801,18.372704,,,724.49932272466,8.2021,0,0.93630908508,3.20017070608,19,10,23.28,726.79591072466,20.669292,0.4921268,1.6074639622,0,0,-0.223694,17.8, -0.7, -6.8,0,0,1024,1024,1024,1024,0,0,0,0,0,0,0,81,,,,,,,8.21,87.62,724.49932272466,18.372704,6,P-GPS,
14900,2023-10-10 21:54:18,40.0688882721867,-88.209838644561,18.372704,,,724.49932272466,8.2021,0,0.94042653928,3.21337936792,19,10,23.28,726.79591072466,20.669292,0.4921268,1.6074639622,0,0,-0.223694,17.7, -0.5, -6.7,0,0,1024,1024,1024,1024,0,0,0,0,0,0,0,81,,,,,,,8.21,87.62,724.49932272466,18.372704,6,P-GPS,
15000,2023-10-10 21:54:18,40.0688883436279,-88.2098386398895,18.372704,,,724.49932272466,8.2021,0,0.92026577748,3.23947845012,19,10,23.28,726.79591072466,20.669292,0.4921268,1.6074639622,0,0,-0.223694,17.6, -0.4, -6.7,0,0,1024,1024,1024,1024,0,0,0,0,0,0,0,81,,,,,,,8.21,87.62,724.49932272466,18.372704,6,P-GPS,
15100,2023-10-10 21:54:18,40.0688884187818,-88.2098386323616,18.372704,,,724.49932272466,8.2021,0,0.89983926764,3.266978451,19,10,23.28,726.79591072466,20.669292,0.4921268,1.6074639622,0,0,-0.223694,17.6, -0.2, -6.7,0,0,1024,1024,1024,1024,0,0,0,0,0,0,0,82,,,,,,,8.21,87.62,724.49932272466,18.372704,6,P-GPS,
15200,2023-10-10 21:54:18,40.0688885039154,-88.2098386222495,18.372704,,,724.49932272466,8.530184,0,0.87745081548,3.2981628352,19,10,23.28,726.79591072466,20.669292,0.4921268,1.6074639622,0,0,-0.223694,17.5, -0.1, -6.7,0,0,1024,1024,1024,1024,0,0,0,0,0,0,0,82,,,,,,,8.21,87.62,724.49932272466,18.372704,6,P-GPS,
15300,2023-10-10 21:54:18,40.068888565318,-88.2098385947771,18.372704,,,724.49932272466,8.530184,0,0.86532483084,3.3218505,19,10,23.28,726.79591072466,20.669292,0.4921268,1.6074639622,0,0,-0.223694,17.5, 0, -6.5,0,0,1024,1024,1024,1024,0,0,0,0,0,0,0,82,,,,,,,8.21,87.62,724.49932272466,18.372704,6,P-GPS,
15400,2023-10-10 21:54:18,40.0688886457321,-88.2098385789469,18.372704,,,724.49932272466,8.530184,0,0.84636813732,3.3515092936,19,10,23.28,726.79591072466,20.669292,0.4921268,1.6074639622,0,0,-0.223694,17.5, 0, -6.5,0,0,1024,1024,1024,1024,0,0,0,0,0,0,0,82,,,,,,,8.21,87.62,724.49932272466,18.372704,6,P-GPS,
15500,2023-10-10 21:54:18,40.0688887234903,-88.2098385647399,18.372704,,,724.49932272466,8.2021,0,0.82842522336,3.3801510268,19,10,23.28,726.79591072466,20.669292,0.4921268,1.6074639622,0,0,-0.223694,17.4, 0, -6.5,0,0,1024,1024,1024,1024,0,0,0,0,0,0,0,82,,,,,,,8.21,87.62,724.49932272466,18.372704,6,P-GPS,
15600,2023-10-10 21:54:18,40.0688887689305,-88.2098384993097,18.372704,,,724.49932272466,8.530184,0,0.82956695568,3.4048229436,19,10,23.28,726.79591072466,20.669292,0.4921268,1.6074639622,0,0,-0.223694,17.3, 0.2, -6.6,0,0,1024,1024,1024,1024,0,0,0,0,0,0,0,82,,,,,,,8.21,87.62,724.49932272466,18.372704,6,P-GPS,
15700,2023-10-10 21:54:18,40.0688888340948,-88.2098384941276,18.372704,,,724.49932272466,8.530184,0,0.8142060628,3.428641842,19,10,23.28,726.79591072466,20.669292,0.4921268,1.6074639622,0,0,-0.223694,17.3, 0, -6.6,0,0,1024,1024,1024,1024,0,0,0,0,0,0,0,82,,,,,,,8.21,87.62,724.49932272466,18.372704,6,P-GPS,
15800,2023-10-10 21:54:19,40.0688888860377,-88.209838489011,18.372704,,,724.49932272466,8.530184,0,0.80246393644,3.447670714,19,10,23.2635,726.79591072466,20.669292,0.4921268,1.6074639622,0,0,-0.223694,17.3, -0.1, -6.6,0,0,1024,1024,1024,1024,0,0,0,0,0,0,0,81,,,,,,,8.419,87.62,724.49932272466,18.372704,6,P-GPS,
15900,2023-10-10 21:54:19,40.068888924873,-88.2098384958084,18.372704,,,724.49932272466,8.2021,0,0.79163716444,3.461942368,19,10,23.2635,726.79591072466,20.669292,0.4921268,1.6074639622,0,0,-0.223694,17.4, -0.3, -6.9,0,0,1024,1024,1024,1024,0,0,0,0,0,0,0,81,,,,,,,8.419,87.62,724.49932272466,18.372704,6,P-GPS,
16000,2023-10-10 21:54:19,40.0688889115767,-88.2098384966324,18.372704,,,724.49932272466,8.530184,0,0.79467194144,3.4667980112,19,10,23.2635,726.79591072466,20.669292,0.4921268,1.6074639622,0,0,-0.223694,17.5, -0.5, -6.8,0,0,1024,1024,1024,1024,0,0,0,0,0,0,0,81,,,,,,,8.419,87.62,724.49932272466,18.372704,6,P-GPS,
16100,2023-10-10 21:54:19,40.068888931919,-88.2098385436811,18.372704,,,724.49932272466,8.530184,0,0.77992456564,3.4818898752,19,10,23.2635,726.79591072466,20.669292,0.4921268,1.6074639622,0,0,-0.223694,17.6, -0.6, -6.5,0,0,1024,1024,1024,1024,0,0,0,0,0,0,0,82,,,,,,,8.419,87.62,724.49932272466,18.372704,6,P-GPS,
16200,2023-10-10 21:54:19,40.0688889387497,-88.2098385948642,18.372704,,,724.49932272466,8.858268,0,0.76764438152,3.496391188,19,10,23.2635,726.79591072466,20.669292,0.4921268,1.6074639622,0,0,-0.223694,17.7, -0.8, -6.2,0,0,1024,1024,1024,1024,0,0,0,0,0,0,0,82,,,,,,,8.419,87.62,724.49932272466,18.372704,6,P-GPS,
16300,2023-10-10 21:54:19,40.0688888712494,-88.209838623713,18.372704,,,724.49932272466,8.530184,0,0.7786417572,3.522309824,19,10,23.2635,726.79591072466,20.669292,0.4921268,1.6074639622,0,0,-0.223694,17.7, -0.9, -5.9,0,0,1024,1024,1024,1024,0,0,0,0,0,0,0,82,,,,,,,8.419,87.62,724.49932272466,18.372704,6,P-GPS,
16400,2023-10-10 21:54:19,40.06888886764,-88.2098386626374,18.372704,,,724.49932272466,8.530184,0,0.77179792496,3.5332678296,19,10,23.2635,726.79591072466,20.669292,0.4921268,1.6074639622,0,0,-0.223694,17.8, -1, -6.2,0,0,1024,1024,1024,1024,0,0,0,0,0,0,0,82,,,,,,,8.419,87.62,724.49932272466,18.372704,6,P-GPS,
16500,2023-10-10 21:54:19,40.0688888595032,-88.2098386960656,18.372704,,,724.49932272466,8.530184,0,0.767306455,3.5430447328,19,10,23.2635,726.79591072466,20.669292,0.4921268,1.6074639622,0,0,-0.223694,17.7, -1, -6.7,0,0,1024,1024,1024,1024,0,0,0,0,0,0,0,82,,,,,,,8.419,87.62,724.49932272466,18.372704,6,P-GPS,
16600,2023-10-10 21:54:19,40.0688888477836,-88.209838730659,18.372704,,,724.49932272466,8.530184,0,0.76362535252,3.5536090376,19,10,23.2635,726.79591072466,20.669292,0.4921268,1.6074639622,0,0,-0.223694,17.9, -1.5, -7,0,0,1024,1024,1024,1024,0,0,0,0,0,0,0,82,,,,,,,8.419,87.62,724.49932272466,18.372704,6,P-GPS,
16700,2023-10-10 21:54:19,40.0688888061474,-88.2098387606499,18.372704,,,724.49932272466,8.530184,0,0.768946875,3.5709646812,19,10,23.2635,726.79591072466,20.669292,0.4921268,1.6074639622,0,0,-0.223694,18, -1.6, -6.9,0,0,1024,1024,1024,1024,0,0,0,0,0,0,0,82,,,,,,,8.419,87.62,724.49932272466,18.372704,6,P-GPS,
16800,2023-10-10 21:54:20,40.0688888139093,-88.2098387950838,18.372704,,,724.49932272466,8.530184,0,0.7603674784,3.5810040516,19,10,23.2635,726.79591072466,20.669292,0.4921268,1.6074639622,0,0,-0.223694,18.1, -1.5, -6.1,0,0,1024,1024,1024,1024,0,0,0,0,0,0,0,82,,,,,,,8.419,87.62,724.49932272466,18.372704,6,P-GPS,
16900,2023-10-10 21:54:20,40.0688888399398,-88.209838814023,18.372704,,,724.49932272466,8.530184,0,0.7497867694,3.591863632,19,10,23.2635,726.79591072466,20.669292,0.4921268,1.6074639622,0,0,-0.223694,18, -1, -6.1,0,0,1024,1024,1024,1024,0,0,0,0,0,0,0,82,,,,,,,8.419,87.62,724.49932272466,18.372704,6,P-GPS,
17000,2023-10-10 21:54:20,40.068888799349,-88.209838800144,18.372704,,,724.49932272466,8.530184,0,0.76336288532,3.6071523464,19,10,23.2635,726.79591072466,20.669292,0.4921268,1.6074639622,0,0,-0.223694,17.8, -0.4, -6.3,0,0,1024,1024,1024,1024,0,0,0,0,0,0,0,82,,,,,,,8.419,87.62,724.49932272466,18.372704,6,P-GPS,
17100,2023-10-10 21:54:20,40.0688888383971,-88.2098388018832,18.372704,,,724.49932272466,8.530184,0,0.7524934624,3.6214240004,19,10,23.2635,726.79591072466,20.669292,0.4921268,1.6074639622,0,0,-0.223694,17.8, -0.2, -6.6,0,0,1024,1024,1024,1024,0,0,0,0,0,0,0,82,,,,,,,8.419,87.62,724.49932272466,18.372704,6,P-GPS,
17200,2023-10-10 21:54:20,40.0688888728792,-88.2098388102001,18.372704,,,724.49932272466,8.2021,0,0.74169293712,3.6342192764,19,10,23.2635,726.79591072466,20.669292,0.4921268,1.6074639622,0,0,-0.223694,17.6, -0.1, -7,0,0,1024,1024,1024,1024,0,0,0,0,0,0,0,82,,,,,,,8.419,87.62,724.49932272466,18.372704,6,P-GPS,
17300,2023-10-10 21:54:20,40.068888903336,-88.2098388217096,18.372704,,,724.49932272466,8.2021,0,0.73140750372,3.6457678332,19,10,23.2635,726.79591072466,20.669292,0.4921268,1.6074639622,0,0,-0.223694,17.6, -0.2, -7,0,0,1024,1024,1024,1024,0,0,0,0,0,0,0,82,,,,,,,8.419,87.62,724.49932272466,18.372704,6,P-GPS,
17400,2023-10-10 21:54:20,40.0688888559073,-88.20983880268,18.372704,,,724.49932272466,8.2021,0,0.74765094256,3.66387807,19,10,23.2635,726.79591072466,20.669292,0.4921268,1.6074639622,0,0,-0.223694,17.4, -0.4, -6.9,0,0,1024,1024,1024,1024,0,0,0,0,0,0,0,82,,,,,,,8.419,87.62,724.49932272466,18.372704,6,P-GPS,
17500,2023-10-10 21:54:20,40.0688888856004,-88.2098388160118,18.372704,,,724.49932272466,8.2021,0,0.73720146716,3.6753282016,19,10,23.2635,726.79591072466,20.669292,0.4921268,1.6074639622,0,0,-0.223694,17.3, -0.6, -6.9,0,0,1024,1024,1026,1024,0,0,0,0,0,0,0,82,,,,,,,8.419,87.62,724.49932272466,18.372704,6,P-GPS,
17600,2023-10-10 21:54:20,40.068888921739,-88.2098388591268,18.04462,,,724.17123872466,8.2021,0,0.71934713588,3.6932087796,19,10,23.2635,726.79591072466,20.669292,0.4921268,1.6074639622,0,0,-0.223694,17.2, -0.7, -6.8,0,0,1024,1024,1026,1024,0,0,0,0,0,0,0,82,,,,,,,8.419,87.62,724.17123872466,18.04462,6,P-GPS,
17700,2023-10-10 21:54:20,40.0688888973481,-88.2098388906943,18.372704,,,724.49932272466,8.530184,0,0.71988519364,3.70570878,19,10,23.2625,726.79591072466,20.669292,0.4921268,1.6074639622,0,0,-0.223694,17.1, -0.5, -6.5,0,0,1024,1024,1096,1024,0,0,11,0,0,0,0,81,,,,,,,8.21,87.62,724.49932272466,18.372704,6,P-GPS,
17800,2023-10-10 21:54:21,40.0688889389408,-88.2098389641831,18.04462,,,724.17123872466,8.2021,0,0.6948655078,3.7312337152,19,10,23.2625,726.79591072466,20.669292,0.4921268,1.6074639622,0,0,-0.223694,17.1, -0.3, -6,0,0,1024,1024,1087,1024,0,0,10,0,0,0,0,81,,,,,,,8.21,87.62,724.17123872466,18.04462,6,P-GPS,
17900,2023-10-10 21:54:21,40.0688889804982,-88.209839040073,18.372704,,,724.49932272466,8.2021,0,0.66945212116,3.7572835848,19,10,23.2625,726.79591072466,20.669292,0.4921268,1.6074639622,0,0,-0.223694,17.2, -0.3, -5.7,0,0,1024,1024,1100,1024,0,0,12,0,0,0,0,81,,,,,,,8.21,87.62,724.49932272466,18.372704,6,P-GPS,
18000,2023-10-10 21:54:21,40.0688890263869,-88.2098391259437,18.04462,,,724.17123872466,8.530184,0,0.64107285516,3.7865486776,19,10,23.2625,726.79591072466,20.669292,0.4921268,1.6074639622,0,0,0,17.3, -0.5, -5.6,0,0,1024,1024,1101,1024,0,0,12,0,0,0,0,81,,,,,,,8.21,87.62,724.17123872466,18.04462,6,P-GPS,
18100,2023-10-10 21:54:21,40.0688890419146,-88.2098391986557,18.04462,,,724.17123872466,8.530184,0,0.6236220672,3.8076116704,19,10,23.2625,726.79591072466,20.669292,0.4921268,1.6074639622,0,0,0,17.5, -0.7, -5.4,0,0,1024,1024,1080,1024,0,0,8,0,0,0,0,81,,,,,,,8.21,87.62,724.17123872466,18.04462,6,P-GPS,
18200,2023-10-10 21:54:21,40.0688891077444,-88.20983926685,18.04462,,,724.17123872466,8.2021,0,0.59298230244,3.838254716,19,10,23.2625,726.79591072466,20.669292,0.4921268,1.6074639622,0,0,0,17.6, -0.7, -5.2,0,0,1024,1024,1080,1024,0,0,8,0,0,0,0,81,,,,,,,8.21,87.62,724.17123872466,18.04462,6,P-GPS,
18300,2023-10-10 21:54:21,40.0688891812189,-88.2098393197227,18.04462,,,724.17123872466,7.874016,0,0.56296917812,3.8688649532,19,10,23.2625,726.79591072466,20.669292,0.4921268,1.6074639622,0,0,0,17.7, -0.1, -5,0,0,1024,1024,1077,1024,0,0,8,0,0,0,0,81,,,,,,,8.21,87.62,724.17123872466,18.04462,6,P-GPS,
18400,2023-10-10 21:54:21,40.0688891964826,-88.2098393262927,18.04462,,,724.17123872466,8.2021,0,0.55754266876,3.8747376568,19,10,23.2625,726.79591072466,20.669292,0.4921268,1.6074639622,0,0,0,17.8, 0.1, -5,0,0,1024,1024,1084,1024,0,0,9,0,0,0,0,81,,,,,,,8.21,87.62,724.17123872466,18.04462,6,P-GPS,
18500,2023-10-10 21:54:21,40.0688892600125,-88.2098393516968,18.04462,,,724.17123872466,8.2021,0,0.53542324548,3.8989830644,19,10,23.2625,726.79591072466,20.669292,0.4921268,1.6074639622,0,0,0,17.8, 0.4, -5.1,0,0,1024,1024,1103,1024,0,0,12,0,0,0,0,81,,,,,,,8.21,87.62,724.17123872466,18.04462,6,P-GPS,
18600,2023-10-10 21:54:21,40.0688893150278,-88.2098393750763,18.04462,,,724.17123872466,8.2021,0,0.516158153,3.9200788656,19,10,23.2625,726.79591072466,20.669292,0.4921268,1.6074639622,0,0,0,17.8, 0.8, -5.2,0,0,1024,1024,1092,1024,0,0,10,0,0,0,0,81,,,,,,,8.21,87.62,724.17123872466,18.04462,6,P-GPS,
18700,2023-10-10 21:54:21,40.0688893546686,-88.2098393994639,18.04462,,,724.17123872466,8.530184,0,0.50092849372,3.9360565564,19,10,23.242,726.79591072466,20.669292,0.4921268,1.6074639622,0,0,0,17.7, 0.8, -5.3,0,0,1024,1024,1092,1024,0,0,10,0,0,0,0,81,,,,,,,8.598,87.62,724.17123872466,18.04462,6,P-GPS,
18800,2023-10-10 21:54:22,40.0688892788181,-88.2098393799279,18.04462,,,724.17123872466,8.530184,0,0.52505907192,3.9642717804,19,10,23.242,726.79591072466,20.669292,0.4921268,1.6074639622,0,0,0,17.6, 0.3, -5.6,0,0,1024,1024,1088,1024,0,0,10,0,0,0,0,81,,,,,,,8.598,87.62,724.17123872466,18.04462,6,P-GPS,
18900,2023-10-10 21:54:22,40.0688892514458,-88.2098393999556,18.04462,,,724.17123872466,8.530184,0,0.5289370248,3.975721912,19,10,23.242,726.79591072466,20.669292,0.4921268,1.6074639622,0,0,0,17.6, -0.2, -6.1,0,0,1024,1024,1087,1024,0,0,10,0,0,0,0,81,,,,,,,8.598,87.62,724.17123872466,18.04462,6,P-GPS,
19000,2023-10-10 21:54:22,40.0688892436981,-88.2098394751985,18.04462,,,724.17123872466,8.530184,0,0.51779529216,3.9969161384,19,10,23.242,726.79591072466,20.669292,0.4921268,1.6074639622,0,0,0,17.5, -0.7, -6.1,0,0,1024,1024,1093,1024,0,0,10,0,0,0,0,81,,,,,,,8.598,87.62,724.17123872466,18.04462,6,P-GPS,
