time(millisecond),datetime(utc),latitude,longitude,height_above_takeoff(feet),height_above_ground_at_drone_location(feet),ground_elevation_at_drone_location(feet),altitude_above_seaLevel(feet),height_sonar(feet),speed(mph),distance(feet),mileage(feet),satellites,gpslevel,voltage(v),max_altitude(feet),max_ascent(feet),max_speed(mph),max_distance(feet), xSpeed(mph), ySpeed(mph), zSpeed(mph), compass_heading(degrees), pitch(degrees), roll(degrees),isPhoto,isVideo,rc_elevator,rc_aileron,rc_throttle,rc_rudder,rc_elevator(percent),rc_aileron(percent),rc_throttle(percent),rc_rudder(percent),gimbal_heading(degrees),gimbal_pitch(degrees),gimbal_roll(degrees),battery_percent,voltageCell1,voltageCell2,voltageCell3,voltageCell4,voltageCell5,voltageCell6,current(A),battery_temperature(f),altitude(feet),ascent(feet),flycStateRaw,flycState,message
0,2023-10-10 22:36:34,40.0688689237232,-88.2096667716732,0,Available with any HD 360 subscription,Available with any HD 360 subscription,706.40956722453,0.656168,0,0,0,25,10,0,706.40956722453,0,0,0,0,0,0,181.7, 0, 0.2,0,0,364,364,364,1684,-100,-100,-100,100,0,0,0,50,,,,,,,0,85.1,706.40956722453,0,41,Motors_Started,"Your aircraft is flying in an Altitude Zone (500m). Please fly with caution."
100,2023-10-10 22:36:34,40.068868947007,-88.2096667762784,0,,,706.40956722453,0.656168,0,0.0085918309836,0.0085918309836,25,10,0,706.40956722453,0,0,0.0085918309836,0,0,0,181.7, 0, 0.2,0,0,364,364,364,1684,-100,-100,-100,100,0,0,0,50,,,,,,,0,85.1,706.40956722453,0,41,Motors_Started,"Setting new Return-To-Home altitude to 100m (328 ft). Data Recorder File Index is 41. Setting new Maximum Flight Altitude to 120m (394 ft)"
200,2023-10-10 22:36:34,40.0688689749936,-88.2096667844904,0,,,706.40956722453,0.656168,0,0.0190452433916,0.0190570216072,25,10,0,706.40956722453,0,0,0.0190452433916,0,0,0,181.7, 0, 0.2,0,0,364,364,364,1684,-100,-100,-100,100,0,0,0,50,,,,,,,0,85.1,706.40956722453,0,41,Motors_Started,
300,2023-10-10 22:36:34,40.0688689808823,-88.2096667525062,0,,,706.40956722453,0.656168,0,0.0215301516076,0.0282420940796,25,10,0,706.40956722453,0,0,0.0215301516076,0,0,0,181.7, 0, 0.2,0,0,364,364,364,1684,-100,-100,-100,100,0,0,0,50,,,,,,,0,85.1,706.40956722453,0,41,Motors_Started,
400,2023-10-10 22:36:34,40.0688690023025,-88.2096667597883,0,,,706.40956722453,0.656168,0,0.0288610245456,0.036317586464,25,10,0,706.40956722453,0,0,0.0288610245456,0,0,0,181.7, 0, 0.2,0,0,364,364,364,1684,-100,-100,-100,100,0,0,0,50,,,,,,,0,85.1,706.40956722453,0,41,Motors_Started,
500,2023-10-10 22:36:34,40.0688690159921,-88.2096667575499,0,,,706.40956722453,0.656168,0,0.03389435804,0.041351051192,25,10,0,706.40956722453,0,0,0.03389435804,0,0,0,181.7, 0, 0.2,0,0,364,364,364,1684,-100,-100,-100,100,0,0,0,50,,,,,,,0,85.1,706.40956722453,0,41,Motors_Started,
600,2023-10-10 22:36:34,40.0688690337194,-88.2096667581222,0,,,706.40956722453,0.656168,0,0.04031004066,0.047820867672,25,10,0,706.40956722453,0,0,0.04031004066,0,0,0,181.7, 0, 0.2,0,0,364,364,364,1684,-100,-100,-100,100,0,0,0,50,,,,,,,0,85.1,706.40956722453,0,41,Motors_Started,
700,2023-10-10 22:36:35,40.0688690036513,-88.2096667244416,0,,,706.40956722453,0.656168,0,0.032004922284,0.062270015116,25,10,0,706.40956722453,0,0,0.04031004066,0,0,0,181.8, 0, 0.2,0,0,364,364,364,1684,-100,-100,-100,100,0,0,0,50,,,,,,,0,85.1,706.40956722453,0,41,Motors_Started,
800,2023-10-10 22:36:35,40.0688690150155,-88.2096667334239,0,,,706.40956722453,0.656168,0,0.034978019492,0.067115815796,25,10,0,706.40956722453,0,0,0.04031004066,0,0,0,181.7, 0, 0.2,0,0,364,364,364,1684,-100,-100,-100,100,0,0,0,50,,,,,,,0,85.1,706.40956722453,0,41,Motors_Started,
900,2023-10-10 22:36:35,40.0688690134232,-88.2096667382885,0,,,706.40956722453,0.656168,0,0.034028544396,0.068593178048,25,10,0,706.40956722453,0,0,0.04031004066,0,0,0,181.7, -0.1, 0.2,0,0,364,364,364,1684,-100,-100,-100,100,0,0,0,50,,,,,,,0,85.1,706.40956722453,0,41,Motors_Started,
1000,2023-10-10 22:36:35,40.068868986827,-88.2096667312438,0,,,706.40956722453,0.656168,0,0.0256417659124,0.078494097,25,10,0,706.40956722453,0,0,0.04031004066,0,0,0,181.5, -0.1, 0.3,0,0,364,364,364,1684,-100,-100,-100,100,0,0,0,50,,,,,,,0,85.1,706.40956722453,0,41,Motors_Started,
1100,2023-10-10 22:36:35,40.0688690099388,-88.2096667436869,0,,,706.40956722453,0.656168,0,0.032411746444,0.087613847948,25,10,0,706.40956722453,0,0,0.04031004066,0,0,0,181.5, 0, 0.3,0,0,364,364,364,1684,-100,-100,-100,100,0,0,0,50,,,,,,,0,85.1,706.40956722453,0,41,Motors_Started,
1200,2023-10-10 22:36:35,40.0688690383667,-88.2096667561231,0,,,706.40956722453,0.656168,0,0.042052494784,0.09855151234,25,10,0,706.40956722453,0,0,0.042052494784,0,0,-0.223694,181.6, 0, 0.3,0,0,364,364,364,1684,-100,-100,-100,100,0,0,0,50,,,,,,,0,85.1,706.40956722453,0,41,Motors_Started,
1300,2023-10-10 22:36:35,40.068869045333,-88.2096667656142,0,,,706.40956722453,0.656168,0,0.044401576224,0.102223428468,25,10,0,706.40956722453,0,0,0.044401576224,0,0,-0.223694,181.7, 0, 0.3,0,0,364,364,364,1684,-100,-100,-100,100,0,0,0,50,,,,,,,0,85.1,706.40956722453,0,41,Motors_Started,
1400,2023-10-10 22:36:35,40.0688690219949,-88.2096667511731,0,,,706.40956722453,0.656168,0,0.036308400112,0.111644688612,25,10,0,706.40956722453,0,0,0.044401576224,0,0,-0.223694,181.7, 0, 0.3,0,0,364,364,364,1684,-100,-100,-100,100,0,0,0,50,,,,,,,0,85.1,706.40956722453,0,41,Motors_Started,
1500,2023-10-10 22:36:35,40.0688690316983,-88.209666764167,0,,,706.40956722453,0.656168,0,0.03945046058,0.116713914496,25,10,0,706.40956722453,0,0,0.044401576224,0,0,-0.223694,181.7, 0, 0.3,0,0,1024,1024,1024,1024,0,0,0,0,0,0,0,50,,,,,,,0,85.1,706.40956722453,0,41,Motors_Started,
1600,2023-10-10 22:36:36,40.0688690460223,-88.2096667807677,0,,,706.40956722453,0.656168,0,0.044692914816,0.123699479024,25,10,0,706.40956722453,0,0,0.044692914816,0,0,-0.223694,181.7, 0, 0.3,0,0,1024,1024,1024,1024,0,0,0,0,0,0,0,50,,,,,,,0,85.1,706.40956722453,0,41,Motors_Started,
1700,2023-10-10 22:36:36,40.0688690031759,-88.2096667580371,0,,,706.40956722453,0.656168,0,0.0292372384684,0.140571198724,25,10,0,706.40956722453,0,0,0.044692914816,0,0,-0.223694,181.7, 0, 0.3,0,0,1024,1024,1024,1024,0,0,0,0,0,0,0,50,,,,,,,0,85.1,706.40956722453,0,41,Motors_Started,
1800,2023-10-10 22:36:36,40.0688690095005,-88.2096667708446,0,,,706.40956722453,0.656168,0,0.0312966545448,0.144826776288,25,10,21.592,706.40956722453,0,0,0.044692914816,0,0,-0.223694,181.7, 0, 0.3,0,0,1024,1024,1024,1024,0,0,0,0,0,0,0,50,,,,,,,1.751,85.1,706.40956722453,0,41,Motors_Started,
1900,2023-10-10 22:36:36,40.0688690210801,-88.2096667821304,0,,,706.40956722453,0.656168,0,0.035640421088,0.150097445748,25,10,21.592,706.40956722453,0,0,0.044692914816,0,0,-0.223694,181.7, 0, 0.3,0,0,1024,1024,1024,1024,0,0,0,0,0,0,0,50,,,,,,,1.751,85.1,706.40956722453,0,41,Motors_Started,
2000,2023-10-10 22:36:36,40.0688690330022,-88.2096667920023,0.328084,,,706.73765122453,0.656168,0,0.040272311,0.155247052212,25,10,21.592,706.73765122453,0.328084,0,0.044692914816,0,0,-0.223694,181.7, 0, 0.3,0,0,1024,1024,1024,1024,0,0,0,0,0,0,0,50,,,,,,,1.751,85.1,706.73765122453,0.328084,10,Assisted_Takeoff,
2100,2023-10-10 22:36:36,40.0688689923148,-88.2096667695992,0.328084,,,706.73765122453,0.656168,0,0.025032317074,0.171355648528,25,10,21.592,706.73765122453,0.328084,0,0.044692914816,0,0,-0.223694,181.7, 0, 0.3,0,0,1024,1024,1024,1024,0,0,0,0,0,0,0,50,,,,,,,1.751,85.1,706.73765122453,0.328084,10,Assisted_Takeoff,
2200,2023-10-10 22:36:36,40.0688690031103,-88.209666797697,0.328084,,,706.73765122453,0.656168,0,0.0298618119792,0.180134192116,25,10,21.592,706.73765122453,0.328084,0,0.044692914816,0,0,-0.223694,181.7, 0, 0.3,0,0,1024,1024,1024,1024,0,0,0,0,0,0,0,50,,,,,,,1.751,85.1,706.73765122453,0.328084,10,Assisted_Takeoff,
2300,2023-10-10 22:36:36,40.0688690067991,-88.2096668233004,0.328084,,,706.73765122453,0.656168,0,0.033563321284,0.187408470564,25,10,21.592,706.73765122453,0.328084,0,0.044692914816,0,0,-0.223694,181.7, 0, 0.3,0,0,1024,1024,1024,1024,0,0,0,0,0,0,0,50,,,,,,,1.751,85.1,706.73765122453,0.328084,10,Assisted_Takeoff,
2400,2023-10-10 22:36:36,40.0688689858603,-88.2096668370179,0.328084,,,706.73765122453,0.656168,0,0.029100394632,0.195954402596,25,10,21.592,706.73765122453,0.328084,0,0.044692914816,0,0,-0.223694,181.7, 0, 0.3,0,0,1024,1024,1024,1024,0,0,0,0,0,0,0,50,,,,,,,1.751,85.1,706.73765122453,0.328084,10,Assisted_Takeoff,
2500,2023-10-10 22:36:36,40.0688690004601,-88.2096668538865,0.328084,,,706.73765122453,0.656168,0,0.036204725568,0.203064639044,25,10,21.592,706.73765122453,0.328084,0,0.044692914816,0,0,-0.223694,181.7, 0, 0.3,0,0,1024,1024,1111,1024,0,0,13,0,0,0,0,50,,,,,,,1.751,85.1,706.73765122453,0.328084,10,Assisted_Takeoff,
2600,2023-10-10 22:36:37,40.0688690203188,-88.2096668766278,0.328084,,,706.73765122453,0.656168,0,0.045834319052,0.21269849762,25,10,21.592,706.73765122453,0.328084,0,0.045834319052,0,0,-0.223694,181.7, 0, 0.3,0,0,1024,1024,1111,1024,0,0,13,0,0,0,0,50,,,,,,,1.751,85.1,706.73765122453,0.328084,10,Assisted_Takeoff,
2700,2023-10-10 22:36:37,40.0688690327151,-88.2096668934437,0.328084,,,706.73765122453,0.656168,0,0.052318899312,0.219217854784,25,10,21.592,706.73765122453,0.328084,0,0.052318899312,0,0,-0.223694,181.7, 0, 0.3,0,0,1024,1024,1684,1165,0,0,100,21,0,0,0,50,,,,,,,1.751,85.1,706.73765122453,0.328084,10,Assisted_Takeoff,
2800,2023-10-10 22:36:37,40.0688690154057,-88.209666866452,0.328084,,,706.73765122453,0.656168,0,0.042652232336,0.22905020418,25,10,21.57,706.73765122453,0.328084,0,0.052318899312,0,0,-0.223694,181.7, 0, 0.3,0,0,1024,1024,1684,1024,0,0,100,0,0,0,0,50,,,,,,,0.927,85.1,706.73765122453,0.328084,10,Assisted_Takeoff,
2900,2023-10-10 22:36:37,40.0688690266584,-88.2096668739318,0.328084,,,706.73765122453,0.656168,0,0.047176510696,0.23365650354,25,10,21.57,706.73765122453,0.328084,0,0.052318899312,0,0,-0.223694,181.7, 0, 0.3,0,0,1024,1024,1684,1024,0,0,100,0,0,0,0,50,,,,,,,0.927,85.1,706.73765122453,0.328084,10,Assisted_Takeoff,
3000,2023-10-10 22:36:37,40.0688690412854,-88.2096668853538,0.328084,,,706.73765122453,0.656168,0,0.05335958176,0.239873367256,25,10,21.57,706.73765122453,0.328084,0,0.05335958176,0,0,-0.223694,181.7, 0, 0.3,0,0,1024,1024,1684,1024,0,0,100,0,0,0,0,50,,,,,,,0.927,85.1,706.73765122453,0.328084,10,Assisted_Takeoff,
3100,2023-10-10 22:36:37,40.0688690305654,-88.2096668174938,0.328084,,,706.73765122453,0.656168,0,0.0410269042,0.259220152652,25,10,21.57,706.73765122453,0.328084,0,0.05335958176,0,0,-0.223694,181.7, 0.1, 0.2,0,0,1024,1024,1684,1024,0,0,100,0,0,0,0,50,,,,,,,0.927,85.1,706.73765122453,0.328084,10,Assisted_Takeoff,
3200,2023-10-10 22:36:37,40.0688690696971,-88.2096668253065,0.328084,,,706.73765122453,0.656168,0,0.055323820668,0.273662738416,25,10,21.57,706.73765122453,0.328084,0,0.055323820668,0,0,-0.223694,181.8, 0.9, 0.2,0,0,1024,1024,1684,1055,0,0,100,5,0,0,0,50,,,,,,,0.927,85.1,706.73765122453,0.328084,10,Assisted_Takeoff,
3300,2023-10-10 22:36:37,40.0688691198284,-88.2096668310698,0.328084,,,706.73765122453,0.984252,0,0.073445868492,0.292023959476,25,10,21.57,706.73765122453,0.328084,0,0.073445868492,0,0,-0.671082,181.8, 3.1, 0.1,0,0,1024,1024,1684,1052,0,0,100,4,0,0,0,50,,,,,,,0.927,85.1,706.73765122453,0.328084,10,Assisted_Takeoff,
3400,2023-10-10 22:36:37,40.0688692383201,-88.2096668272052,0.328084,,,706.73765122453,0.984252,0.223694,0.115823166436,0.3352690396,25,10,21.57,706.73765122453,0.328084,0.223694,0.115823166436,0.223694,0,-1.11847,181.7, 3.7, 0.2,0,0,1024,1024,1684,1052,0,0,100,4,0,0,0,50,,,,,,,0.927,85.1,706.73765122453,0.328084,6,P-GPS,
3500,2023-10-10 22:36:37,40.0688693919141,-88.2096667464286,0.656168,,,707.06573522453,0.984252,0.447388,0.1709645724,0.39567586568,25,10,21.57,707.06573522453,0.656168,0.447388,0.1709645724,0.447388,0,-1.789552,181.6, 2.2, 0.8,0,0,1024,1024,1684,1050,0,0,100,4,0,0,0,50,,,,,,,0.927,85.1,707.06573522453,0.656168,6,P-GPS,
3600,2023-10-10 22:36:38,40.0688696521509,-88.2096667359206,0.984252,,,707.39381922453,1.312336,0.447388,0.265953748668,0.49066930704,25,10,21.57,707.39381922453,0.984252,0.447388,0.265953748668,0.447388,0,-2.460634,181.4, -0.1, 0,0,0,1024,1024,1684,1024,0,0,100,0,0,0,0,50,,,,,,,0.927,85.1,707.39381922453,0.984252,6,P-GPS,
3700,2023-10-10 22:36:38,40.0688698873138,-88.209666699006,1.312336,,,707.72190322453,1.64042,0.447388,0.3521489614,0.5770833518,25,10,21.57,707.72190322453,1.312336,0.447388,0.3521489614,0.447388,0,-2.908022,181.4, -2.5, -1.1,0,0,1024,1024,1684,1024,0,0,100,0,0,0,0,50,,,,,,,0.927,85.1,707.72190322453,1.312336,6,P-GPS,
3800,2023-10-10 22:36:38,40.0688700448751,-88.2096665848806,1.64042,,,708.04998722453,2.296588,0.223694,0.41236221792,0.64281170036,25,10,21.2835,708.04998722453,1.64042,0.447388,0.41236221792,0.223694,0,-3.579104,181.3, -4.1, -1.7,0,0,1024,1024,1684,1024,0,0,100,0,0,0,0,50,,,,,,,11.066,85.1,708.04998722453,1.64042,6,P-GPS,
3900,2023-10-10 22:36:38,40.0688701302158,-88.2096664261247,2.296588,,,708.70615522453,2.624672,0.223694,0.45063649736,0.6969816496,25,10,21.2835,708.70615522453,2.296588,0.447388,0.45063649736,0,0.223694,-4.47388,181.1, -3.3, -1.2,0,0,1024,1024,1684,1024,0,0,100,0,0,0,0,50,,,,,,,11.066,85.1,708.70615522453,2.296588,6,P-GPS,
4000,2023-10-10 22:36:38,40.0688701515577,-88.2096662047065,2.952756,,,709.36232322453,3.28084,0.223694,0.47512140628,0.75929136288,25,10,21.2835,709.36232322453,2.952756,0.447388,0.47512140628,0,0.223694,-5.144962,181, -1.3, 0.5,0,0,1024,1024,1684,1024,0,0,100,0,0,0,0,50,,,,,,,11.066,85.1,709.36232322453,2.952756,6,P-GPS,
4100,2023-10-10 22:36:38,40.0688701140519,-88.2096660322025,3.608924,,,710.01849122453,3.937008,0.223694,0.48086943796,0.80936026212,25,10,21.2835,710.01849122453,3.608924,0.447388,0.48086943796,0,0.223694,-5.816044,180.9, 0.4, 2.1,0,0,1024,1024,1684,1024,0,0,100,0,0,0,0,50,,,,,,,11.066,85.1,710.01849122453,3.608924,6,P-GPS,
4200,2023-10-10 22:36:38,40.0688700295496,-88.2096658790494,4.593176,,,711.00274322453,4.92126,0.223694,0.47423229864,0.86208008008,25,10,21.2835,711.00274322453,4.593176,0.447388,0.48086943796,0,0.223694,-6.487126,181, 0.9, 2.3,0,0,1024,1024,1024,1024,0,0,0,0,0,0,0,50,,,,,,,11.066,85.1,711.00274322453,4.593176,6,P-GPS,
4300,2023-10-10 22:36:38,40.0688700588764,-88.2096657825916,5.577428,,,711.98699522453,5.905512,0,0.49778872984,0.89105645896,25,10,21.2835,711.98699522453,5.577428,0.447388,0.49778872984,0,0,-7.381902,181, -0.1, 1.3,0,0,1024,1024,1024,1024,0,0,0,0,0,0,0,50,,,,,,,11.066,85.1,711.98699522453,5.577428,6,P-GPS,
4400,2023-10-10 22:36:38,40.0688701050054,-88.2096656931365,6.56168,,,712.97124722453,7.217848,0,0.5257710142,0.92117457016,25,10,21.2835,712.97124722453,6.56168,0.447388,0.5257710142,0,0,-8.052984,180.9, -1.8, 0.5,0,0,1024,1024,1024,1024,0,0,0,0,0,0,0,50,,,,,,,11.066,85.1,712.97124722453,6.56168,6,P-GPS,
4500,2023-10-10 22:36:38,40.0688701243222,-88.2096655402729,7.874016,,,714.28358322453,8.2021,0,0.55685369236,0.9644357264,25,10,21.2835,714.28358322453,7.874016,0.447388,0.55685369236,0,0,-8.276678,180.9, -2.8, 1,0,0,1024,1024,1024,1024,0,0,0,0,0,0,0,50,,,,,,,11.066,85.1,714.28358322453,7.874016,6,P-GPS,
4600,2023-10-10 22:36:38,40.0688701315358,-88.2096654210359,9.186352,,,715.59591922453,9.514436,0,0.58000001856,0.99783139676,25,10,21.2835,715.59591922453,9.186352,0.447388,0.58000001856,0,0,-8.500372,180.9, -2.4, 2.2,0,0,1024,1024,1024,1024,0,0,0,0,0,0,0,50,,,,,,,11.066,85.1,715.59591922453,9.186352,6,P-GPS,
4700,2023-10-10 22:36:39,40.068870102279,-88.2096652937125,10.170604,,,716.58017122453,10.826772,0,0.59597442852,1.03494753968,25,10,21.2835,716.58017122453,10.170604,0.447388,0.59597442852,0,0,-8.276678,181, -1.5, 2.9,0,0,1024,1024,1024,1024,0,0,0,0,0,0,0,50,,,,,,,11.066,85.1,716.58017122453,10.170604,6,P-GPS,
4800,2023-10-10 22:36:39,40.0688700560855,-88.2096652017835,11.48294,,,717.89250722453,11.811024,0,0.60234253896,1.06565292124,25,10,21.3945,717.89250722453,11.48294,0.447388,0.60234253896,0,0,-7.82929,181.1, -0.9, 2.7,0,0,1024,1024,1024,1024,0,0,0,0,0,0,0,50,,,,,,,7.716,85.1,717.89250722453,11.48294,6,P-GPS,
4900,2023-10-10 22:36:39,40.0688699962533,-88.2096650514547,12.467192,,,718.87675922453,12.795276,0,0.61952757888,1.11296591488,25,10,21.3945,718.87675922453,12.467192,0.447388,0.61952757888,0,0,-7.381902,181.3, -0.6, 2.5,0,0,1024,1024,1024,1024,0,0,0,0,0,0,0,50,,,,,,,7.716,85.1,718.87675922453,12.467192,6,P-GPS,
5000,2023-10-10 22:36:39,40.0688699261552,-88.2096650074736,13.451444,,,719.86101122453,13.779528,0,0.61351379916,1.14133533836,25,10,21.3945,719.86101122453,13.451444,0.447388,0.61952757888,0,0,-6.71082,181.4, -0.3, 2.3,0,0,1024,1024,1024,1024,0,0,0,0,0,0,0,50,,,,,,,7.716,85.1,719.86101122453,13.451444,6,P-GPS,
5100,2023-10-10 22:36:39,40.0688698412202,-88.2096649709368,14.107612,,,720.51717922453,14.435696,0,0.60402560988,1.17396001132,25,10,21.3945,720.51717922453,14.107612,0.447388,0.61952757888,0,0,-6.039738,181.5, -0.3, 2.1,0,0,1024,1024,1024,1024,0,0,0,0,0,0,0,50,,,,,,,7.716,85.1,720.51717922453,14.107612,6,P-GPS,
5200,2023-10-10 22:36:39,40.0688697349075,-88.2096648825173,15.091864,,,721.50143122453,15.419948,0,0.60482613484,1.21993770308,25,10,21.3945,721.50143122453,15.091864,0.447388,0.61952757888,0,0,-5.144962,181.5, -0.2, 2.5,0,0,1024,1024,1024,1024,0,0,0,0,0,0,0,50,,,,,,,7.716,85.1,721.50143122453,15.091864,6,P-GPS,
5300,2023-10-10 22:36:39,40.0688696829233,-88.2096648036925,15.748032,,,722.15759922453,15.748032,0,0.61534778872,1.24899282212,25,10,21.3945,722.15759922453,15.748032,0.447388,0.61952757888,0,0,-4.250186,181.5, -0.4, 3.1,0,0,1024,1024,1024,1024,0,0,0,0,0,0,0,50,,,,,,,7.716,85.1,722.15759922453,15.748032,6,P-GPS,
5400,2023-10-10 22:36:39,40.0688696332538,-88.2096647227543,16.076116,,,722.48568322453,16.4042,0,0.62792324844,1.27795935848,25,10,21.3945,722.48568322453,16.076116,0.447388,0.62792324844,0,0,-3.579104,181.4, -0.5, 3.4,0,0,1024,1024,1024,1024,0,0,0,0,0,0,0,50,,,,,,,7.716,85.1,722.48568322453,16.076116,6,P-GPS,
5500,2023-10-10 22:36:39,40.0688695716787,-88.2096646540763,16.4042,,,722.81376722453,16.732284,0,0.6367618314,1.307496761,25,10,21.3945,722.81376722453,16.4042,0.447388,0.6367618314,0,0,-2.460634,181.3, -0.6, 3.5,0,0,1024,1024,1024,1024,0,0,0,0,0,0,0,50,,,,,,,7.716,85.1,722.81376722453,16.4042,6,P-GPS,
5600,2023-10-10 22:36:39,40.0688694811879,-88.2096645041299,16.732284,,,723.14185122453,17.060368,0,0.66498689792,1.36081369184,25,10,21.3945,723.14185122453,16.732284,0.447388,0.66498689792,0,0,-1.789552,181.3, -0.4, 3.7,0,0,1024,1024,1024,1024,0,0,0,0,0,0,0,50,,,,,,,7.716,85.1,723.14185122453,16.732284,6,P-GPS,
5700,2023-10-10 22:36:40,40.0688694031366,-88.209664421488,17.060368,,,723.46993522453,17.060368,0,0.67910435244,1.39746395548,25,10,21.3945,723.46993522453,17.060368,0.447388,0.67910435244,0,0,-1.11847,181.3, 0, 3.9,0,0,1024,1024,1024,1024,0,0,0,0,0,0,0,50,,,,,,,7.716,85.1,723.46993522453,17.060368,6,P-GPS,
5800,2023-10-10 22:36:40,40.0688693252145,-88.2096643482351,17.060368,,,723.46993522453,17.060368,0,0.69231957596,1.43248692248,25,10,21.3945,723.46993522453,17.060368,0.447388,0.69231957596,0,0,-0.447388,181.3, 0.3, 4,0,0,1024,1024,1024,1024,0,0,0,0,0,0,0,50,,,,,,,7.716,85.1,723.46993522453,17.060368,6,P-GPS,
5900,2023-10-10 22:36:40,40.0688692142297,-88.2096642721558,17.060368,,,723.46993522453,17.060368,0,0.7058891302,1.4782152704,25,10,21.4265,723.46993522453,17.060368,0.447388,0.7058891302,0,0,0,181.2, 0.4, 3.7,0,0,1024,1024,1024,1024,0,0,0,0,0,0,0,50,,,,,,,4.323,85.1,723.46993522453,17.060368,6,P-GPS,
6000,2023-10-10 22:36:40,40.0688691536377,-88.2096642837202,16.732284,,,723.14185122453,17.060368,0,0.6997047468,1.50055450996,25,10,21.4265,723.46993522453,17.060368,0.447388,0.7058891302,0,0,0,181.2, 0.5, 3.1,0,0,1024,1024,1024,1024,0,0,0,0,0,0,0,50,,,,,,,4.323,85.1,723.14185122453,16.732284,6,P-GPS,
6100,2023-10-10 22:36:40,40.0688691061509,-88.2096642658251,16.732284,,,723.14185122453,17.060368,0,0.70281498312,1.5185860066,25,10,21.4265,723.46993522453,17.060368,0.447388,0.7058891302,0,0,0.223694,181.2, 0.4, 2.5,0,0,1024,1024,1024,1024,0,0,0,0,0,0,0,50,,,,,,,4.323,85.1,723.14185122453,16.732284,6,P-GPS,
6200,2023-10-10 22:36:40,40.0688690688399,-88.209664248819,16.732284,,,723.14185122453,17.060368,0,0.70639109872,1.5330052984,25,10,21.4265,723.46993522453,17.060368,0.447388,0.70639109872,0,0,0.223694,181.2, 0.2, 2.2,0,0,1024,1024,1024,1024,0,0,0,0,0,0,0,50,,,,,,,4.323,85.1,723.14185122453,16.732284,6,P-GPS,
6300,2023-10-10 22:36:40,40.0688690226768,-88.2096641951238,16.4042,,,722.81376722453,17.060368,0,0.72030186032,1.55555123088,25,10,21.4265,723.46993522453,17.060368,0.447388,0.72030186032,0,0,0.447388,181.2, 0.3, 2.3,0,0,1024,1024,1024,1024,0,0,0,0,0,0,0,50,,,,,,,4.323,85.1,722.81376722453,16.4042,6,P-GPS,
6400,2023-10-10 22:36:40,40.0688690110065,-88.2096641998306,16.4042,,,722.81376722453,16.732284,0,0.71878611224,1.56000989244,25,10,21.4265,723.46993522453,17.060368,0.447388,0.72030186032,0,0,0.447388,181.3, 0.5, 2.5,0,0,1024,1024,1024,1024,0,0,0,0,0,0,0,50,,,,,,,4.323,85.1,722.81376722453,16.4042,6,P-GPS,
6500,2023-10-10 22:36:40,40.0688689935613,-88.2096641803488,16.076116,,,722.48568322453,16.732284,0,0.72396983944,1.56838259612,25,10,21.4265,723.46993522453,17.060368,0.447388,0.72396983944,0,0,0.223694,181.3, 0.5, 2.6,0,0,1024,1024,1024,1024,0,0,0,0,0,0,0,50,,,,,,,4.323,85.1,722.48568322453,16.076116,6,P-GPS,
6600,2023-10-10 22:36:40,40.0688689602462,-88.2096641389358,16.076116,,,722.48568322453,16.732284,0,0.7352034356,1.58515753104,25,10,21.4265,723.46993522453,17.060368,0.447388,0.7352034356,0,0,0.223694,181.3, 0.1, 2.5,0,0,1024,1024,1024,1024,0,0,0,0,0,0,0,50,,,,,,,4.323,85.1,722.48568322453,16.076116,6,P-GPS,
6700,2023-10-10 22:36:41,40.0688689464258,-88.2096641524602,16.076116,,,722.48568322453,16.4042,0,0.73135501028,1.59145674384,25,10,21.4265,723.46993522453,17.060368,0.447388,0.7352034356,0,0,0.223694,181.4, 0.1, 2.6,0,0,1024,1024,1024,1024,0,0,0,0,0,0,0,50,,,,,,,4.323,85.1,722.48568322453,16.076116,6,P-GPS,
6800,2023-10-10 22:36:41,40.0688689404448,-88.2096641647662,15.748032,,,722.15759922453,16.4042,0,0.72789700492,1.59552826628,25,10,21.4265,723.46993522453,17.060368,0.447388,0.7352034356,0,0,0,181.4, 0.2, 3,0,0,1024,1024,1024,1024,0,0,0,0,0,0,0,50,,,,,,,4.323,85.1,722.15759922453,15.748032,6,P-GPS,
6900,2023-10-10 22:36:41,40.068868941719,-88.2096641577543,15.748032,,,722.15759922453,16.4042,0,0.72985894724,1.5975394212,25,10,21.4265,723.46993522453,17.060368,0.447388,0.7352034356,0,0,0,181.4, 0.1, 3.3,0,0,1024,1024,1024,1024,0,0,0,0,0,0,0,50,,,,,,,4.323,85.1,722.15759922453,15.748032,6,P-GPS,
7000,2023-10-10 22:36:41,40.0688688872942,-88.2096641372724,15.748032,,,722.15759922453,16.4042,0,0.73566931488,1.61820215152,25,10,21.4265,723.46993522453,17.060368,0.447388,0.73566931488,0,0,0,181.4, 0, 3.5,0,0,1024,1024,1024,1024,0,0,0,0,0,0,0,50,,,,,,,4.323,85.1,722.15759922453,15.748032,6,P-GPS,
7100,2023-10-10 22:36:41,40.0688688890817,-88.209664166021,15.748032,,,722.15759922453,16.076116,0,0.72763125688,1.62625661372,25,10,21.4265,723.46993522453,17.060368,0.447388,0.73566931488,0,0,0,181.3, -0.1, 3.4,0,0,1024,1024,1024,1024,0,0,0,0,0,0,0,50,,,,,,,4.323,85.1,722.15759922453,15.748032,6,P-GPS,
7200,2023-10-10 22:36:41,40.0688688963866,-88.2096642066142,15.748032,,,722.15759922453,16.076116,0,0.7162565846,1.63790031488,25,10,21.4265,723.46993522453,17.060368,0.447388,0.73566931488,0,0,0,181.2, -0.2, 3.4,0,0,1024,1024,1024,1024,0,0,0,0,0,0,0,50,,,,,,,4.323,85.1,722.15759922453,15.748032,6,P-GPS,
7300,2023-10-10 22:36:41,40.0688688404435,-88.2096642674746,15.419948,,,721.82951522453,16.076116,0,0.69985566544,1.66445871468,25,10,21.4265,723.46993522453,17.060368,0.447388,0.73566931488,0,0,0,181.2, -0.1, 3.3,0,0,1024,1024,1024,1024,0,0,0,0,0,0,0,50,,,,,,,4.323,85.1,721.82951522453,15.419948,6,P-GPS,
7400,2023-10-10 22:36:41,40.0688688287452,-88.2096643214259,15.419948,,,721.82951522453,16.076116,0,0.6850065836,1.68011488316,25,10,21.4265,723.46993522453,17.060368,0.447388,0.73566931488,0,0,0,181.4, 0.1, 3,0,0,1024,1024,1024,1024,0,0,0,0,0,0,0,50,,,,,,,4.323,85.1,721.82951522453,15.419948,6,P-GPS,
7500,2023-10-10 22:36:41,40.0688688150403,-88.2096643643919,15.419948,,,721.82951522453,16.076116,0,0.67330382732,1.69311357124,25,10,21.4265,723.46993522453,17.060368,0.447388,0.73566931488,0,0,0,181.5, 0.4, 2.8,0,0,1024,1024,1024,1024,0,0,0,0,0,0,0,50,,,,,,,4.323,85.1,721.82951522453,15.419948,6,P-GPS,
7600,2023-10-10 22:36:42,40.0688688111737,-88.2096644014461,15.419948,,,721.82951522453,15.748032,0,0.66306104484,1.70355320412,25,10,21.4265,723.46993522453,17.060368,0.447388,0.73566931488,0,0,0,181.6, 0.1, 3.2,0,0,1024,1024,1024,1024,0,0,0,0,0,0,0,50,,,,,,,4.323,85.1,721.82951522453,15.419948,6,P-GPS,
7700,2023-10-10 22:36:42,40.068868769881,-88.20966437827,15.419948,,,721.82951522453,15.748032,0,0.67061353852,1.71995084244,25,10,21.4265,723.46993522453,17.060368,0.447388,0.73566931488,0,0,0,181.6, 0.1, 3.6,0,0,1024,1024,1024,1024,0,0,0,0,0,0,0,50,,,,,,,4.323,85.1,721.82951522453,15.419948,6,P-GPS,
7800,2023-10-10 22:36:42,40.0688687828913,-88.2096644027473,15.419948,,,721.82951522453,15.748032,0,0.6634186564,1.72827105268,25,10,21.3345,723.46993522453,17.060368,0.447388,0.73566931488,0,0,0,181.7, 0.1, 3.6,0,0,1024,1024,1024,1024,0,0,0,0,0,0,0,50,,,,,,,7.882,85.1,721.82951522453,15.419948,6,P-GPS,
7900,2023-10-10 22:36:42,40.0688688015527,-88.2096644311833,15.091864,,,721.50143122453,15.748032,0,0.6550033018,1.7387303706,25,10,21.3345,723.46993522453,17.060368,0.447388,0.73566931488,0,0,0,181.7, 0, 3.4,0,0,1024,1024,1024,1024,0,0,0,0,0,0,0,50,,,,,,,7.882,85.1,721.50143122453,15.091864,6,P-GPS,
8000,2023-10-10 22:36:42,40.0688688065013,-88.2096644445762,15.091864,,,721.50143122453,15.748032,0,0.65115159564,1.74288391404,25,10,21.3345,723.46993522453,17.060368,0.447388,0.73566931488,0,0,0,181.7, -0.3, 2.9,0,0,1024,1024,1024,1024,0,0,0,0,0,0,0,50,,,,,,,7.882,85.1,721.50143122453,15.091864,6,P-GPS,
8100,2023-10-10 22:36:42,40.0688688426017,-88.2096644737245,15.091864,,,721.50143122453,15.748032,0,0.6422900468,1.758366198,25,10,21.3345,723.46993522453,17.060368,0.447388,0.73566931488,0,0,0,181.6, -0.6, 2.5,0,0,1024,1024,1024,1024,0,0,0,0,0,0,0,50,,,,,,,7.882,85.1,721.50143122453,15.091864,6,P-GPS,
8200,2023-10-10 22:36:42,40.0688688846849,-88.2096645002895,15.091864,,,721.50143122453,15.748032,0,0.634350414,1.77541672348,25,10,21.3345,723.46993522453,17.060368,0.447388,0.73566931488,0,0,0,181.6, -0.7, 2.2,0,0,1024,1024,1024,1024,0,0,0,0,0,0,0,50,,,,,,,7.882,85.1,721.50143122453,15.091864,6,P-GPS,
8300,2023-10-10 22:36:42,40.0688689155391,-88.2096645149722,15.091864,,,721.50143122453,15.748032,0,0.63009844536,1.78739835116,25,10,21.3345,723.46993522453,17.060368,0.447388,0.73566931488,0,0,0,181.5, -0.9, 2.5,0,0,1024,1024,1024,1024,0,0,0,0,0,0,0,50,,,,,,,7.882,85.1,721.50143122453,15.091864,6,P-GPS,
8400,2023-10-10 22:36:42,40.0688689147063,-88.2096644601929,15.091864,,,721.50143122453,15.748032,0,0.64539372144,1.80269690808,25,10,21.3345,723.46993522453,17.060368,0.447388,0.73566931488,0,0,0,181.3, -0.7, 3,0,0,1024,1024,1024,1024,0,0,0,0,0,0,0,50,,,,,,,7.882,85.1,721.50143122453,15.091864,6,P-GPS,
8500,2023-10-10 22:36:42,40.0688689239648,-88.2096644848475,15.091864,,,721.50143122453,15.748032,0,0.6385006766,1.81036423116,25,10,21.3345,723.46993522453,17.060368,0.447388,0.73566931488,0,0,0,181.2, -0.4, 3.2,0,0,1024,1024,1024,1024,0,0,0,0,0,0,0,50,,,,,,,7.882,85.1,721.50143122453,15.091864,6,P-GPS,
8600,2023-10-10 22:36:43,40.0688689359171,-88.2096645396226,15.091864,,,721.50143122453,15.748032,0,0.62322508556,1.82626646264,25,10,21.3345,723.46993522453,17.060368,0.447388,0.73566931488,0,0,0,181.2, 0, 2.8,0,0,1024,1024,1024,1024,0,0,0,0,0,0,0,50,,,,,,,7.882,85.1,721.50143122453,15.091864,6,P-GPS,
8700,2023-10-10 22:36:43,40.0688688920128,-88.2096645748139,15.091864,,,721.50143122453,15.748032,0,0.61349083328,1.84505911416,25,10,21.3345,723.46993522453,17.060368,0.447388,0.73566931488,0,0,0,181.1, 0, 2,0,0,1024,1024,1024,1024,0,0,0,0,0,0,0,50,,,,,,,7.882,85.1,721.50143122453,15.091864,6,P-GPS,
8800,2023-10-10 22:36:43,40.0688689034092,-88.209664646179,15.091864,,,721.50143122453,15.748032,0,0.593503956,1.86541344552,25,10,21.329,723.46993522453,17.060368,0.447388,0.73566931488,0,0,0,180.9, -0.1, 1.4,0,0,1024,1024,1024,1024,0,0,0,0,0,0,0,50,,,,,,,7.598,85.1,721.50143122453,15.091864,6,P-GPS,
8900,2023-10-10 22:36:43,40.0688689044192,-88.2096646890504,14.76378,,,721.17334722453,15.748032,0,0.58152889,1.87738851152,25,10,21.329,723.46993522453,17.060368,0.447388,0.73566931488,0,0,0,180.8, -0.5, 1.6,0,0,1024,1024,1024,1024,0,0,0,0,0,0,0,50,,,,,,,7.598,85.1,721.17334722453,14.76378,6,P-GPS,
9000,2023-10-10 22:36:43,40.0688688971002,-88.209664721763,14.76378,,,721.17334722453,15.748032,0,0.57243440152,1.88690622836,25,10,21.329,723.46993522453,17.060368,0.447388,0.73566931488,0,0,0,180.7, -0.4, 2.3,0,0,1024,1024,1024,1024,0,0,0,0,0,0,0,50,,,,,,,7.598,85.1,721.17334722453,14.76378,6,P-GPS,
9100,2023-10-10 22:36:43,40.0688688341216,-88.2096646755456,14.76378,,,721.17334722453,15.748032,0,0.58616799776,1.91325793524,25,10,21.329,723.46993522453,17.060368,0.447388,0.73566931488,0,0,0,180.7, -0.1, 2.6,0,0,1024,1024,1024,1024,0,0,0,0,0,0,0,50,,,,,,,7.598,85.1,721.17334722453,14.76378,6,P-GPS,
9200,2023-10-10 22:36:43,40.0688688158904,-88.2096647022911,14.76378,,,721.17334722453,15.419948,0,0.57912731512,1.92325793556,25,10,21.329,723.46993522453,17.060368,0.447388,0.73566931488,0,0,0,180.7, 0.3, 2.7,0,0,1024,1024,1024,1024,0,0,0,0,0,0,0,50,,,,,,,7.598,85.1,721.17334722453,14.76378,6,P-GPS,
9300,2023-10-10 22:36:43,40.0688688004673,-88.2096647406027,14.76378,,,721.17334722453,15.419948,0,0.56887140928,1.93534455012,25,10,21.329,723.46993522453,17.060368,0.447388,0.73566931488,0,0,0,180.7, 0.3, 2.4,0,0,1024,1024,1024,1024,0,0,0,0,0,0,0,50,,,,,,,7.598,85.1,721.17334722453,14.76378,6,P-GPS,
9400,2023-10-10 22:36:43,40.0688687728954,-88.2096647626182,14.76378,,,721.17334722453,15.419948,0,0.56363846948,1.94713588908,25,10,21.329,723.46993522453,17.060368,0.447388,0.73566931488,0,0,-0.223694,180.8, 0, 2.3,0,0,1024,1024,1024,1024,0,0,0,0,0,0,0,50,,,,,,,7.598,85.1,721.17334722453,14.76378,6,P-GPS,
9500,2023-10-10 22:36:43,40.0688687502808,-88.2096648178946,14.76378,,,721.17334722453,15.419948,0,0.54916996508,1.96463588964,25,10,21.329,723.46993522453,17.060368,0.447388,0.73566931488,0,0,-0.223694,180.8, 0, 2.3,0,0,1024,1024,1024,1024,0,0,0,0,0,0,0,50,,,,,,,7.598,85.1,721.17334722453,14.76378,6,P-GPS,
9600,2023-10-10 22:36:44,40.0688687170909,-88.209664891077,14.76378,,,721.17334722453,15.419948,0,0.5304626154,1.9883858904,25,10,21.329,723.46993522453,17.060368,0.447388,0.73566931488,0,0,-0.223694,181, 0.7, 2.3,0,0,1024,1024,1024,1024,0,0,0,0,0,0,0,50,,,,,,,7.598,85.1,721.17334722453,14.76378,6,P-GPS,
9700,2023-10-10 22:36:44,40.0688686832424,-88.2096649912263,14.76378,,,721.17334722453,15.419948,0,0.50479988492,2.01895675752,25,10,21.329,723.46993522453,17.060368,0.447388,0.73566931488,0,0,-0.223694,181.2, 0.9, 1.5,0,0,1024,1024,1024,1024,0,0,0,0,0,0,0,50,,,,,,,7.598,85.1,721.17334722453,14.76378,6,P-GPS,
9800,2023-10-10 22:36:44,40.0688686210638,-88.2096650580021,14.76378,,,721.17334722453,15.419948,0,0.49104988448,2.04832027552,25,10,21.324,723.46993522453,17.060368,0.447388,0.73566931488,0,0,-0.223694,181.4, 0.9, 1.2,0,0,1024,1024,1024,1024,0,0,0,0,0,0,0,49,,,,,,,7.507,85.1,721.17334722453,14.76378,6,P-GPS,
9900,2023-10-10 22:36:44,40.0688685808221,-88.2096651550533,14.76378,,,721.17334722453,15.419948,0,0.46839240344,2.07914048648,25,10,21.324,723.46993522453,17.060368,0.447388,0.73566931488,0,0,-0.223694,181.7, 1, 1.3,0,0,1024,1024,1024,1024,0,0,0,0,0,0,0,49,,,,,,,7.507,85.1,721.17334722453,14.76378,6,P-GPS,
10000,2023-10-10 22:36:44,40.0688685513258,-88.2096652545518,14.76378,,,721.17334722453,15.419948,0,0.4448490956,2.10893051368,25,10,21.324,723.46993522453,17.060368,0.447388,0.73566931488,0,0,-0.223694,181.8, 1.2, 1.5,0,0,1024,1024,1024,1024,0,0,0,0,0,0,0,49,,,,,,,7.507,85.1,721.17334722453,14.76378,6,P-GPS,
10100,2023-10-10 22:36:44,40.0688684415004,-88.2096653843382,14.76378,,,721.17334722453,15.419948,0,0.42543964616,2.16295610596,25,10,21.324,723.46993522453,17.060368,0.447388,0.73566931488,0,0,-0.223694,181.9, 1.3, 1.7,0,0,1024,1024,1024,1024,0,0,0,0,0,0,0,50,,,,,,,7.507,85.1,721.17334722453,14.76378,6,P-GPS,
10200,2023-10-10 22:36:44,40.0688684334335,-88.2096655191851,14.76378,,,721.17334722453,15.091864,0,0.39280184984,2.2007218552,25,10,21.324,723.46993522453,17.060368,0.447388,0.73566931488,0,0,-0.223694,181.9, 1.1, 1.6,0,0,1024,1024,1024,1024,0,0,0,0,0,0,0,50,,,,,,,7.507,85.1,721.17334722453,14.76378,6,P-GPS,
10300,2023-10-10 22:36:44,40.0688684530117,-88.2096656247971,14.76378,,,721.17334722453,15.091864,0,0.36336287252,2.23106306352,25,10,21.324,723.46993522453,17.060368,0.447388,0.73566931488,0,0,-0.223694,181.9, 0.5, 1.1,0,0,1024,1024,1024,1024,0,0,0,0,0,0,0,50,,,,,,,7.507,85.1,721.17334722453,14.76378,6,P-GPS,
10400,2023-10-10 22:36:44,40.0688684954143,-88.2096657313852,14.76378,,,721.17334722453,15.091864,0,0.32982612604,2.26460309084,25,10,21.324,723.46993522453,17.060368,0.447388,0.73566931488,0,0,-0.223694,182, -0.8, 1.1,0,0,1024,1024,1024,1024,0,0,0,0,0,0,0,50,,,,,,,7.507,85.1,721.17334722453,14.76378,6,P-GPS,
10500,2023-10-10 22:36:44,40.0688684505884,-88.2096657940531,14.76378,,,721.17334722453,15.091864,0,0.32296424918,2.28855650368,25,10,21.324,723.46993522453,17.060368,0.447388,0.73566931488,0,0,-0.223694,181.9, -1.3, 1.1,0,0,1024,1024,1024,1024,0,0,0,0,0,0,0,50,,,,,,,7.507,85.1,721.17334722453,14.76378,6,P-GPS,
10600,2023-10-10 22:36:45,40.0688684531452,-88.2096658969623,14.76378,,,721.17334722453,15.091864,0,0.298537083044,2.31730322376,25,10,21.324,723.46993522453,17.060368,0.447388,0.73566931488,0,0,-0.223694,181.9, -0.7, 0.8,0,0,1024,1024,1024,1024,0,0,0,0,0,0,0,50,,,,,,,7.507,85.1,721.17334722453,14.76378,6,P-GPS,
10700,2023-10-10 22:36:45,40.068868433213,-88.2096659702151,14.76378,,,721.17334722453,15.091864,0,0.286535114156,2.3390092612,25,10,21.324,723.46993522453,17.060368,0.447388,0.73566931488,0,0,-0.223694,181.8, -0.1, 0.9,0,0,1024,1024,1024,1024,0,0,0,0,0,0,0,50,,,,,,,7.507,85.1,721.17334722453,14.76378,6,P-GPS,
10800,2023-10-10 22:36:45,40.0688683797135,-88.2096660107787,14.76378,,,721.17334722453,15.091864,0,0.290739182532,2.36157815956,25,10,21.3245,723.46993522453,17.060368,0.447388,0.73566931488,0,0,-0.223694,181.7, 0.2, 0.8,0,0,1024,1024,1024,1024,0,0,0,0,0,0,0,49,,,,,,,7.209,85.1,721.17334722453,14.76378,6,P-GPS,
10900,2023-10-10 22:36:45,40.0688683582483,-88.2096660591526,14.76378,,,721.17334722453,15.091864,0,0.2866059803,2.37719167712,25,10,21.3245,723.46993522453,17.060368,0.447388,0.73566931488,0,0,-0.223694,181.7, 0.6, 0.9,0,0,1024,1024,1024,1024,0,0,0,0,0,0,0,49,,,,,,,7.209,85.1,721.17334722453,14.76378,6,P-GPS,
11000,2023-10-10 22:36:45,40.0688683396662,-88.2096661068288,14.76378,,,721.17334722453,15.091864,0,0.282607948676,2.39212934164,25,10,21.3245,723.46993522453,17.060368,0.447388,0.73566931488,0,0,-0.223694,181.6, 0.6, 0.8,0,0,1024,1024,1024,986,0,0,0,-6,0,0,0,49,,,,,,,7.209,85.1,721.17334722453,14.76378,6,P-GPS,
11100,2023-10-10 22:36:45,40.0688683374179,-88.2096661295391,14.76378,,,721.17334722453,15.091864,0,0.279112213656,2.3985236988,25,10,21.3245,723.46993522453,17.060368,0.447388,0.73566931488,0,0,-0.223694,181.6, 0.7, 0.7,0,0,1024,1024,1024,986,0,0,0,-6,0,0,0,50,,,,,,,7.209,85.1,721.17334722453,14.76378,6,P-GPS,
11200,2023-10-10 22:36:45,40.068868296672,-88.209666062128,14.76378,,,721.17334722453,15.091864,0,0.302635180288,2.4225066392,25,10,21.3245,723.46993522453,17.060368,0.447388,0.73566931488,0,0,-0.223694,181.6, 0.7, 1.4,0,0,1024,1024,1024,1024,0,0,0,0,0,0,0,50,,,,,,,7.209,85.1,721.17334722453,14.76378,6,P-GPS,
11300,2023-10-10 22:36:45,40.068868312394,-88.2096660511011,14.76378,,,721.17334722453,15.091864,0,0.300375993864,2.4290191066,25,10,21.3245,723.46993522453,17.060368,0.447388,0.73566931488,0,0,-0.223694,181.5, 0.5, 2.2,0,0,1024,1024,1024,1024,0,0,0,0,0,0,0,50,,,,,,,7.209,85.1,721.17334722453,14.76378,6,P-GPS,
11400,2023-10-10 22:36:45,40.0688683406744,-88.2096660568504,14.76378,,,721.17334722453,15.091864,0,0.291695219308,2.43945873948,25,10,21.3245,723.46993522453,17.060368,0.447388,0.73566931488,0,0,-0.223694,181.3, 0.4, 2.1,0,0,1024,1024,1024,1024,0,0,0,0,0,0,0,50,,,,,,,7.209,85.1,721.17334722453,14.76378,6,P-GPS,
11500,2023-10-10 22:36:45,40.0688683385406,-88.2096660197159,14.76378,,,721.17334722453,15.091864,0,0.299439642128,2.44985572144,25,10,21.3245,723.46993522453,17.060368,0.447388,0.73566931488,0,0,-0.223694,181.3, 0.3, 1.5,0,0,1024,1569,1024,1024,0,83,0,0,0,0,0,50,,,,,,,7.209,85.1,721.17334722453,14.76378,6,P-GPS,
11600,2023-10-10 22:36:45,40.0688683792681,-88.2096660373616,14.76378,,,721.17334722453,15.091864,0,0.285473762416,2.46551188992,25,10,21.3245,723.46993522453,17.060368,0.447388,0.73566931488,0,0,-0.223694,181.2, 0.1, 2.3,0,0,1024,1684,1024,1024,0,100,0,0,0,0,0,50,,,,,,,7.209,85.1,721.17334722453,14.76378,6,P-GPS,
11700,2023-10-10 22:36:46,40.0688684066748,-88.2096660235342,14.76378,,,721.17334722453,15.091864,0,0.28146162318,2.4762303942,25,10,21.3245,723.46993522453,17.060368,0.447388,0.73566931488,0,0,-0.223694,181.1, -0.4, 11.5,0,0,1024,1684,1024,1024,0,100,0,0,0,0,0,50,,,,,,,7.209,85.1,721.17334722453,14.76378,6,P-GPS,
11800,2023-10-10 22:36:46,40.0688684394209,-88.2096661842872,14.76378,,,721.17334722453,15.091864,0.447388,0.241079075956,2.52267724608,25,10,21.3095,723.46993522453,17.060368,0.447388,0.73566931488,0,-0.447388,-0.223694,181.1, 0, 20.4,0,0,1024,1684,1024,1024,0,100,0,0,0,0,0,49,,,,,,,7.373,85.1,721.17334722453,14.76378,6,P-GPS,
11900,2023-10-10 22:36:46,40.0688684434739,-88.2096666912014,14.76378,,,721.17334722453,15.091864,1.11847,0.176653220876,2.66421924536,25,10,21.3095,723.46993522453,17.060368,1.11847,0.73566931488,0,-1.11847,0,181.2, 0.1, 23.8,0,0,1024,861,1024,1024,0,-25,0,0,0,0,0,49,,,,,,,7.373,85.1,721.17334722453,14.76378,6,P-GPS,
12000,2023-10-10 22:36:46,40.068868495644,-88.2096677487934,14.76378,,,721.17334722453,15.091864,2.23694,0.314363855204,2.9601214858,25,10,21.3095,723.46993522453,17.060368,2.23694,0.73566931488,0,-2.23694,-0.223694,181.3, -0.2, 24.8,0,0,1024,1009,1024,1024,0,-2,0,0,0,0,0,49,,,,,,,7.373,85.1,721.17334722453,14.76378,6,P-GPS,
12100,2023-10-10 22:36:46,40.0688685699333,-88.2096692894244,14.435696,,,720.84526322453,15.091864,3.131716,0.714730994,3.3911418408,25,10,21.3095,723.46993522453,17.060368,3.131716,0.73566931488,0.223694,-3.131716,-0.223694,181.4, -0.2, 23.9,0,0,1024,1024,1024,1024,0,0,0,0,0,0,0,50,,,,,,,7.373,85.1,720.84526322453,14.435696,6,P-GPS,
12200,2023-10-10 22:36:46,40.0688686213682,-88.2096713096581,14.76378,,,721.17334722453,15.091864,4.026492,1.27183731104,3.9555119376,25,10,21.3095,723.46993522453,17.060368,4.026492,1.27183731104,0.223694,-4.026492,-0.223694,181.7, 0.4, 13.5,0,0,1024,1024,1024,1024,0,0,0,0,0,0,0,50,,,,,,,7.373,85.1,721.17334722453,14.76378,6,P-GPS,
12300,2023-10-10 22:36:46,40.068868702828,-88.209673599698,14.76378,,,721.17334722453,15.091864,4.47388,1.90814638652,4.5956038216,25,10,21.3095,723.46993522453,17.060368,4.47388,1.90814638652,0.223694,-4.47388,-0.447388,181.8, 0, -4,0,0,1024,1024,1024,1024,0,0,0,0,0,0,0,50,,,,,,,7.373,85.1,721.17334722453,14.76378,6,P-GPS,
12400,2023-10-10 22:36:46,40.0688688007507,-88.209675858953,14.76378,,,721.17334722453,15.419948,3.802798,2.53764443816,5.2274279888,25,10,21.3095,723.46993522453,17.060368,4.47388,2.53764443816,0.223694,-3.802798,-0.447388,181.8, -0.8, -15.5,0,0,1024,892,1024,1024,0,-20,0,0,0,0,0,50,,,,,,,7.373,85.1,721.17334722453,14.76378,6,P-GPS,
12500,2023-10-10 22:36:46,40.0688688737776,-88.2096774457013,14.76378,,,721.17334722453,15.419948,3.131716,2.98033802188,5.671260024,25,10,21.3095,723.46993522453,17.060368,4.47388,2.98033802188,0.223694,-3.131716,-0.447388,181.8, -1.5, -16.7,0,0,1024,892,1024,1024,0,-20,0,0,0,0,0,50,,,,,,,7.373,85.1,721.17334722453,14.76378,6,P-GPS,
12600,2023-10-10 22:36:46,40.0688688421088,-88.2096786296704,14.76378,,,721.17334722453,15.419948,2.460634,3.3109909196,6.0020343128,25,10,21.3095,723.46993522453,17.060368,4.47388,3.3109909196,0,-2.460634,-0.223694,181.8, -1.9, -13.1,0,0,1024,1024,1024,1024,0,0,0,0,0,0,0,50,,,,,,,7.373,85.1,721.17334722453,14.76378,6,P-GPS,
12700,2023-10-10 22:36:47,40.0688688948445,-88.2096794556417,14.76378,,,721.17334722453,15.419948,2.013246,3.541502738,6.233431958,25,10,21.3095,723.46993522453,17.060368,4.47388,3.541502738,0,-2.013246,-0.223694,181.6, -1.7, -7.5,0,0,1024,1024,1024,1024,0,0,0,0,0,0,0,50,,,,,,,7.373,85.1,721.17334722453,14.76378,6,P-GPS,
12800,2023-10-10 22:36:47,40.0688689220488,-88.209680165292,14.76378,,,721.17334722453,15.419948,1.789552,3.7395998572,6.4318243528,25,10,21.3095,723.46993522453,17.060368,4.47388,3.7395998572,0,-1.789552,0,181.5, -0.9, -3.8,0,0,1024,1024,1024,364,0,0,0,-100,0,0,0,50,,,,,,,7.373,85.1,721.17334722453,14.76378,6,P-GPS,
12900,2023-10-10 22:36:47,40.0688689597387,-88.2096808493981,14.76378,,,721.17334722453,15.419948,1.789552,3.9306431704,6.6233269836,25,10,21.239,723.46993522453,17.060368,4.47388,3.9306431704,0,-1.565858,0,180.4, 0, -3.6,0,0,1024,1024,1024,364,0,0,0,-100,0,0,0,49,,,,,,,9.69,85.1,721.17334722453,14.76378,6,P-GPS,
13000,2023-10-10 22:36:47,40.0688689881122,-88.209681470148,14.76378,,,721.17334722453,15.419948,1.11847,4.104002756,6.7969818448,25,10,21.239,723.46993522453,17.060368,4.47388,4.104002756,0,-1.11847,0,174.9, 0.8, -3.4,0,0,1024,1024,1024,364,0,0,0,-100,0,0,0,49,,,,,,,9.69,85.1,721.17334722453,14.76378,6,P-GPS,
13100,2023-10-10 22:36:47,40.0688690745741,-88.2096820425724,14.76378,,,721.17334722453,15.419948,0.894776,4.2641405564,6.9598755508,25,10,21.239,723.46993522453,17.060368,4.47388,4.2641405564,0,-0.894776,0,167.8, 0, -2.3,0,0,1024,1024,1024,364,0,0,0,-100,0,0,0,50,,,,,,,9.69,85.1,721.17334722453,14.76378,6,P-GPS,
13200,2023-10-10 22:36:47,40.0688691964967,-88.209682561554,14.76378,,,721.17334722453,15.419948,0.894776,4.4098098524,7.1114503588,25,10,21.239,723.46993522453,17.060368,4.47388,4.4098098524,0,-0.894776,-0.223694,159.8, -1.9, -0.7,0,0,1024,1024,1024,364,0,0,0,-100,0,0,0,50,,,,,,,9.69,85.1,721.17334722453,14.76378,6,P-GPS,
13300,2023-10-10 22:36:47,40.0688692718105,-88.2096831261045,14.435696,,,720.84526322453,15.419948,0.671082,4.568077574,7.2714569256,25,10,21.239,723.46993522453,17.060368,4.47388,4.568077574,0,-0.671082,-0.223694,151.5, -3.1, 0.2,0,0,1024,1024,1024,364,0,0,0,-100,0,0,0,50,,,,,,,9.69,85.1,720.84526322453,14.435696,6,P-GPS,
13400,2023-10-10 22:36:47,40.0688693025451,-88.2096835889301,14.435696,,,720.84526322453,15.419948,0.671082,4.6975723288,7.4011813392,25,10,21.239,723.46993522453,17.060368,4.47388,4.6975723288,0,-0.671082,-0.223694,142.9, -3, 0.4,0,0,1024,1024,1024,364,0,0,0,-100,0,0,0,50,,,,,,,9.69,85.1,720.84526322453,14.435696,6,P-GPS,
13500,2023-10-10 22:36:47,40.0688693170743,-88.2096839670225,14.435696,,,720.84526322453,15.419948,0.447388,4.8032481852,7.5068571956,25,10,21.239,723.46993522453,17.060368,4.47388,4.8032481852,0,-0.447388,-0.223694,134.2, -2.9, -0.6,0,0,1024,1024,1024,364,0,0,0,-100,0,0,0,50,,,,,,,9.69,85.1,720.84526322453,14.435696,6,P-GPS,
13600,2023-10-10 22:36:48,40.0688693295101,-88.209684323115,14.435696,,,720.84526322453,15.091864,0.223694,4.9027560624,7.6063978812,25,10,21.239,723.46993522453,17.060368,4.47388,4.9027560624,0,-0.223694,-0.223694,125.5, -2.2, -1.9,0,0,1024,1024,1024,1111,0,0,0,13,0,0,0,50,,,,,,,9.69,85.1,720.84526322453,14.435696,6,P-GPS,
13700,2023-10-10 22:36:48,40.0688692651582,-88.2096845526885,14.435696,,,720.84526322453,15.091864,0,4.9661746996,7.6746721616,25,10,21.239,723.46993522453,17.060368,4.47388,4.9661746996,0,0,-0.223694,116.6, -1.1, -2.2,0,0,1024,1024,1024,1111,0,0,0,13,0,0,0,50,,,,,,,9.69,85.1,720.84526322453,14.435696,6,P-GPS,
13800,2023-10-10 22:36:48,40.068869198821,-88.2096847218947,14.76378,,,721.17334722453,15.091864,0,5.0128610528,7.7277561528,25,10,21.239,723.46993522453,17.060368,4.47388,5.0128610528,0,0,-0.223694,110.4, 0.6, -1.9,0,0,1024,1024,1024,1024,0,0,0,0,0,0,0,50,,,,,,,9.69,85.1,721.17334722453,14.76378,6,P-GPS,
13900,2023-10-10 22:36:48,40.0688690876091,-88.2096848232222,14.435696,,,720.84526322453,15.419948,0.223694,5.040518534,7.7771984116,25,10,21.239,723.46993522453,17.060368,4.47388,5.040518534,-0.223694,0,-0.447388,108.1, 2.1, -2.5,0,0,1024,1024,1024,1094,0,0,0,11,0,0,0,50,,,,,,,9.69,85.1,720.84526322453,14.435696,6,P-GPS,
14000,2023-10-10 22:36:48,40.0688689191839,-88.2096850330305,14.76378,,,721.17334722453,15.091864,0.223694,5.0987206356,7.8621065508,25,10,21.239,723.46993522453,17.060368,4.47388,5.0987206356,-0.223694,0,-0.223694,106.9, 2.6, -3.2,0,0,1024,1024,1024,1684,0,0,0,100,0,0,0,50,,,,,,,9.69,85.1,721.17334722453,14.76378,6,P-GPS,
14100,2023-10-10 22:36:48,40.0688687936343,-88.209685141286,14.76378,,,721.17334722453,15.419948,0.223694,5.1291668308,7.916995004,25,10,21.239,723.46993522453,17.060368,4.47388,5.1291668308,-0.223694,0,-0.223694,106.4, 2.2, -3.3,0,0,1024,1024,1024,1684,0,0,0,100,0,0,0,50,,,,,,,9.69,85.1,721.17334722453,14.76378,6,P-GPS,
14200,2023-10-10 22:36:48,40.0688686868092,-88.2096852463454,14.76378,,,721.17334722453,15.091864,0,5.1590224748,7.9657810948,25,10,21.239,723.46993522453,17.060368,4.47388,5.1590224748,0,0,-0.447388,108.5, 2.1, -2.6,0,0,1024,1024,1024,1684,0,0,0,100,0,0,0,50,,,,,,,9.69,85.1,721.17334722453,14.76378,6,P-GPS,
14300,2023-10-10 22:36:48,40.068868259988,-88.2096852605581,14.76378,,,721.17334722453,15.419948,0.223694,5.1679463596,8.121555378,25,10,21.239,723.46993522453,17.060368,4.47388,5.1679463596,-0.223694,0,-0.447388,114.5, 2.4, -2.5,0,0,1024,1024,1024,1684,0,0,0,100,0,0,0,50,,,,,,,9.69,85.1,721.17334722453,14.76378,6,P-GPS,
14400,2023-10-10 22:36:48,40.0688680471459,-88.209685304825,14.76378,,,721.17334722453,15.419948,0.223694,5.1844817932,8.2001643044,25,10,21.239,723.46993522453,17.060368,4.47388,5.1844817932,-0.223694,0,-0.223694,121.9, 2.8, -2.6,0,0,1024,1024,1024,1684,0,0,0,100,0,0,0,50,,,,,,,9.69,85.1,721.17334722453,14.76378,6,P-GPS,
14500,2023-10-10 22:36:48,40.0688678966982,-88.2096852930149,14.76378,,,721.17334722453,15.091864,0,5.184875494,8.2551511828,25,10,21.239,723.46993522453,17.060368,4.47388,5.184875494,0,0,-0.223694,129.9, 3, -2,0,0,1024,1024,1024,1684,0,0,0,100,0,0,0,50,,,,,,,9.69,85.1,721.17334722453,14.76378,6,P-GPS,
14600,2023-10-10 22:36:49,40.0688677779738,-88.2096852891724,14.76378,,,721.17334722453,15.091864,0,5.1871064652,8.2984910792,25,10,21.239,723.46993522453,17.060368,4.47388,5.1871064652,0,0,-0.223694,138.1, 2.7, -1.2,0,0,1024,1024,1024,1684,0,0,0,100,0,0,0,50,,,,,,,9.69,85.1,721.17334722453,14.76378,6,P-GPS,
14700,2023-10-10 22:36:49,40.0688674620322,-88.2096849960876,14.76378,,,721.17334722453,15.091864,0,5.1162731296,8.4398624748,25,10,21.239,723.46993522453,17.060368,4.47388,5.1871064652,0,0,-0.223694,146.7, 1.8, -0.4,0,0,1024,1024,1024,1684,0,0,0,100,0,0,0,50,,,,,,,9.69,85.1,721.17334722453,14.76378,6,P-GPS,
14800,2023-10-10 22:36:49,40.0688673380599,-88.2096849028718,14.76378,,,721.17334722453,15.091864,0,5.0953413704,8.4920278308,25,10,21.2905,723.46993522453,17.060368,4.47388,5.1871064652,0,0,-0.223694,155.3, 1.3, 0.4,0,0,1024,1024,1024,1684,0,0,0,100,0,0,0,49,,,,,,,8.614,85.1,721.17334722453,14.76378,6,P-GPS,
14900,2023-10-10 22:36:49,40.0688672515627,-88.2096847847947,14.76378,,,721.17334722453,15.091864,0,5.066273128,8.5376971236,25,10,21.2905,723.46993522453,17.060368,4.47388,5.1871064652,0,0,-0.223694,164.1, 1.4, 1,0,0,1024,1024,1024,1684,0,0,0,100,0,0,0,49,,,,,,,8.614,85.1,721.17334722453,14.76378,6,P-GPS,
15000,2023-10-10 22:36:49,40.0688671315313,-88.2096845405007,14.76378,,,721.17334722453,15.091864,0,5.00410121,8.6187338716,25,10,21.2905,723.46993522453,17.060368,4.47388,5.1871064652,0,0,-0.223694,172.9, 1.6, 1.5,0,0,1024,1024,1070,1684,0,0,7,100,0,0,0,49,,,,,,,8.614,85.1,721.17334722453,14.76378,6,P-GPS,
15100,2023-10-10 22:36:49,40.068867127099,-88.2096844403443,14.76378,,,721.17334722453,15.091864,0,4.9766077708,8.6467522452,25,10,21.2905,723.46993522453,17.060368,4.47388,5.1871064652,0,0,0,182, 1.5, 1.9,0,0,1024,1024,1063,1684,0,0,6,100,0,0,0,49,,,,,,,8.614,85.1,721.17334722453,14.76378,6,P-GPS,
15200,2023-10-10 22:36:49,40.0688671549545,-88.2096843553117,14.76378,,,721.17334722453,15.091864,0,4.9517390036,8.672572456,25,10,21.2905,723.46993522453,17.060368,4.47388,5.1871064652,0,0,-0.223694,190.8, 0.9, 2,0,0,1024,1024,1046,1684,0,0,3,100,0,0,0,49,,,,,,,8.614,85.1,721.17334722453,14.76378,6,P-GPS,
15300,2023-10-10 22:36:49,40.0688672273729,-88.209684278206,14.435696,,,720.84526322453,15.091864,0.223694,4.92700147,8.7066603836,25,10,21.2905,723.46993522453,17.060368,4.47388,5.1871064652,0.223694,0,0,199.8, 0, 2.1,0,0,1024,1024,1046,1684,0,0,3,100,0,0,0,49,,,,,,,8.614,85.1,720.84526322453,14.435696,6,P-GPS,
15400,2023-10-10 22:36:49,40.0688673591462,-88.2096840413297,14.435696,,,720.84526322453,15.091864,0.223694,4.8555119664,8.7884189164,25,10,21.2905,723.46993522453,17.060368,4.47388,5.1871064652,0.223694,0,0,208.6, -0.7, 2.2,0,0,1024,1024,1038,1684,0,0,2,100,0,0,0,49,,,,,,,8.614,85.1,720.84526322453,14.435696,6,P-GPS,
15500,2023-10-10 22:36:49,40.0688674796173,-88.2096839476493,14.435696,,,720.84526322453,15.091864,0.223694,4.8245408368,8.839567212,25,10,21.2905,723.46993522453,17.060368,4.47388,5.1871064652,0.223694,0,0,217.7, -1, 2.5,0,0,1024,1024,1053,1684,0,0,4,100,0,0,0,49,,,,,,,8.614,85.1,720.84526322453,14.435696,6,P-GPS,
15600,2023-10-10 22:36:49,40.0688676297375,-88.209683861097,14.435696,,,720.84526322453,15.091864,0.223694,4.7948164264,8.899442542,25,10,21.2905,723.46993522453,17.060368,4.47388,5.1871064652,0.223694,0,0,226.6, -1.1, 2.4,0,0,1024,1024,1053,1684,0,0,4,100,0,0,0,49,,,,,,,8.614,85.1,720.84526322453,14.435696,6,P-GPS,
15700,2023-10-10 22:36:50,40.0688679019555,-88.2096835843336,14.435696,,,720.84526322453,15.091864,0.223694,4.7090224604,9.025262756,25,10,21.2905,723.46993522453,17.060368,4.47388,5.1871064652,0.223694,0,0,235.6, -1.3, 1.3,0,0,1024,1024,1024,1024,0,0,0,0,0,0,0,49,,,,,,,8.614,85.1,720.84526322453,14.435696,6,P-GPS,
15800,2023-10-10 22:36:50,40.0688681202217,-88.209683432413,14.435696,,,720.84526322453,14.76378,0.223694,4.6610565796,9.1155186644,25,10,21.2885,723.46993522453,17.060368,4.47388,5.1871064652,0.223694,0,0,244.5, -1.9, 0.1,0,0,1024,1024,1024,1024,0,0,0,0,0,0,0,49,,,,,,,7.461,84.92,720.84526322453,14.435696,6,P-GPS,
15900,2023-10-10 22:36:50,40.0688682945781,-88.2096832456694,14.107612,,,720.51717922453,14.76378,0.3131716,4.6054135332,9.1977693232,25,10,21.2885,723.46993522453,17.060368,4.47388,5.1871064652,0.223694,0.223694,0,249.8, -2.7, -0.3,0,0,1024,1024,1024,1024,0,0,0,0,0,0,0,49,,,,,,,7.461,84.92,720.51717922453,14.107612,6,P-GPS,
16000,2023-10-10 22:36:50,40.0688684341732,-88.2096830196615,14.107612,,,720.51717922453,14.76378,0.3131716,4.5400920088,9.2788388796,25,10,21.2885,723.46993522453,17.060368,4.47388,5.1871064652,0.223694,0.223694,0,251.8, -3.6, 1.1,0,0,1024,1024,1024,1319,0,0,0,45,0,0,0,49,,,,,,,7.461,84.92,720.51717922453,14.107612,6,P-GPS,
16100,2023-10-10 22:36:50,40.0688686939975,-88.2096827144867,14.107612,,,720.51717922453,14.76378,0.3131716,4.4521654968,9.4062995136,25,10,21.2885,723.46993522453,17.060368,4.47388,5.1871064652,0.223694,0.223694,0,252.8, -4.5, 2.5,0,0,1024,1024,1024,1684,0,0,0,100,0,0,0,49,,,,,,,7.461,84.92,720.51717922453,14.107612,6,P-GPS,
16200,2023-10-10 22:36:50,40.0688689134597,-88.2096825569324,14.107612,,,720.51717922453,14.76378,0.3131716,4.4073820308,9.4976709076,25,10,21.2885,723.46993522453,17.060368,4.47388,5.1871064652,0.223694,0.223694,0,254, -4.5, 1.8,0,0,1024,1024,1024,1684,0,0,0,100,0,0,0,49,,,,,,,7.461,84.92,720.51717922453,14.107612,6,P-GPS,
16300,2023-10-10 22:36:50,40.068869115638,-88.2096824394793,14.107612,,,720.51717922453,14.76378,0.447388,4.375164182,9.57841238,25,10,21.2885,723.46993522453,17.060368,4.47388,5.1871064652,0.447388,0,0,259.2, -4.1, -0.9,0,0,1024,1024,1024,1684,0,0,0,100,0,0,0,49,,,,,,,7.461,84.92,720.51717922453,14.107612,6,P-GPS,
16400,2023-10-10 22:36:50,40.0688693249986,-88.2096822794987,14.107612,,,720.51717922453,14.435696,0.223694,4.3323820284,9.6668966348,25,10,21.2885,723.46993522453,17.060368,4.47388,5.1871064652,0.223694,0,0,266.7, -3.2, -4,0,0,1024,1024,1024,1024,0,0,0,0,0,0,0,49,,,,,,,7.461,84.92,720.51717922453,14.107612,6,P-GPS,
16500,2023-10-10 22:36:50,40.0688693745168,-88.2096821485172,13.779528,,,720.18909522453,14.435696,0.223694,4.2964896388,9.707677476,25,10,21.2885,723.46993522453,17.060368,4.47388,5.1871064652,0,0,0,271.9, -2.6, -4.3,0,0,1024,1024,1024,1024,0,0,0,0,0,0,0,49,,,,,,,7.461,84.92,720.18909522453,13.779528,6,P-GPS,
16600,2023-10-10 22:36:51,40.0688693366656,-88.2096819969611,13.779528,,,720.18909522453,14.435696,0,4.2537074852,9.7521984748,25,10,21.2885,723.46993522453,17.060368,4.47388,5.1871064652,0,0,0,273.5, -3.1, -1.5,0,0,1024,1024,1024,1024,0,0,0,0,0,0,0,49,,,,,,,7.461,84.92,720.18909522453,13.779528,6,P-GPS,
16700,2023-10-10 22:36:51,40.0688693046647,-88.2096819064159,13.779528,,,720.18909522453,14.435696,0,4.2280513164,9.780019998,25,10,21.2885,723.46993522453,17.060368,4.47388,5.1871064652,0,0,0,274.2, -4.3, 1.4,0,0,1024,1024,1024,1024,0,0,0,0,0,0,0,49,,,,,,,7.461,84.92,720.18909522453,13.779528,6,P-GPS,
16800,2023-10-10 22:36:51,40.0688692065033,-88.2096817815437,13.779528,,,720.18909522453,14.435696,0,4.1921589268,9.8300199996,25,10,21.303,723.46993522453,17.060368,4.47388,5.1871064652,0,0,0,274.7, -4.9, 1.9,0,0,1024,1024,1024,1024,0,0,0,0,0,0,0,49,,,,,,,8.3,84.92,720.18909522453,13.779528,6,P-GPS,
16900,2023-10-10 22:36:51,40.068869273667,-88.2096817645639,13.451444,,,719.86101122453,14.435696,0,4.1880906852,9.854987192,25,10,21.303,723.46993522453,17.060368,4.47388,5.1871064652,0,0,0,275, -4.5, 0.4,0,0,1024,1024,1024,1024,0,0,0,0,0,0,0,49,,,,,,,8.3,84.92,719.86101122453,13.451444,6,P-GPS,
17000,2023-10-10 22:36:51,40.0688693541019,-88.2096817753518,13.451444,,,719.86101122453,14.107612,0,4.19209331,9.8844819436,25,10,21.303,723.46993522453,17.060368,4.47388,5.1871064652,0,0,0,275.3, -3.8, -1.5,0,0,1024,1024,1024,1024,0,0,0,0,0,0,0,49,,,,,,,8.3,84.92,719.86101122453,13.451444,6,P-GPS,
17100,2023-10-10 22:36:51,40.0688692368355,-88.2096818122094,13.451444,,,719.86101122453,14.107612,0,4.2010171948,9.928478008,25,10,21.303,723.46993522453,17.060368,4.47388,5.1871064652,0,0,0,275.5, -3.4, -2,0,0,1149,1024,1024,1024,19,0,0,0,0,0,0,49,,,,,,,8.3,84.92,719.86101122453,13.451444,6,P-GPS,
17200,2023-10-10 22:36:51,40.0688692028203,-88.209681782822,13.451444,,,719.86101122453,14.107612,0,4.1924870108,9.9433730216,25,10,21.303,723.46993522453,17.060368,4.47388,5.1871064652,0,0,0,275.4, -3.7, -1.3,0,0,1667,1024,1024,1024,97,0,0,0,0,0,0,49,,,,,,,8.3,84.92,719.86101122453,13.451444,6,P-GPS,
17300,2023-10-10 22:36:51,40.0688691624153,-88.2096818222158,13.451444,,,719.86101122453,14.107612,0,4.2031497408,9.9617457256,25,10,21.303,723.46993522453,17.060368,4.47388,5.1871064652,0,0,0,275.3, -4, -0.5,0,0,1667,1024,1024,1024,97,0,0,0,0,0,0,49,,,,,,,8.3,84.92,719.86101122453,13.451444,6,P-GPS,
17400,2023-10-10 22:36:51,40.0688691323478,-88.2096818585031,13.451444,,,719.86101122453,14.107612,0,4.2130578776,9.9766735476,25,10,21.303,723.46993522453,17.060368,4.47388,5.1871064652,0,0,0,275.2, -8.9, -0.3,0,0,1684,1024,1024,1024,100,0,0,0,0,0,0,49,,,,,,,8.3,84.92,719.86101122453,13.451444,6,P-GPS,
17500,2023-10-10 22:36:51,40.0688690231974,-88.2096820918461,13.12336,,,719.53292722453,14.107612,0.223694,4.2776904256,10.0530515028,25,10,21.303,723.46993522453,17.060368,4.47388,5.1871064652,0,-0.223694,0,275.1, -18.8, -0.7,0,0,1684,1024,1024,1024,100,0,0,0,0,0,0,49,,,,,,,8.3,84.92,719.53292722453,13.12336,6,P-GPS,
17600,2023-10-10 22:36:51,40.0688690240561,-88.2096825248951,13.12336,,,719.53292722453,13.779528,0.894776,4.3985893796,10.1739504568,25,10,21.303,723.46993522453,17.060368,4.47388,5.1871064652,0,-0.894776,0,275.1, -22.5, -0.9,0,0,1569,1024,1024,1024,83,0,0,0,0,0,0,49,,,,,,,8.3,84.92,719.53292722453,13.12336,6,P-GPS,
17700,2023-10-10 22:36:52,40.0688690413716,-88.2096833284612,13.12336,,,719.53292722453,13.779528,1.789552,4.6229988356,10.3983927212,25,10,21.303,723.46993522453,17.060368,4.47388,5.1871064652,0,-1.789552,0,275, -24.3, -0.5,0,0,1024,1024,1024,1024,0,0,0,0,0,0,0,49,,,,,,,8.3,84.92,719.53292722453,13.12336,6,P-GPS,
17800,2023-10-10 22:36:52,40.0688690459906,-88.2096846149077,13.12336,,,719.53292722453,13.779528,2.460634,4.9821851988,10.7576118928,25,10,21.2485,723.46993522453,17.060368,4.47388,5.1871064652,0,-2.460634,0,274.9, -24.9, -0.2,0,0,1024,1024,1024,1024,0,0,0,0,0,0,0,49,,,,,,,8.375,85.1,719.53292722453,13.12336,6,P-GPS,
17900,2023-10-10 22:36:52,40.0688691060119,-88.2096862873148,13.12336,,,719.53292722453,13.779528,3.35541,5.4493440064,11.225065976,25,10,21.2485,723.46993522453,17.060368,4.47388,5.4493440064,0.223694,-3.35541,0,274.8, -23.3, -0.2,0,0,1024,1024,1024,1024,0,0,0,0,0,0,0,49,,,,,,,8.375,85.1,719.53292722453,13.12336,6,P-GPS,
18000,2023-10-10 22:36:52,40.0688691998762,-88.2096884979011,13.12336,,,719.53292722453,13.779528,4.250186,6.0669949448,11.8432090404,25,10,21.2485,723.46993522453,17.060368,4.47388,6.0669949448,0.223694,-4.250186,-0.223694,274.9, -8.8, -0.5,0,0,1024,1024,1024,1024,0,0,0,0,0,0,0,49,,,,,,,8.375,85.1,719.53292722453,13.12336,6,P-GPS,
18100,2023-10-10 22:36:52,40.0688692960151,-88.2096907699155,13.12336,,,719.53292722453,13.779528,4.026492,6.7019031016,12.4785437064,25,10,21.2485,723.46993522453,17.060368,4.47388,6.7019031016,0.223694,-4.026492,-0.223694,275.2, 8.5, 0.5,0,0,1024,1024,1024,1024,0,0,0,0,0,0,0,49,,,,,,,8.375,85.1,719.53292722453,13.12336,6,P-GPS,
18200,2023-10-10 22:36:52,40.0688693541188,-88.2096928904321,13.12336,,,719.53292722453,13.779528,3.35541,7.294291572,13.0709977936,25,10,21.2485,723.46993522453,17.060368,4.47388,7.294291572,0.223694,-3.35541,0,275.6, 16.5, 1.2,0,0,1024,1024,1024,1024,0,0,0,0,0,0,0,49,,,,,,,8.375,85.1,719.53292722453,13.12336,6,P-GPS,
18300,2023-10-10 22:36:52,40.0688694509726,-88.2096942696008,12.795276,,,719.20484322453,13.779528,2.460634,7.6800855476,13.4577104044,25,10,21.2485,723.46993522453,17.060368,4.47388,7.6800855476,0.223694,-2.460634,0,275.4, 17.1, 0.2,0,0,1024,1024,1024,1024,0,0,0,0,0,0,0,49,,,,,,,8.375,85.1,719.20484322453,12.795276,6,P-GPS,
18400,2023-10-10 22:36:52,40.0688695521995,-88.2096952845862,12.795276,,,719.20484322453,13.451444,1.8119214,7.9643703336,13.7435043768,25,10,21.2485,723.46993522453,17.060368,4.47388,7.9643703336,0.223694,-1.789552,0,275.2, 13.4, -0.9,0,0,1024,1024,1024,1024,0,0,0,0,0,0,0,49,,,,,,,8.375,85.1,719.20484322453,12.795276,6,P-GPS,
18500,2023-10-10 22:36:52,40.0688696014277,-88.2096959632218,12.795276,,,719.20484322453,13.451444,1.342164,8.1542981612,13.9338259052,25,10,21.2485,723.46993522453,17.060368,4.47388,8.1542981612,0,-1.342164,0,275.1, 7.7, -1.5,0,0,1024,1024,1024,1024,0,0,0,0,0,0,0,49,,,,,,,8.375,85.1,719.20484322453,12.795276,6,P-GPS,
18600,2023-10-10 22:36:52,40.0688696654605,-88.2096963702308,12.795276,,,719.20484322453,13.451444,0.894776,8.2686026268,14.0498364076,25,10,21.2485,723.46993522453,17.060368,4.47388,8.2686026268,0,-0.894776,0,274.9, 2.7, -1.5,0,0,1024,1024,1024,1024,0,0,0,0,0,0,0,49,,,,,,,8.375,85.1,719.20484322453,12.795276,6,P-GPS,
18700,2023-10-10 22:36:53,40.0688697731718,-88.2096966699973,12.795276,,,719.20484322453,13.451444,0.671082,8.3536419996,14.1422904788,25,10,21.2485,723.46993522453,17.060368,4.47388,8.3536419996,0,-0.671082,0,275, -1, -1.4,0,0,1024,1024,1024,1024,0,0,0,0,0,0,0,49,,,,,,,8.375,85.1,719.20484322453,12.795276,6,P-GPS,
18800,2023-10-10 22:36:53,40.0688698756878,-88.2096969220589,12.795276,,,719.20484322453,13.451444,0.447388,8.4254267788,14.2220148908,25,10,21.2485,723.46993522453,17.060368,4.47388,8.4254267788,0,-0.447388,0,275, -2.9, -1,0,0,364,935,1024,1024,-100,-13,0,0,0,0,0,49,,,,,,,8.075,84.92,719.20484322453,12.795276,6,P-GPS,
