time(millisecond),datetime(utc),latitude,longitude,height_above_takeoff(feet),height_above_ground_at_drone_location(feet),ground_elevation_at_drone_location(feet),altitude_above_seaLevel(feet),height_sonar(feet),speed(mph),distance(feet),mileage(feet),satellites,gpslevel,voltage(v),max_altitude(feet),max_ascent(feet),max_speed(mph),max_distance(feet), xSpeed(mph), ySpeed(mph), zSpeed(mph), compass_heading(degrees), pitch(degrees), roll(degrees),isPhoto,isVideo,rc_elevator,rc_aileron,rc_throttle,rc_rudder,rc_elevator(percent),rc_aileron(percent),rc_throttle(percent),rc_rudder(percent),gimbal_heading(degrees),gimbal_pitch(degrees),gimbal_roll(degrees),battery_percent,voltageCell1,voltageCell2,voltageCell3,voltageCell4,voltageCell5,voltageCell6,current(A),battery_temperature(f),altitude(feet),ascent(feet),flycStateRaw,flycState,message
0,2023-10-10 22:25:55,40.0688883585124,-88.2097022438067,0,Available with any HD 360 subscription,Available with any HD 360 subscription,706.36456164566,0.656168,0,0,0,20,10,0,706.36456164566,0,0,0,0,0,0,186.1, 0.1, -0.9,0,0,364,364,364,1684,-100,-100,-100,100,0,0,0,57,,,,,,,0,85.82,706.36456164566,0,6,P-GPS,"GEO: You are in a Warning Zone (Airport). Fly with caution."
100,2023-10-10 22:25:55,40.0688883398624,-88.2097022517798,0,,,706.36456164566,0.656168,0,0.0071593506228,0.0071593506228,20,10,0,706.36456164566,0,0,0.0071593506228,0,0,0,186.1, 0.1, -0.9,0,0,364,364,364,1684,-100,-100,-100,100,0,0,0,57,,,,,,,0,85.82,706.36456164566,0,41,Motors_Started,
200,2023-10-10 22:25:55,40.0688883523301,-88.2097022658061,0,,,706.36456164566,0.656168,0,0.0065435041464,0.013161745828,20,10,0,706.36456164566,0,0,0.0071593506228,0,0,0,186.1, 0.1, -0.9,0,0,364,364,364,1684,-100,-100,-100,100,0,0,0,57,,,,,,,0,85.82,706.36456164566,0,41,Motors_Started,"Setting new Return-To-Home altitude to 100m (328 ft). Data Recorder File Index is 39. Setting new Maximum Flight Altitude to 120m (394 ft)"
300,2023-10-10 22:25:55,40.0688883657638,-88.2097022793928,0,,,706.36456164566,0.656168,0,0.01028215256,0.0193596134804,20,10,0,706.36456164566,0,0,0.01028215256,0,0,0,186.1, 0.1, -0.9,0,0,364,364,364,1684,-100,-100,-100,100,0,0,0,57,,,,,,,0,85.82,706.36456164566,0,41,Motors_Started,
400,2023-10-10 22:25:55,40.068888380987,-88.2097022894732,0,,,706.36456164566,0.656168,0,0.0151595477292,0.0255861884828,20,10,0,706.36456164566,0,0,0.0151595477292,0,0,0,186.1, 0.1, -0.9,0,0,364,364,364,1684,-100,-100,-100,100,0,0,0,57,,,,,,,0,85.82,706.36456164566,0,41,Motors_Started,
500,2023-10-10 22:25:55,40.0688883787387,-88.2097022921243,0,,,706.36456164566,0.656168,0,0.015377133038,0.0266910769696,20,10,0,706.36456164566,0,0,0.015377133038,0,0,0,186, 0.2, -0.9,0,0,364,364,364,1684,-100,-100,-100,100,0,0,0,57,,,,,,,0,85.82,706.36456164566,0,41,Motors_Started,
600,2023-10-10 22:25:56,40.0688883825896,-88.2097023017399,0,,,706.36456164566,0.656168,0,0.0184068903528,0.0297212607936,20,10,0,706.36456164566,0,0,0.0184068903528,0,0,0,186, 0.1, -0.9,0,0,364,364,364,1684,-100,-100,-100,100,0,0,0,57,,,,,,,0,85.82,706.36456164566,0,41,Motors_Started,
700,2023-10-10 22:25:56,40.0688883880844,-88.2097023109066,0,,,706.36456164566,0.656168,0,0.0216195544976,0.032972442,20,10,0,706.36456164566,0,0,0.0216195544976,0,0,0,186, 0.2, -0.8,0,0,364,364,472,1668,-100,-100,-84,98,0,0,0,57,,,,,,,0,85.82,706.36456164566,0,41,Motors_Started,
800,2023-10-10 22:25:56,40.0688883451948,-88.2097022922541,0,,,706.36456164566,0.656168,0,0.0143731303812,0.049464568512,20,10,0,706.36456164566,0,0,0.0216195544976,0,0,0,186, 0.1, -0.9,0,0,1016,1024,1024,1024,-1,0,0,0,0,0,0,57,,,,,,,0,85.82,706.36456164566,0,41,Motors_Started,
900,2023-10-10 22:25:56,40.0688883465603,-88.2097022941199,0,,,706.36456164566,0.656168,0,0.014709154014,0.05018536906,20,10,0,706.36456164566,0,0,0.0216195544976,0,0,0,186, 0.1, -0.9,0,0,1024,1024,1024,1024,0,0,0,0,0,0,0,57,,,,,,,0,85.82,706.36456164566,0,41,Motors_Started,
1000,2023-10-10 22:25:56,40.0688883645198,-88.2097022921982,0,,,706.36456164566,0.656168,0,0.0136879269472,0.056759844336,20,10,0,706.36456164566,0,0,0.0216195544976,0,0,0,186, 0.2, -0.9,0,0,1024,1024,1024,1024,0,0,0,0,0,0,0,57,,,,,,,0,85.82,706.36456164566,0,41,Motors_Started,
1100,2023-10-10 22:25:56,40.0688883742872,-88.2097022910468,0,,,706.36456164566,0.656168,0,0.0143908469172,0.06033792844,20,10,0,706.36456164566,0,0,0.0216195544976,0,0,0,186, 0.1, -0.9,0,0,1024,1024,1024,1024,0,0,0,0,0,0,0,57,,,,,,,0,85.82,706.36456164566,0,41,Motors_Started,
1200,2023-10-10 22:25:56,40.0688883472424,-88.2097022597855,0,,,706.36456164566,0.656168,0,0.006067257412,0.073511485292,20,10,0,706.36456164566,0,0,0.0216195544976,0,0,0,186, 0.2, -0.8,0,0,1024,1024,1024,1024,0,0,0,0,0,0,0,57,,,,,,,0,85.82,706.36456164566,0,41,Motors_Started,
1300,2023-10-10 22:25:56,40.0688883563501,-88.2097022607165,0,,,706.36456164566,0.656168,0,0.0047868111768,0.076844818732,20,10,0,706.36456164566,0,0,0.0216195544976,0,0,0,186, 0.2, -0.8,0,0,1024,1024,1024,1024,0,0,0,0,0,0,0,57,,,,,,,0,85.82,706.36456164566,0,41,Motors_Started,
1400,2023-10-10 22:25:56,40.0688883524616,-88.2097022678171,0,,,706.36456164566,0.656168,0,0.007058071092,0.079282482852,20,10,0,706.36456164566,0,0,0.0216195544976,0,0,0,186, 0.1, -0.8,0,0,1024,1024,1024,1024,0,0,0,0,0,0,0,57,,,,,,,0,85.82,706.36456164566,0,41,Motors_Started,
1500,2023-10-10 22:25:56,40.0688883171923,-88.2097022527854,0,,,706.36456164566,0.656168,0,0.0152826776544,0.092817588272,20,10,21.9985,706.36456164566,0,0,0.0216195544976,0,0,0,186.1, 0.2, -0.8,0,0,1024,1024,1024,1024,0,0,0,0,0,0,0,57,,,,,,,2.169,85.82,706.36456164566,0,41,Motors_Started,
1600,2023-10-10 22:25:57,40.0688883307306,-88.2097022524928,0,,,706.36456164566,0.656168,0,0.0104222772364,0.097757877144,20,10,21.9985,706.36456164566,0,0,0.0216195544976,0,0,0,186.1, 0.2, -0.8,0,0,1024,1024,1024,1024,0,0,0,0,0,0,0,57,,,,,,,2.169,85.82,706.36456164566,0,41,Motors_Started,
1700,2023-10-10 22:25:57,40.0688883426847,-88.2097022560505,0,,,706.36456164566,0.656168,0,0.0067107613696,0.1022309744,20,10,21.9985,706.36456164566,0,0,0.0216195544976,0,0,0,186.1, 0.2, -0.8,0,0,1024,1024,1024,1024,0,0,0,0,0,0,0,57,,,,,,,2.169,85.82,706.36456164566,0,41,Motors_Started,
1800,2023-10-10 22:25:57,40.0688883557968,-88.2097022677616,0,,,706.36456164566,0.656168,0,0.0067614175392,0.108025594008,20,10,21.9985,706.36456164566,0,0,0.0216195544976,0,0,0,186.1, 0.2, -0.8,0,0,1024,1024,1024,1024,0,0,0,0,0,0,0,57,,,,,,,2.169,85.82,706.36456164566,0,41,Motors_Started,
1900,2023-10-10 22:25:57,40.068888347597,-88.209702271839,0,,,706.36456164566,0.656168,0,0.008781824428,0.111226709596,20,10,21.9985,706.36456164566,0,0,0.0216195544976,0,0,0,186.1, 0.2, -0.8,0,0,1024,1024,1024,1024,0,0,0,0,0,0,0,57,,,,,,,2.169,85.82,706.36456164566,0,41,Motors_Started,
2000,2023-10-10 22:25:57,40.0688883584294,-88.2097022891219,0,,,706.36456164566,0.656168,0,0.0126524282264,0.11746391452,20,10,21.9985,706.36456164566,0,0,0.0216195544976,0,0,0,186.1, 0.2, -0.8,0,0,1024,1024,1024,1024,0,0,0,0,0,0,0,57,,,,,,,2.169,85.82,706.36456164566,0,41,Motors_Started,
2100,2023-10-10 22:25:57,40.0688883711162,-88.2097023048686,0,,,706.36456164566,0.656168,0,0.01765830109,0.123848101076,20,10,21.9985,706.36456164566,0,0,0.0216195544976,0,0,0,186.1, 0.2, -0.8,0,0,1024,1024,1024,1024,0,0,0,0,0,0,0,57,,,,,,,2.169,85.82,706.36456164566,0,10,Assisted_Takeoff,
2200,2023-10-10 22:25:57,40.0688883401546,-88.2097022977879,0,,,706.36456164566,0.656168,0,0.0164932419976,0.135316277296,20,10,21.9985,706.36456164566,0,0,0.0216195544976,0,0,0,186.1, 0.2, -0.8,0,0,1024,1024,1024,1024,0,0,0,0,0,0,0,57,,,,,,,2.169,85.82,706.36456164566,0,10,Assisted_Takeoff,
2300,2023-10-10 22:25:57,40.0688883491762,-88.2097023114301,0,,,706.36456164566,0.656168,0,0.019185860194,0.140350398192,20,10,21.9985,706.36456164566,0,0,0.0216195544976,0,0,0,186.1, 0.2, -0.8,0,0,1024,1024,1024,1024,0,0,0,0,0,0,0,57,,,,,,,2.169,85.82,706.36456164566,0,10,Assisted_Takeoff,
2400,2023-10-10 22:25:57,40.0688883631117,-88.2097023291916,0,,,706.36456164566,0.656168,0,0.0238992133632,0.147452760624,20,10,21.9985,706.36456164566,0,0,0.0238992133632,0,0,0,186, 0.2, -0.8,0,0,1024,1024,1024,1024,0,0,0,0,0,0,0,57,,,,,,,2.169,85.82,706.36456164566,0,10,Assisted_Takeoff,
2500,2023-10-10 22:25:57,40.0688883773557,-88.2097023469402,0,,,706.36456164566,0.656168,0,0.0296050862492,0.154633535132,20,10,21.9985,706.36456164566,0,0,0.0296050862492,0,0,0,186, 0.2, -0.8,0,0,1024,1024,1024,1024,0,0,0,0,0,0,0,57,,,,,,,2.169,85.82,706.36456164566,0,10,Assisted_Takeoff,
2600,2023-10-10 22:25:58,40.0688883485699,-88.2097023297571,0,,,706.36456164566,0.656168,0,0.0242707028764,0.166180123428,20,10,21.9985,706.36456164566,0,0,0.0296050862492,0,0,0,186.1, 0.2, -0.8,0,0,1024,1024,1024,1024,0,0,0,0,0,0,0,57,,,,,,,2.169,85.82,706.36456164566,0,10,Assisted_Takeoff,
2700,2023-10-10 22:25:58,40.0688883613527,-88.2097023408705,0,,,706.36456164566,0.656168,0,0.0271208670096,0.171781829644,20,10,21.9985,706.36456164566,0,0,0.0296050862492,0,0,0,186.1, 0.2, -0.8,0,0,1024,1024,1024,1024,0,0,0,0,0,0,0,57,,,,,,,2.169,85.82,706.36456164566,0,10,Assisted_Takeoff,
2800,2023-10-10 22:25:58,40.0688883727223,-88.2097023519187,0,,,706.36456164566,0.656168,0,0.030627789694,0.176951121148,20,10,21.9985,706.36456164566,0,0,0.030627789694,0,0,0,186.1, 0.2, -0.8,0,0,1024,1024,1024,1024,0,0,0,0,0,0,0,57,,,,,,,2.169,85.82,706.36456164566,0,10,Assisted_Takeoff,
2900,2023-10-10 22:25:58,40.0688883653477,-88.2097023468373,0,,,706.36456164566,0.656168,0,0.0288749353072,0.179993115996,20,10,21.9985,706.36456164566,0,0,0.030627789694,0,0,0,186.1, 0.2, -0.8,0,0,1024,1024,1024,1024,0,0,0,0,0,0,0,57,,,,,,,2.169,85.82,706.36456164566,0,10,Assisted_Takeoff,
3000,2023-10-10 22:25:58,40.0688883807727,-88.2097023543063,0,,,706.36456164566,0.656168,0,0.0319035115196,0.185994756608,20,10,21.9985,706.36456164566,0,0,0.0319035115196,0,0,0,186, 0.2, -0.8,0,0,1024,1024,1024,1024,0,0,0,0,0,0,0,57,,,,,,,2.169,85.82,706.36456164566,0,10,Assisted_Takeoff,
3100,2023-10-10 22:25:58,40.0688883930714,-88.2097023593367,0,,,706.36456164566,0.656168,0,0.034633859376,0.190696528412,20,10,21.9985,706.36456164566,0,0,0.034633859376,0,0,0,186.1, 0.2, -0.8,0,0,1024,1024,1265,1024,0,0,37,0,0,0,0,57,,,,,,,2.169,85.82,706.36456164566,0,10,Assisted_Takeoff,
3200,2023-10-10 22:25:58,40.0688884113632,-88.2097023598577,0,,,706.36456164566,0.656168,0,0.037706037952,0.19737205356,20,10,21.9985,706.36456164566,0,0,0.037706037952,0,0,0,186.1, 0.2, -0.8,0,0,1024,1024,1684,1024,0,0,100,0,0,0,0,57,,,,,,,2.169,85.82,706.36456164566,0,10,Assisted_Takeoff,
3300,2023-10-10 22:25:58,40.0688883905292,-88.2097023154337,0,,,706.36456164566,0.656168,0,0.0231604994288,0.21191929812,20,10,21.9985,706.36456164566,0,0,0.037706037952,0,0,0,186.1, 0.2, -0.8,0,0,1024,1024,1684,1024,0,0,100,0,0,0,0,57,,,,,,,2.169,85.82,706.36456164566,0,10,Assisted_Takeoff,
3400,2023-10-10 22:25:58,40.0688884106035,-88.2097023163646,0,,,706.36456164566,0.656168,0,0.0277781176868,0.219248038512,20,10,21.9985,706.36456164566,0,0,0.037706037952,0,0,0,186.1, 0.2, -0.8,0,0,1024,1024,1684,1024,0,0,100,0,0,0,0,57,,,,,,,2.169,85.82,706.36456164566,0,10,Assisted_Takeoff,
3500,2023-10-10 22:25:59,40.0688884313224,-88.2097023171871,0,,,706.36456164566,0.656168,0,0.033547901336,0.22681103088,20,10,22.008,706.36456164566,0,0,0.037706037952,0,0,0,186.1, 0.2, -0.8,0,0,1024,1024,1684,1024,0,0,100,0,0,0,0,57,,,,,,,0.914,85.82,706.36456164566,0,10,Assisted_Takeoff,
3600,2023-10-10 22:25:59,40.0688883996514,-88.2097022920691,0,,,706.36456164566,0.656168,0,0.0201709980208,0.240327763596,20,10,22.008,706.36456164566,0,0,0.037706037952,0,0,0,186.1, 0.2, -0.8,0,0,1024,1024,1684,1024,0,0,100,0,0,0,0,57,,,,,,,0.914,85.82,706.36456164566,0,10,Assisted_Takeoff,
3700,2023-10-10 22:25:59,40.0688884135243,-88.2097022985198,0,,,706.36456164566,0.656168,0,0.0252232947704,0.245700139096,20,10,22.008,706.36456164566,0,0,0.037706037952,0,0,0,186.1, 0.4, -0.7,0,0,1024,1024,1684,1024,0,0,100,0,0,0,0,57,,,,,,,0.914,85.82,706.36456164566,0,10,Assisted_Takeoff,
3800,2023-10-10 22:25:59,40.0688884519267,-88.2097022949573,0,,,706.36456164566,0.656168,0,0.036953413256,0.259746727472,20,10,22.008,706.36456164566,0,0,0.037706037952,0,0,0,186, 0.9, -0.5,0,0,1024,1024,1684,1024,0,0,100,0,0,0,0,57,,,,,,,0.914,85.82,706.36456164566,0,10,Assisted_Takeoff,
3900,2023-10-10 22:25:59,40.0688885043947,-88.2097022742532,0,,,706.36456164566,0.656168,0,0.053899608024,0.279743447272,20,10,22.008,706.36456164566,0,0,0.053899608024,0,0,0,185.8, 1.8, -0.1,0,0,1024,1024,1684,1024,0,0,100,0,0,0,0,57,,,,,,,0.914,85.82,706.36456164566,0,10,Assisted_Takeoff,
4000,2023-10-10 22:25:59,40.068888541617,-88.2097022044786,0,,,706.36456164566,0.656168,0.223694,0.067702101904,0.303491151444,20,10,22.008,706.36456164566,0,0.223694,0.067702101904,0.223694,0,-0.447388,185.7, 2.9, 0.6,0,0,1024,1024,1684,1024,0,0,100,0,0,0,0,57,,,,,,,0.914,85.82,706.36456164566,0,6,P-GPS,
4100,2023-10-10 22:25:59,40.068888677893,-88.2097021795105,0,,,706.36456164566,0.984252,0.223694,0.117900594324,0.35369751788,20,10,22.008,706.36456164566,0,0.223694,0.117900594324,0.223694,0,-1.11847,185.6, 2.3, 0.6,0,0,1024,1024,1684,1024,0,0,100,0,0,0,0,57,,,,,,,0.914,85.82,706.36456164566,0,6,P-GPS,
4200,2023-10-10 22:25:59,40.0688888671692,-88.2097021661856,0.328084,,,706.69264564566,1.312336,0.223694,0.186844166084,0.42285434424,20,10,22.008,706.69264564566,0.328084,0.223694,0.186844166084,0.447388,0,-1.565858,185.6, 1.1, 0.1,0,0,1024,1024,1684,1024,0,0,100,0,0,0,0,57,,,,,,,0.914,85.82,706.69264564566,0.328084,6,P-GPS,
4300,2023-10-10 22:25:59,40.0688890134276,-88.2097021315299,0.656168,,,707.02072964566,1.312336,0.447388,0.240993117948,0.47708662944,20,10,22.008,707.02072964566,0.656168,0.447388,0.240993117948,0.447388,0,-2.23694,185.6, -0.4, -0.3,0,0,1024,1024,1684,1024,0,0,100,0,0,0,0,57,,,,,,,0.914,85.82,707.02072964566,0.656168,6,P-GPS,
4400,2023-10-10 22:25:59,40.0688892150224,-88.2097020896195,0.984252,,,707.34881364566,1.968504,0.447388,0.315448500908,0.55156497828,20,10,22.008,707.34881364566,0.984252,0.447388,0.315448500908,0.447388,0,-2.908022,185.5, -2.7, -1.2,0,0,1024,1024,1684,1024,0,0,100,0,0,0,0,57,,,,,,,0.914,85.82,707.34881364566,0.984252,6,P-GPS,
4500,2023-10-10 22:26:00,40.0688893576315,-88.2097020205118,1.312336,,,707.67689764566,2.296588,0.223694,0.36981956564,0.60705710604,20,10,21.9015,707.67689764566,1.312336,0.447388,0.36981956564,0.223694,0,-3.579104,185.4, -3.9, -1.7,0,0,1024,1024,1684,1024,0,0,100,0,0,0,0,57,,,,,,,3.65,85.82,707.67689764566,1.312336,6,P-GPS,
4600,2023-10-10 22:26:00,40.068889420131,-88.2097019205551,1.968504,,,708.33306564566,2.952756,0.223694,0.39770670564,0.64309713344,20,10,21.9015,708.33306564566,1.968504,0.447388,0.39770670564,0,0.223694,-4.250186,185.2, -3.2, -0.8,0,0,1024,1024,1684,1024,0,0,100,0,0,0,0,57,,,,,,,3.65,85.82,708.33306564566,1.968504,6,P-GPS,
4700,2023-10-10 22:26:00,40.0688893878183,-88.2097018073907,2.624672,,,708.98923364566,3.28084,0.223694,0.3948162856,0.6768208878,20,10,21.9015,708.98923364566,2.624672,0.447388,0.39770670564,0,0.223694,-4.921268,185.1, -1.6, 0,0,0,1024,1024,1684,1024,0,0,100,0,0,0,0,57,,,,,,,3.65,85.82,708.98923364566,2.624672,6,P-GPS,
4800,2023-10-10 22:26:00,40.0688893374576,-88.2097016395921,3.28084,,,709.64540164566,4.265092,0.223694,0.39500657432,0.72714569256,20,10,21.9015,709.64540164566,3.28084,0.447388,0.39770670564,0,0.223694,-5.59235,185, -0.1, 1,0,0,1024,1024,1684,1024,0,0,100,0,0,0,0,57,,,,,,,3.65,85.82,709.64540164566,3.28084,6,P-GPS,
4900,2023-10-10 22:26:00,40.0688892849944,-88.2097014906371,4.265092,,,710.62965364566,4.92126,0.223694,0.39810040644,0.77292981476,20,10,21.9015,710.62965364566,4.265092,0.447388,0.39810040644,0,0.223694,-6.263432,185, 0.5, 1.9,0,0,1024,1024,1684,1024,0,0,100,0,0,0,0,57,,,,,,,3.65,85.82,710.62965364566,4.265092,6,P-GPS,
5000,2023-10-10 22:26:00,40.0688892080861,-88.2097013374546,5.249344,,,711.61390564566,5.905512,0,0.4001476506,0.8240813912,20,10,21.9015,711.61390564566,5.249344,0.447388,0.4001476506,0,0,-6.934514,185, 0.6, 2,0,0,1024,1024,1684,1024,0,0,100,0,0,0,0,57,,,,,,,3.65,85.82,711.61390564566,5.249344,6,P-GPS,
5100,2023-10-10 22:26:00,40.0688891843075,-88.2097012570549,6.233596,,,712.59815764566,6.889764,0,0.4082677296,0.84814963344,20,10,21.9015,712.59815764566,6.233596,0.447388,0.4082677296,0,0,-7.605596,185.1, 0.1, 1.6,0,0,1024,1024,1024,1024,0,0,0,0,0,0,0,57,,,,,,,3.65,85.82,712.59815764566,6.233596,6,P-GPS,
5200,2023-10-10 22:26:00,40.0688891698986,-88.209701201408,7.545932,,,713.91049364566,7.874016,0,0.41514437024,0.8645505526,20,10,21.9015,713.91049364566,7.545932,0.447388,0.41514437024,0,0,-8.052984,185.3, -0.3, 1.3,0,0,1024,1024,1024,1024,0,0,0,0,0,0,0,57,,,,,,,3.65,85.82,713.91049364566,7.545932,6,P-GPS,
5300,2023-10-10 22:26:00,40.0688891469199,-88.2097011501372,8.858268,,,715.22282964566,8.858268,0,0.41951116828,0.88114176048,20,10,21.9015,715.22282964566,8.858268,0.447388,0.41951116828,0,0,-8.052984,185.3, -0.5, 1.6,0,0,1024,1024,1024,1024,0,0,0,0,0,0,0,57,,,,,,,3.65,85.82,715.22282964566,8.858268,6,P-GPS,
5400,2023-10-10 22:26:00,40.0688890424339,-88.2097010491378,9.84252,,,716.20708164566,9.514436,0,0.4165682548,0.928559741,20,10,21.9015,716.20708164566,9.84252,0.447388,0.41951116828,0,0,-7.82929,185.4, -0.4, 2.1,0,0,1024,1024,1024,1024,0,0,0,0,0,0,0,57,,,,,,,3.65,85.82,716.20708164566,9.84252,6,P-GPS,
5500,2023-10-10 22:26:00,40.0688889899494,-88.2097010099214,11.154856,,,717.51941764566,10.170604,0,0.41444227048,0.95061682832,20,10,21.5765,717.51941764566,11.154856,0.447388,0.41951116828,0,0,-7.381902,185.6, -0.2, 2.5,0,0,1024,1024,1024,1024,0,0,0,0,0,0,0,57,,,,,,,14.805,85.82,717.51941764566,11.154856,6,P-GPS,
5600,2023-10-10 22:26:01,40.0688889275523,-88.2097009737591,12.139108,,,718.50366964566,10.826772,0,0.41091536748,0.97552168476,20,10,21.5765,718.50366964566,12.139108,0.447388,0.41951116828,0,0,-6.934514,185.8, 0, 2.5,0,0,1024,1024,1024,1024,0,0,0,0,0,0,0,57,,,,,,,14.805,85.82,718.50366964566,12.139108,6,P-GPS,
5700,2023-10-10 22:26:01,40.0688888103248,-88.209700919419,13.12336,,,719.48792164566,11.154856,0,0.40485893684,1.02090554448,20,10,21.5765,719.48792164566,13.12336,0.447388,0.41951116828,0,0,-6.487126,185.9, 0.4, 2.3,0,0,1024,1024,1024,1024,0,0,0,0,0,0,0,57,,,,,,,14.805,85.82,719.48792164566,13.12336,6,P-GPS,
5800,2023-10-10 22:26:01,40.0688887421716,-88.209700929541,14.107612,,,720.47217364566,11.48294,0,0.39274607556,1.04592851116,20,10,21.5765,720.47217364566,14.107612,0.447388,0.41951116828,0,0,-5.816044,186, 0.4, 1.9,0,0,1024,1024,1024,1024,0,0,0,0,0,0,0,57,,,,,,,14.805,85.82,720.47217364566,14.107612,6,P-GPS,
5900,2023-10-10 22:26:01,40.0688886863099,-88.2097009406941,14.76378,,,721.12834164566,11.811024,0,0.38299213824,1.06654859056,20,10,21.5765,721.12834164566,14.76378,0.447388,0.41951116828,0,0,-5.144962,186, 0.2, 1.6,0,0,1024,1024,1024,1024,0,0,0,0,0,0,0,57,,,,,,,14.805,85.82,721.12834164566,14.76378,6,P-GPS,
6000,2023-10-10 22:26:01,40.0688886305326,-88.2097009459039,15.419948,,,721.78450964566,11.811024,0,0.37573163932,1.08694885368,20,10,21.5765,721.78450964566,15.419948,0.447388,0.41951116828,0,0,-4.47388,186, 0.1, 1.6,0,0,1024,1024,1024,1024,0,0,0,0,0,0,0,57,,,,,,,14.805,85.82,721.78450964566,15.419948,6,P-GPS,
6100,2023-10-10 22:26:01,40.0688885419498,-88.2097009225244,16.076116,,,722.44067764566,11.48294,0,0.3749343952,1.11992129568,20,10,21.5765,722.44067764566,16.076116,0.447388,0.41951116828,0,0,-3.579104,186, 0.3, 1.7,0,0,1024,1024,1024,1024,0,0,0,0,0,0,0,57,,,,,,,14.805,85.82,722.44067764566,16.076116,6,P-GPS,
6200,2023-10-10 22:26:01,40.0688885175119,-88.2097008890365,16.732284,,,723.09684564566,11.48294,0,0.38268702012,1.1328412436,20,10,21.5765,723.09684564566,16.732284,0.447388,0.41951116828,0,0,-2.684328,186, 0.7, 2.1,0,0,1024,1024,1024,1024,0,0,0,0,0,0,0,57,,,,,,,14.805,85.82,723.09684564566,16.732284,6,P-GPS,
6300,2023-10-10 22:26:01,40.0688885041904,-88.2097008617052,17.060368,,,723.42492964566,11.154856,0,0.38953741404,1.14188980032,20,10,21.5765,723.42492964566,17.060368,0.447388,0.41951116828,0,0,-2.013246,186.1, 0.7, 2.4,0,0,1024,1024,1024,1024,0,0,0,0,0,0,0,57,,,,,,,14.805,85.82,723.42492964566,17.060368,6,P-GPS,
6400,2023-10-10 22:26:01,40.0688884914381,-88.2097008007007,17.388452,,,723.75301364566,10.498688,0,0.40583662716,1.1595472812,20,10,21.5765,723.75301364566,17.388452,0.447388,0.41951116828,0,0,-1.342164,186, 0.4, 2.2,0,0,1024,1024,1024,1024,0,0,0,0,0,0,0,57,,,,,,,14.805,85.82,723.75301364566,17.388452,6,P-GPS,
6500,2023-10-10 22:26:01,40.0688884895946,-88.2097007998244,17.388452,,,723.75301364566,9.84252,0,0.40600066916,1.16026250432,20,10,21.5765,723.75301364566,17.388452,0.447388,0.41951116828,0,0,-0.671082,185.9, 0.2, 1.9,0,0,1024,1024,1024,1024,0,0,0,0,0,0,0,57,,,,,,,14.805,85.82,723.75301364566,17.388452,6,P-GPS,
6600,2023-10-10 22:26:02,40.0688884740933,-88.2097008184696,17.716536,,,724.08109764566,9.514436,0,0.40019358236,1.16794951244,20,10,21.778,724.08109764566,17.716536,0.447388,0.41951116828,0,0,-0.223694,185.8, 0.1, 1.8,0,0,1024,1024,1024,1024,0,0,0,0,0,0,0,57,,,,,,,8.523,85.82,724.08109764566,17.716536,6,P-GPS,
6700,2023-10-10 22:26:02,40.0688884619615,-88.2097008452803,17.716536,,,724.08109764566,9.186352,0,0.39229988132,1.17664373844,20,10,21.778,724.08109764566,17.716536,0.447388,0.41951116828,0,0,0,185.8, 0.1, 1.7,0,0,1024,1024,1024,1024,0,0,0,0,0,0,0,57,,,,,,,8.523,85.82,724.08109764566,17.716536,6,P-GPS,
6800,2023-10-10 22:26:02,40.0688883923319,-88.2097008729954,17.716536,,,724.08109764566,8.858268,0,0.3829396448,1.20320213824,20,10,21.778,724.08109764566,17.716536,0.447388,0.41951116828,0,0,0,185.7, 0.3, 1.6,0,0,1024,1024,1024,1024,0,0,0,0,0,0,0,57,,,,,,,8.523,85.82,724.08109764566,17.716536,6,P-GPS,
6900,2023-10-10 22:26:02,40.0688883762753,-88.2097009197087,17.388452,,,723.75301364566,8.858268,0,0.36975722968,1.21750003896,20,10,21.778,724.08109764566,17.716536,0.447388,0.41951116828,0,0,0.223694,185.6, 0.2, 1.1,0,0,1024,1024,1024,1024,0,0,0,0,0,0,0,57,,,,,,,8.523,85.82,723.75301364566,17.388452,6,P-GPS,
7000,2023-10-10 22:26:02,40.0688883507546,-88.2097009715171,17.388452,,,723.75301364566,8.2021,0,0.35524607436,1.23470148308,20,10,21.778,724.08109764566,17.716536,0.447388,0.41951116828,0,0,0.223694,185.6, 0.2, 0.5,0,0,1024,1024,1024,1024,0,0,0,0,0,0,0,57,,,,,,,8.523,85.82,723.75301364566,17.388452,6,P-GPS,
7100,2023-10-10 22:26:02,40.0688882641837,-88.2097009756561,17.388452,,,723.75301364566,7.874016,0,0.35574804288,1.26630909564,20,10,21.778,724.08109764566,17.716536,0.447388,0.41951116828,0,0,0.223694,185.5, 0.3, 0.5,0,0,1024,1024,1024,1024,0,0,0,0,0,0,0,57,,,,,,,8.523,85.82,723.75301364566,17.388452,6,P-GPS,
7200,2023-10-10 22:26:02,40.0688882244942,-88.2097009802963,17.388452,,,723.75301364566,10.498688,0,0.35615486704,1.28084649768,20,10,21.778,724.08109764566,17.716536,0.447388,0.41951116828,0,0,0.223694,185.5, 0.7, 0.9,0,0,1024,1024,1024,1024,0,0,0,0,0,0,0,57,,,,,,,8.523,85.82,723.75301364566,17.388452,6,P-GPS,
7300,2023-10-10 22:26:02,40.0688881871804,-88.2097009907726,17.388452,,,723.75301364566,10.170604,0,0.355396993,1.29477366348,20,10,21.778,724.08109764566,17.716536,0.447388,0.41951116828,0,0,0.223694,185.6, 1, 1,0,0,1024,1024,1024,1024,0,0,0,0,0,0,0,57,,,,,,,8.523,85.82,723.75301364566,17.388452,6,P-GPS,
7400,2023-10-10 22:26:02,40.0688881603425,-88.2097010307051,17.388452,,,723.75301364566,10.170604,0,0.34633859376,1.3096129028,20,10,21.778,724.08109764566,17.716536,0.447388,0.41951116828,0,0,0.223694,185.7, 1.2, 0.8,0,0,1024,1024,1024,1024,0,0,0,0,0,0,0,57,,,,,,,8.523,85.82,723.75301364566,17.388452,6,P-GPS,
7500,2023-10-10 22:26:02,40.068888116851,-88.2097010761241,17.388452,,,723.75301364566,9.84252,0,0.33773951212,1.32992458324,20,10,21.778,724.08109764566,17.716536,0.447388,0.41951116828,0,0,0,185.7, 1.2, 0.6,0,0,1024,1024,1024,1024,0,0,0,0,0,0,0,57,,,,,,,8.523,85.82,723.75301364566,17.388452,6,P-GPS,
7600,2023-10-10 22:26:03,40.0688880890584,-88.2097011288351,17.388452,,,723.75301364566,9.84252,0,0.326463921208,1.34779531872,20,10,21.778,724.08109764566,17.716536,0.447388,0.41951116828,0,0,0,185.7, 1.2, 0.7,0,0,1024,1024,1024,1024,0,0,0,0,0,0,0,57,,,,,,,8.523,85.82,723.75301364566,17.388452,6,P-GPS,
7700,2023-10-10 22:26:03,40.068888066724,-88.2097011737924,17.388452,,,723.75301364566,9.84252,0,0.317158474716,1.3627625108,20,10,21.778,724.08109764566,17.716536,0.447388,0.41951116828,0,0,0,185.7, 0.8, 0.9,0,0,1024,1024,1024,1024,0,0,0,0,0,0,0,57,,,,,,,8.523,85.82,723.75301364566,17.388452,6,P-GPS,
7800,2023-10-10 22:26:03,40.0688879819114,-88.2097011949325,17.060368,,,723.42492964566,9.84252,0,0.323486230824,1.39426513648,20,10,21.778,724.08109764566,17.716536,0.447388,0.41951116828,0,0,0,185.7, 0.6, 1,0,0,1024,1024,1024,1024,0,0,0,0,0,0,0,57,,,,,,,8.523,85.82,723.42492964566,17.060368,6,P-GPS,
7900,2023-10-10 22:26:03,40.0688879543207,-88.2097012233927,17.060368,,,723.42492964566,9.84252,0,0.320811361972,1.40708994004,20,10,21.778,724.08109764566,17.716536,0.447388,0.41951116828,0,0,0,185.7, 0.9, 1,0,0,1024,1024,1024,1024,0,0,0,0,0,0,0,57,,,,,,,8.523,85.82,723.42492964566,17.060368,6,P-GPS,
8000,2023-10-10 22:26:03,40.068887921878,-88.209701240117,17.060368,,,723.42492964566,9.514436,0,0.32235401294,1.41981303756,20,10,21.778,724.08109764566,17.716536,0.447388,0.41951116828,0,0,0,185.6, 1.3, 1.2,0,0,1024,1024,1024,1024,0,0,0,0,0,0,0,57,,,,,,,8.523,85.82,723.42492964566,17.060368,6,P-GPS,
8100,2023-10-10 22:26:03,40.0688878888533,-88.2097012611846,17.060368,,,723.42492964566,9.514436,0,0.323471795128,1.43322183064,20,10,21.778,724.08109764566,17.716536,0.447388,0.41951116828,0,0,0,185.5, 1.5, 1.4,0,0,1024,1024,1024,1024,0,0,0,0,0,0,0,57,,,,,,,8.523,85.82,723.42492964566,17.060368,6,P-GPS,
8200,2023-10-10 22:26:03,40.0688878307186,-88.2097013525897,17.060368,,,723.42492964566,9.514436,0,0.314643382772,1.4664042464,20,10,21.778,724.08109764566,17.716536,0.447388,0.41951116828,0,0,0,185.4, 1.5, 1.4,0,0,1024,1024,1024,1024,0,0,0,0,0,0,0,57,,,,,,,8.523,85.82,723.42492964566,17.060368,6,P-GPS,
8300,2023-10-10 22:26:03,40.0688878120287,-88.2097014286633,17.060368,,,723.42492964566,9.84252,0,0.302578421756,1.4887139584,20,10,21.778,724.08109764566,17.716536,0.447388,0.41951116828,0,0,0,185.4, 1.2, 0.9,0,0,1024,1024,1024,1024,0,0,0,0,0,0,0,57,,,,,,,8.523,85.82,723.42492964566,17.060368,6,P-GPS,
8400,2023-10-10 22:26:03,40.0688877907255,-88.2097014904091,17.060368,,,723.42492964566,10.170604,0,0.295234261416,1.50762472016,20,10,21.778,724.08109764566,17.716536,0.447388,0.41951116828,0,0,0,185.3, 1.1, 0.5,0,0,1024,1024,1024,1024,0,0,0,0,0,0,0,57,,,,,,,8.523,85.82,723.42492964566,17.060368,6,P-GPS,
8500,2023-10-10 22:26:03,40.0688877208245,-88.2097015434833,17.060368,,,723.42492964566,10.170604,0,0.303916348308,1.53711947176,20,10,21.708,724.08109764566,17.716536,0.447388,0.41951116828,0,0,0,185.3, 1.2, 0.6,0,0,1024,1024,1024,1024,0,0,0,0,0,0,0,57,,,,,,,8.553,85.82,723.42492964566,17.060368,6,P-GPS,
8600,2023-10-10 22:26:04,40.0688876797811,-88.2097015834791,17.060368,,,723.42492964566,10.170604,0,0.308731309092,1.55580057472,20,10,21.708,724.08109764566,17.716536,0.447388,0.41951116828,0,0,0,185.4, 1.2, 0.8,0,0,1024,1024,1024,1024,0,0,0,0,0,0,0,57,,,,,,,8.553,85.82,723.42492964566,17.060368,6,P-GPS,
8700,2023-10-10 22:26:04,40.0688876412848,-88.2097016167278,17.060368,,,723.42492964566,10.170604,0,0.314851716112,1.5726378456,20,10,21.708,724.08109764566,17.716536,0.447388,0.41951116828,0,0,0,185.4, 1.7, 0.8,0,0,1024,1024,1024,1024,0,0,0,0,0,0,0,57,,,,,,,8.553,85.82,723.42492964566,17.060368,6,P-GPS,
8800,2023-10-10 22:26:04,40.0688876077771,-88.2097016315166,17.060368,,,723.42492964566,10.170604,0,0.322878291172,1.58554138932,20,10,21.708,724.08109764566,17.716536,0.447388,0.41951116828,0,0,0,185.5, 2, 1,0,0,1024,1024,1150,1024,0,0,19,0,0,0,0,57,,,,,,,8.553,85.82,723.42492964566,17.060368,6,P-GPS,
8900,2023-10-10 22:26:04,40.0688875600602,-88.2097016204493,17.060368,,,723.42492964566,10.170604,0,0.33934712372,1.60322183608,20,10,21.708,724.08109764566,17.716536,0.447388,0.41951116828,0,0,0,185.5, 1.9, 1.1,0,0,1024,1024,1124,1024,0,0,15,0,0,0,0,57,,,,,,,8.553,85.82,723.42492964566,17.060368,6,P-GPS,
9000,2023-10-10 22:26:04,40.068887544953,-88.2097016146781,17.060368,,,723.42492964566,10.170604,0,0.34490814752,1.60896658692,20,10,21.708,724.08109764566,17.716536,0.447388,0.41951116828,0,0,0,185.4, 2, 1,0,0,1024,1024,1024,1024,0,0,0,0,0,0,0,57,,,,,,,8.553,85.82,723.42492964566,17.060368,6,P-GPS,
9100,2023-10-10 22:26:04,40.0688875486512,-88.2097015963223,17.060368,,,723.42492964566,10.170604,0,0.34639436804,1.61426514352,20,10,21.708,724.08109764566,17.716536,0.447388,0.41951116828,0,0,-0.223694,185.5, 1.8, 1.2,0,0,1024,1024,1024,1024,0,0,0,0,0,0,0,57,,,,,,,8.553,85.82,723.42492964566,17.060368,6,P-GPS,
9200,2023-10-10 22:26:04,40.0688875354256,-88.2097014868704,17.060368,,,723.42492964566,10.170604,0,0.36721457868,1.64520346472,20,10,21.708,724.08109764566,17.716536,0.447388,0.41951116828,0,0,0,185.6, 1.4, 1.6,0,0,1024,1024,1024,1024,0,0,0,0,0,0,0,57,,,,,,,8.553,85.82,723.42492964566,17.060368,6,P-GPS,
9300,2023-10-10 22:26:04,40.0688875763168,-88.2097014357534,17.060368,,,723.42492964566,10.170604,0,0.36379266256,1.66584979084,20,10,21.708,724.08109764566,17.716536,0.447388,0.41951116828,0,0,0,185.6, 1.1, 2,0,0,1024,1024,1024,1024,0,0,0,0,0,0,0,57,,,,,,,8.553,85.82,723.42492964566,17.060368,6,P-GPS,
9400,2023-10-10 22:26:04,40.0688876305726,-88.209701391922,17.388452,,,723.75301364566,10.170604,0,0.35652560196,1.6891240698,20,10,21.708,724.08109764566,17.716536,0.447388,0.41951116828,0,0,0,185.6, 0.7, 2.1,0,0,1024,1024,1024,1024,0,0,0,0,0,0,0,57,,,,,,,8.553,85.82,723.75301364566,17.388452,6,P-GPS,
9500,2023-10-10 22:26:05,40.0688876825761,-88.2097013627302,17.388452,,,723.75301364566,10.170604,0,0.34833334448,1.70977367676,20,10,21.704,724.08109764566,17.716536,0.447388,0.41951116828,0,0,0,185.5, 0.5, 2.1,0,0,1024,1024,1024,1024,0,0,0,0,0,0,0,57,,,,,,,8.271,85.82,723.75301364566,17.388452,6,P-GPS,
9600,2023-10-10 22:26:05,40.0688876724028,-88.2097013126539,17.388452,,,723.75301364566,10.170604,0,0.3609088042,1.72423890032,20,10,21.704,724.08109764566,17.716536,0.447388,0.41951116828,0,0,0,185.5, 0.5, 2.1,0,0,1024,1024,1024,1024,0,0,0,0,0,0,0,57,,,,,,,8.271,85.82,723.75301364566,17.388452,6,P-GPS,
9700,2023-10-10 22:26:05,40.0688877021206,-88.2097013166412,17.388452,,,723.75301364566,9.84252,0,0.3526574916,1.7351378508,20,10,21.704,724.08109764566,17.716536,0.447388,0.41951116828,0,0,0,185.5, 0.4, 2.1,0,0,1024,1024,1024,1024,0,0,0,0,0,0,0,57,,,,,,,8.271,85.82,723.75301364566,17.388452,6,P-GPS,
9800,2023-10-10 22:26:05,40.0688877340181,-88.209701324379,17.388452,,,723.75301364566,9.84252,0,0.3432414808,1.74697512152,20,10,21.704,724.08109764566,17.716536,0.447388,0.41951116828,0,0,0,185.6, 0.3, 1.7,0,0,1024,1024,1024,1024,0,0,0,0,0,0,0,57,,,,,,,8.271,85.82,723.75301364566,17.388452,6,P-GPS,
9900,2023-10-10 22:26:05,40.0688877185748,-88.2097012915156,17.388452,,,723.75301364566,10.170604,0,0.35384843652,1.7577428384,20,10,21.704,724.08109764566,17.716536,0.447388,0.41951116828,0,0,0,185.7, 0.6, 1.2,0,0,1024,1024,1550,1024,0,0,80,0,0,0,0,57,,,,,,,8.271,85.82,723.75301364566,17.388452,6,P-GPS,
10000,2023-10-10 22:26:05,40.0688877523655,-88.2097012927602,17.388452,,,723.75301364566,10.170604,0,0.3455708772,1.77007551596,20,10,21.704,724.08109764566,17.716536,0.447388,0.41951116828,0,0,0,185.7, 0.8, 1.3,0,0,1024,1024,1537,1024,0,0,78,0,0,0,0,57,,,,,,,8.271,85.82,723.75301364566,17.388452,6,P-GPS,
10100,2023-10-10 22:26:05,40.0688877861289,-88.2097012881441,17.388452,,,723.75301364566,10.170604,0,0.33883531268,1.78246068696,20,10,21.704,724.08109764566,17.716536,0.447388,0.41951116828,0,0,-0.223694,185.7, 0.9, 1.4,0,0,1024,1024,1037,1024,0,0,2,0,0,0,0,57,,,,,,,8.271,85.82,723.75301364566,17.388452,6,P-GPS,
10200,2023-10-10 22:26:05,40.0688878214119,-88.2097012862298,17.388452,,,723.75301364566,10.170604,0,0.33148623108,1.79534454564,20,10,21.704,724.08109764566,17.716536,0.447388,0.41951116828,0,0,-0.671082,185.8, 0.7, 1.2,0,0,1024,1024,1037,1024,0,0,2,0,0,0,0,57,,,,,,,8.271,85.82,723.75301364566,17.388452,6,P-GPS,
10300,2023-10-10 22:26:05,40.0688878257383,-88.2097012657826,17.388452,,,723.75301364566,10.498688,0,0.33519029944,1.80126974268,20,10,21.704,724.08109764566,17.716536,0.447388,0.41951116828,0,0,-0.671082,185.8, 0, 1.5,0,0,1024,1024,1024,1024,0,0,0,0,0,0,0,57,,,,,,,8.271,85.82,723.75301364566,17.388452,6,P-GPS,
10400,2023-10-10 22:26:05,40.0688878719082,-88.2097012279292,17.388452,,,723.75301364566,10.498688,0,0.33462271412,1.82115491392,20,10,21.704,724.08109764566,17.716536,0.447388,0.41951116828,0,0,-0.447388,185.8, -0.2, 2.2,0,0,1024,1024,1024,1024,0,0,0,0,0,0,0,57,,,,,,,8.271,85.82,723.75301364566,17.388452,6,P-GPS,
10500,2023-10-10 22:26:05,40.0688879091593,-88.2097011993848,17.716536,,,724.08109764566,10.498688,0,0.33453741228,1.8369095076,20,10,21.704,724.08109764566,17.716536,0.447388,0.41951116828,0,0,-0.223694,185.9, -0.1, 2.7,0,0,1024,1024,1190,1024,0,0,25,0,0,0,0,57,,,,,,,8.271,85.82,724.08109764566,17.716536,6,P-GPS,
10600,2023-10-10 22:26:06,40.0688879102788,-88.2097011764482,17.716536,,,724.08109764566,10.498688,0,0.33993767492,1.84332683064,20,10,21.4975,724.08109764566,17.716536,0.447388,0.41951116828,0,0,-0.223694,186, 0, 2.3,0,0,1024,1024,1644,1024,0,0,94,0,0,0,0,57,,,,,,,8.66,85.82,724.08109764566,17.716536,6,P-GPS,
10700,2023-10-10 22:26:06,40.0688879458593,-88.2097011808472,17.716536,,,724.08109764566,10.498688,0,0.3327920054,1.85636816964,20,10,21.4975,724.08109764566,17.716536,0.447388,0.41951116828,0,0,-0.223694,186, 0.4, 1.8,0,0,1024,1024,1421,1024,0,0,60,0,0,0,0,57,,,,,,,8.66,85.82,724.08109764566,17.716536,6,P-GPS,
10800,2023-10-10 22:26:06,40.0688879859507,-88.209701212501,17.716536,,,724.08109764566,10.498688,0,0.318420613864,1.8734580652,20,10,21.4975,724.08109764566,17.716536,0.447388,0.41951116828,0,0,-0.671082,186, 0.6, 1.4,0,0,1024,1024,1024,1024,0,0,0,0,0,0,0,57,,,,,,,8.66,85.82,724.08109764566,17.716536,6,P-GPS,
10900,2023-10-10 22:26:06,40.0688880344615,-88.2097012272015,18.04462,,,724.40918164566,10.498688,0,0.307483933724,1.89162735712,20,10,21.4975,724.40918164566,18.04462,0.447388,0.41951116828,0,0,-1.11847,185.9, 0.1, 1.7,0,0,1024,1024,1024,1024,0,0,0,0,0,0,0,57,,,,,,,8.66,85.82,724.40918164566,18.04462,6,P-GPS,
11000,2023-10-10 22:26:06,40.0688880268248,-88.2097011741102,18.04462,,,724.40918164566,10.498688,0,0.322254275404,1.9067093786,23,10,21.4975,724.40918164566,18.04462,0.447388,0.41951116828,0,0,-0.671082,185.8, -0.4, 2.6,0,0,1024,1024,1024,1024,0,0,0,0,0,0,0,57,,,,,,,8.66,85.82,724.40918164566,18.04462,6,P-GPS,
11100,2023-10-10 22:26:06,40.0688880660739,-88.2097011485319,18.372704,,,724.73726564566,10.170604,0,0.323888789892,1.92271003528,23,10,21.4975,724.73726564566,18.372704,0.447388,0.41951116828,0,0,-0.671082,185.8, -0.5, 3,0,0,1024,1024,1024,1024,0,0,0,0,0,0,0,57,,,,,,,8.66,85.82,724.73726564566,18.372704,6,P-GPS,
11200,2023-10-10 22:26:06,40.0688881212163,-88.209701176705,18.372704,,,724.73726564566,10.170604,0,0.310268054548,1.94431436668,23,10,21.4975,724.73726564566,18.372704,0.447388,0.41951116828,0,0,-0.447388,185.9, -0.3, 2.7,0,0,1024,1024,1024,1024,0,0,0,0,0,0,0,57,,,,,,,8.66,85.82,724.73726564566,18.372704,6,P-GPS,
11300,2023-10-10 22:26:06,40.0688881505807,-88.2097012338837,18.372704,,,724.73726564566,9.84252,0,0.29200624294,1.96354008908,23,10,21.4975,724.73726564566,18.372704,0.447388,0.41951116828,0,0,-0.223694,185.9, -0.1, 2.1,0,0,1024,1024,1024,1024,0,0,0,0,0,0,0,57,,,,,,,8.66,85.82,724.73726564566,18.372704,6,P-GPS,
11400,2023-10-10 22:26:06,40.0688881830225,-88.2097012847972,18.372704,,,724.73726564566,9.84252,0,0.275312344768,1.982037465,23,10,21.4975,724.73726564566,18.372704,0.447388,0.41951116828,0,0,-0.223694,185.9, 0, 1.2,0,0,1024,1024,1203,1024,0,0,27,0,0,0,0,57,,,,,,,8.66,85.82,724.73726564566,18.372704,6,P-GPS,
11500,2023-10-10 22:26:07,40.068888201209,-88.209701319973,18.372704,,,724.73726564566,9.84252,0,0.264250008456,1.99389113992,23,10,21.4975,724.73726564566,18.372704,0.447388,0.41951116828,0,0,0,185.9, 0, 1,0,0,1024,1024,1477,1024,0,0,69,0,0,0,0,57,,,,,,,8.66,85.82,724.73726564566,18.372704,6,P-GPS,
11600,2023-10-10 22:26:07,40.0688881869666,-88.2097013290496,18.372704,,,724.73726564566,9.84252,0,0.262964903428,1.99967198,23,10,21.4975,724.73726564566,18.372704,0.447388,0.41951116828,0,0,-0.223694,185.9, 0.3, 1.1,0,0,1024,1024,1024,1024,0,0,0,0,0,0,0,57,,,,,,,8.66,85.82,724.73726564566,18.372704,6,P-GPS,
11700,2023-10-10 22:26:07,40.068888130982,-88.2097013025319,18.700788,,,725.06534964566,10.170604,0,0.275611229292,2.02139770248,23,10,21.4975,725.06534964566,18.700788,0.447388,0.41951116828,0,0,-0.671082,185.8, 0.9, 0.8,0,0,1024,1024,1024,1024,0,0,0,0,0,0,0,57,,,,,,,8.66,85.82,725.06534964566,18.700788,6,P-GPS,
11800,2023-10-10 22:26:07,40.0688881015718,-88.2097012684997,18.700788,,,725.06534964566,9.84252,0,0.287998368796,2.03573169244,23,10,21.4975,725.06534964566,18.700788,0.447388,0.41951116828,0,0,-0.447388,185.8, 0.6, 1.5,0,0,1024,1024,1024,1024,0,0,0,0,0,0,0,57,,,,,,,8.66,85.82,725.06534964566,18.700788,6,P-GPS,
11900,2023-10-10 22:26:07,40.0688880634408,-88.209701218163,18.700788,,,725.06534964566,9.84252,0,0.305936361496,2.05550531512,23,10,21.4975,725.06534964566,18.700788,0.447388,0.41951116828,0,0,-0.223694,185.7, 0.6, 2.5,0,0,1024,1024,1024,1024,0,0,0,0,0,0,0,57,,,,,,,8.66,85.82,725.06534964566,18.700788,6,P-GPS,
12000,2023-10-10 22:26:07,40.0688879619342,-88.209701179525,18.700788,,,725.06534964566,9.514436,0,0.3305118216,2.09408143184,23,10,21.4975,725.06534964566,18.700788,0.447388,0.41951116828,0,0,-0.223694,185.7, 1, 3,0,0,1024,1024,1024,1024,0,0,0,0,0,0,0,57,,,,,,,8.66,85.82,725.06534964566,18.700788,6,P-GPS,
12100,2023-10-10 22:26:07,40.0688879150857,-88.2097011531356,18.700788,,,725.06534964566,9.186352,0,0.3448326882,2.11269363716,23,10,21.4975,725.06534964566,18.700788,0.447388,0.41951116828,0,0,0,185.8, 1.5, 3.2,0,0,1024,1024,1024,1024,0,0,0,0,0,0,0,57,,,,,,,8.66,85.82,725.06534964566,18.700788,6,P-GPS,
12200,2023-10-10 22:26:07,40.0688878803653,-88.2097011255325,18.700788,,,725.06534964566,9.186352,0,0.3576607726,2.12751975312,23,10,21.4975,725.06534964566,18.700788,0.447388,0.41951116828,0,0,0,185.8, 2, 2.9,0,0,1024,1024,1024,1024,0,0,0,0,0,0,0,57,,,,,,,8.66,85.82,725.06534964566,18.700788,6,P-GPS,
12300,2023-10-10 22:26:07,40.0688878580477,-88.2097011103739,18.700788,,,725.06534964566,8.858268,0,0.36536418492,2.13669954344,23,10,21.4975,725.06534964566,18.700788,0.447388,0.41951116828,0,0,0,185.8, 2.2, 2.4,0,0,1024,1024,1065,1024,0,0,6,0,0,0,0,57,,,,,,,8.66,85.82,725.06534964566,18.700788,6,P-GPS,
12400,2023-10-10 22:26:07,40.0688877577598,-88.2097010515125,18.700788,,,725.06534964566,8.530184,0,0.39857612824,2.17681109328,23,10,21.4975,725.06534964566,18.700788,0.447388,0.41951116828,0,0,0,185.7, 1.8, 2.2,0,0,1024,1024,1552,1024,0,0,80,0,0,0,0,57,,,,,,,8.66,85.82,725.06534964566,18.700788,6,P-GPS,
12500,2023-10-10 22:26:07,40.0688877356413,-88.2097010360952,18.700788,,,725.06534964566,8.530184,0,0.40663387128,2.18595479436,23,10,21.668,725.06534964566,18.700788,0.447388,0.41951116828,0,0,0,185.6, 1.6, 2,0,0,1024,1024,1552,1024,0,0,80,0,0,0,0,57,,,,,,,8.196,85.82,725.06534964566,18.700788,6,P-GPS,
12600,2023-10-10 22:26:08,40.0688877272021,-88.2097010163863,19.028872,,,725.39343364566,8.530184,0,0.41291667988,2.19226056884,23,10,21.668,725.39343364566,19.028872,0.447388,0.41951116828,0,0,-0.447388,185.5, 1.4, 1.7,0,0,1024,1024,1024,1024,0,0,0,0,0,0,0,57,,,,,,,8.196,85.82,725.39343364566,19.028872,6,P-GPS,
12700,2023-10-10 22:26:08,40.0688876585998,-88.2097009618652,19.028872,,,725.39343364566,8.858268,0,0.43968505344,2.2215551892,23,10,21.668,725.39343364566,19.028872,0.447388,0.43968505344,0,0,-0.671082,185.5, 0.8, 2,0,0,1024,1024,1024,1024,0,0,0,0,0,0,0,57,,,,,,,8.196,85.82,725.39343364566,19.028872,6,P-GPS,
12800,2023-10-10 22:26:08,40.0688876701776,-88.2097009257421,19.028872,,,725.39343364566,8.858268,0,0.44554135284,2.23249022892,23,10,21.668,725.39343364566,19.028872,0.447388,0.44554135284,0,0,-0.223694,185.6, 0.5, 2.6,0,0,1024,1024,1024,1024,0,0,0,0,0,0,0,57,,,,,,,8.196,85.82,725.39343364566,19.028872,6,P-GPS,
12900,2023-10-10 22:26:08,40.0688876873354,-88.2097009034339,19.028872,,,725.39343364566,8.858268,0,0.44724082796,2.2413222502,23,10,21.668,725.39343364566,19.028872,0.447388,0.44724082796,0,0,-0.223694,185.5, 0.4, 3,0,0,1024,1024,1024,1024,0,0,0,0,0,0,0,57,,,,,,,8.196,85.82,725.39343364566,19.028872,6,P-GPS,
13000,2023-10-10 22:26:08,40.068887691218,-88.2097008994181,19.028872,,,725.39343364566,9.186352,0,0.4474081508,2.24312999304,23,10,21.668,725.39343364566,19.028872,0.447388,0.4474081508,0,0,-0.223694,185.5, 0.9, 2.6,0,0,1024,1024,1024,1024,0,0,0,0,0,0,0,57,,,,,,,8.196,85.82,725.39343364566,19.028872,6,P-GPS,
13100,2023-10-10 22:26:08,40.0688876700761,-88.209700897293,19.028872,,,725.39343364566,9.186352,0,0.45214240292,2.25086621376,23,10,21.668,725.39343364566,19.028872,0.447388,0.45214240292,0,0,0,185.6, 0.9, 2.3,0,0,1024,1024,1058,1024,0,0,5,0,0,0,0,57,,,,,,,8.196,85.82,725.39343364566,19.028872,6,P-GPS,
13200,2023-10-10 22:26:08,40.0688877133407,-88.2097009145809,19.028872,,,725.39343364566,9.186352,0,0.4394849222,2.2673721198,23,10,21.668,725.39343364566,19.028872,0.447388,0.45214240292,0,0,0,185.6, 0.8, 1.9,0,0,1024,1024,1414,1024,0,0,59,0,0,0,0,57,,,,,,,8.196,85.82,725.39343364566,19.028872,6,P-GPS,
13300,2023-10-10 22:26:08,40.0688877532839,-88.2097009303722,19.028872,,,725.39343364566,8.858268,0,0.42807087984,2.28259849824,23,10,21.668,725.39343364566,19.028872,0.447388,0.45214240292,0,0,0,185.7, 0.5, 1.8,0,0,1024,1024,1462,1024,0,0,66,0,0,0,0,57,,,,,,,8.196,85.82,725.39343364566,19.028872,6,P-GPS,
13400,2023-10-10 22:26:08,40.0688877603169,-88.2097009388245,19.356956,,,725.72151764566,8.858268,0,0.42472770388,2.28608275032,23,10,21.668,725.72151764566,19.356956,0.447388,0.45214240292,0,0,-0.447388,185.6, 0.7, 1.7,0,0,1024,1024,1462,1024,0,0,66,0,0,0,0,57,,,,,,,8.196,85.82,725.72151764566,19.356956,6,P-GPS,
13500,2023-10-10 22:26:08,40.0688877753014,-88.2097009634096,19.356956,,,725.72151764566,9.186352,0,0.41603019704,2.29485899732,23,10,21.585,725.72151764566,19.356956,0.447388,0.45214240292,0,0,-0.894776,185.6, 0.7, 1.8,0,0,1024,1024,1033,1024,0,0,1,0,0,0,0,57,,,,,,,8,85.82,725.72151764566,19.356956,6,P-GPS,
13600,2023-10-10 22:26:09,40.0688877705763,-88.209700993044,19.356956,,,725.72151764566,9.186352,0,0.4098425328,2.30331044116,23,10,21.585,725.72151764566,19.356956,0.447388,0.45214240292,0,0,-0.894776,185.6, 0.7, 2.3,0,0,1024,1024,1024,1024,0,0,0,0,0,0,0,57,,,,,,,8,85.82,725.72151764566,19.356956,6,P-GPS,
13700,2023-10-10 22:26:09,40.0688877604749,-88.2097010177532,19.68504,,,726.04960164566,9.186352,0,0.40594817572,2.31113196372,23,10,21.585,726.04960164566,19.68504,0.447388,0.45214240292,0,0,-0.671082,185.7, 1.1, 2.9,0,0,1024,1024,1024,1024,0,0,0,0,0,0,0,57,,,,,,,8,85.82,726.04960164566,19.68504,6,P-GPS,
13800,2023-10-10 22:26:09,40.06888771198,-88.2097010260213,19.68504,,,726.04960164566,9.186352,0,0.4138287534,2.32897645248,23,10,21.585,726.04960164566,19.68504,0.447388,0.45214240292,0,0,-0.447388,185.7, 1.6, 2.9,0,0,1024,1024,1024,1024,0,0,0,0,0,0,0,57,,,,,,,8,85.82,726.04960164566,19.68504,6,P-GPS,
13900,2023-10-10 22:26:09,40.0688877237921,-88.2097010507928,19.68504,,,726.04960164566,8.858268,0,0.40568898936,2.33712605904,23,10,21.585,726.04960164566,19.68504,0.447388,0.45214240292,0,0,-0.447388,185.8, 1.7, 2.7,0,0,1024,1024,1024,1024,0,0,0,0,0,0,0,57,,,,,,,8,85.82,726.04960164566,19.68504,6,P-GPS,
14000,2023-10-10 22:26:09,40.0688877537963,-88.2097010712469,20.013124,,,726.37768564566,8.858268,0,0.39479331972,2.34947185996,23,10,21.585,726.37768564566,20.013124,0.447388,0.45214240292,0,0,-0.223694,185.8, 1.5, 2.5,0,0,1024,1024,1024,1024,0,0,0,0,0,0,0,57,,,,,,,8,85.82,726.37768564566,20.013124,6,P-GPS,
14100,2023-10-10 22:26:09,40.068887734193,-88.2097010517439,20.013124,,,726.37768564566,8.858268,0,0.40331694204,2.35846136156,23,10,21.585,726.37768564566,20.013124,0.447388,0.45214240292,0,0,-0.223694,185.8, 1, 2.4,0,0,1024,1024,1024,1024,0,0,0,0,0,0,0,57,,,,,,,8,85.82,726.37768564566,20.013124,6,P-GPS,
14200,2023-10-10 22:26:09,40.0688877556606,-88.2097010923676,20.013124,,,726.37768564566,8.530184,0,0.38953085236,2.3722441704,23,10,21.585,726.37768564566,20.013124,0.447388,0.45214240292,0,0,0,185.8, 0.7, 2.2,0,0,1024,1024,1024,1024,0,0,0,0,0,0,0,57,,,,,,,8,85.82,726.37768564566,20.013124,6,P-GPS,
14300,2023-10-10 22:26:09,40.0688877765929,-88.2097011322826,20.013124,,,726.37768564566,8.530184,0,0.37602035324,2.38575466952,23,10,21.585,726.37768564566,20.013124,0.447388,0.45214240292,0,0,0,185.8, 0.7, 1.9,0,0,1024,1024,1024,1024,0,0,0,0,0,0,0,57,,,,,,,8,85.82,726.37768564566,20.013124,6,P-GPS,
14400,2023-10-10 22:26:09,40.0688877920995,-88.2097011738649,20.013124,,,726.37768564566,8.2021,0,0.36324804312,2.3986713366,23,10,21.585,726.37768564566,20.013124,0.447388,0.45214240292,0,0,0,185.8, 0.6, 1.8,0,0,1024,1024,1024,1024,0,0,0,0,0,0,0,57,,,,,,,8,85.82,726.37768564566,20.013124,6,P-GPS,
14500,2023-10-10 22:26:09,40.068887763757,-88.2097012040622,20.013124,,,726.37768564566,8.2021,0,0.36244423732,2.41201451288,23,10,21.6485,726.37768564566,20.013124,0.447388,0.45214240292,0,0,0,185.9, 0.7, 1.7,0,0,1024,1024,1024,1024,0,0,0,0,0,0,0,57,,,,,,,8.196,85.82,726.37768564566,20.013124,6,P-GPS,
14600,2023-10-10 22:26:10,40.068887801267,-88.2097012225896,20.013124,,,726.37768564566,7.874016,0,0.35019358076,2.42664377844,23,10,21.6485,726.37768564566,20.013124,0.447388,0.45214240292,0,0,0,185.9, 0.6, 1.9,0,0,1024,1024,1024,1024,0,0,0,0,0,0,0,57,,,,,,,8.196,85.82,726.37768564566,20.013124,6,P-GPS,
14700,2023-10-10 22:26:10,40.0688878390789,-88.2097012310763,20.013124,,,726.37768564566,7.874016,0,0.34039699252,2.44064312272,23,10,21.6485,726.37768564566,20.013124,0.447388,0.45214240292,0,0,0,185.9, 0.7, 2.1,0,0,1024,1024,1024,1024,0,0,0,0,0,0,0,57,,,,,,,8.196,85.82,726.37768564566,20.013124,6,P-GPS,
14800,2023-10-10 22:26:10,40.0688878566237,-88.2097012009546,20.013124,,,726.37768564566,7.874016,0,0.34396654644,2.45121070836,23,10,21.6485,726.37768564566,20.013124,0.447388,0.45214240292,0,0,0,185.9, 0.6, 2.3,0,0,1299,1024,1024,1024,42,0,0,0,0,0,0,57,,,,,,,8.196,85.82,726.37768564566,20.013124,6,P-GPS,
14900,2023-10-10 22:26:10,40.0688878966013,-88.2097011996521,20.013124,,,726.37768564566,7.874016,0,0.33674213676,2.46580060384,23,10,21.6485,726.37768564566,20.013124,0.447388,0.45214240292,0,0,0,185.9, 0.4, 2.3,0,0,1684,1024,1024,1024,100,0,0,0,0,0,0,57,,,,,,,8.196,85.82,726.37768564566,20.013124,6,P-GPS,
15000,2023-10-10 22:26:10,40.068887923909,-88.2097012037422,20.013124,,,726.37768564566,7.874016,0,0.33086615232,2.47583013172,23,10,21.6485,726.37768564566,20.013124,0.447388,0.45214240292,0,0,0,185.7, -3.8, 2.3,0,0,1684,1024,1024,1024,100,0,0,0,0,0,0,57,,,,,,,8.196,85.82,726.37768564566,20.013124,6,P-GPS,
15100,2023-10-10 22:26:10,40.0688878899305,-88.2097012149818,20.013124,,,726.37768564566,7.874016,0,0.33428150676,2.48861884604,23,10,21.6485,726.37768564566,20.013124,0.447388,0.45214240292,0,0,0,185.3, -13.7, 2.3,0,0,1684,1024,1024,1024,100,0,0,0,0,0,0,57,,,,,,,8.196,85.82,726.37768564566,20.013124,6,P-GPS,
15200,2023-10-10 22:26:10,40.0688875651889,-88.2097012314923,20.013124,,,726.37768564566,7.874016,0.671082,0.40455709956,2.60718840364,23,10,21.6485,726.37768564566,20.013124,0.671082,0.45214240292,-0.671082,0,0,184.9, -21.1, 2,0,0,1684,1024,1024,1024,100,0,0,0,0,0,0,57,,,,,,,8.196,85.82,726.37768564566,20.013124,6,P-GPS,
15300,2023-10-10 22:26:10,40.068886977776,-88.2097013048362,20.013124,,,726.37768564566,7.874016,1.565858,0.5678969998,2.82248368612,23,10,21.6485,726.37768564566,20.013124,1.565858,0.5678969998,-1.565858,0,0,184.9, -23.8, 1.7,0,0,1684,1024,1024,1024,100,0,0,0,0,0,0,57,,,,,,,8.196,85.82,726.37768564566,20.013124,6,P-GPS,
15400,2023-10-10 22:26:10,40.0688859552768,-88.2097014212041,19.68504,,,726.04960164566,7.874016,2.684328,0.90640094764,3.19695220204,23,10,21.6485,726.37768564566,20.013124,2.684328,0.90640094764,-2.684328,0,0,184.8, -24.3, 1.5,0,0,1684,1024,1024,1024,100,0,0,0,0,0,0,57,,,,,,,8.196,85.82,726.04960164566,19.68504,6,P-GPS,
15500,2023-10-10 22:26:11,40.0688845714291,-88.2097015063158,20.013124,,,726.37768564566,7.874016,3.579104,1.39697511032,3.7023951316,23,10,21.581,726.37768564566,20.013124,3.579104,1.39697511032,-3.579104,-0.223694,0,184.8, -23.8, 1.7,0,0,1684,1024,1024,1024,100,0,0,0,0,0,0,57,,,,,,,9.929,86,726.37768564566,20.013124,6,P-GPS,
15600,2023-10-10 22:26:11,40.0688827555602,-88.2097016399921,20.013124,,,726.37768564566,7.874016,4.47388,2.05117460632,4.36597783,23,10,21.581,726.37768564566,20.013124,4.47388,2.05117460632,-4.47388,-0.223694,0,184.9, -22.8, 2.4,0,0,1684,1024,1024,1024,100,0,0,0,0,0,0,57,,,,,,,9.929,86,726.37768564566,20.013124,6,P-GPS,
15700,2023-10-10 22:26:11,40.0688806979996,-88.2097018049726,20.013124,,,726.37768564566,7.874016,5.368656,2.79761819976,5.1180775916,23,10,21.581,726.37768564566,20.013124,5.368656,2.79761819976,-5.368656,-0.223694,0,185, -22.4, 3.3,0,0,1684,1024,1024,1024,100,0,0,0,0,0,0,57,,,,,,,9.929,86,726.37768564566,20.013124,6,P-GPS,
15800,2023-10-10 22:26:11,40.0688782116981,-88.2097020412975,20.013124,,,726.37768564566,7.874016,6.2858014,3.7024935568,6.0276248648,23,10,21.581,726.37768564566,20.013124,6.2858014,3.7024935568,-6.263432,-0.447388,0,185.1, -21.9, 3.5,0,0,1684,1024,1024,1024,100,0,0,0,0,0,0,57,,,,,,,9.929,86,726.37768564566,20.013124,6,P-GPS,
15900,2023-10-10 22:26:11,40.0688755617743,-88.209702305002,20.013124,,,726.37768564566,7.874016,6.9568834,4.6688977872,6.9972443184,23,10,21.581,726.37768564566,20.013124,6.9568834,4.6688977872,-6.934514,-0.447388,0,185.1, -21.9, 3.4,0,0,1684,1024,1024,1024,100,0,0,0,0,0,0,57,,,,,,,9.929,86,726.37768564566,20.013124,6,P-GPS,
16000,2023-10-10 22:26:11,40.0688725222539,-88.209702667649,20.013124,,,726.37768564566,7.874016,7.8516594,5.7790684264,8.1108270312,23,10,21.581,726.37768564566,20.013124,7.8516594,5.7790684264,-7.82929,-0.671082,0,185.2, -22.1, 3.1,0,0,1684,1024,1024,1024,100,0,0,0,0,0,0,57,,,,,,,9.929,86,726.37768564566,20.013124,6,P-GPS,
16100,2023-10-10 22:26:11,40.0688693449222,-88.2097030632844,20.013124,,,726.37768564566,7.874016,8.5227414,6.9408794872,9.2753283808,23,10,21.581,726.37768564566,20.013124,8.5227414,6.9408794872,-8.500372,-0.671082,0,185.2, -22.2, 2.8,0,0,1684,1024,1024,1024,100,0,0,0,0,0,0,57,,,,,,,9.929,86,726.37768564566,20.013124,6,P-GPS,
16200,2023-10-10 22:26:11,40.068865702358,-88.2097035618768,20.013124,,,726.37768564566,7.874016,9.4175174,8.27427848,10.6115817044,23,10,21.581,726.37768564566,20.013124,9.4175174,8.27427848,-9.395148,-0.671082,0,185.2, -22.6, 2.6,0,0,1684,1024,1024,1024,100,0,0,0,0,0,0,57,,,,,,,9.929,86,726.37768564566,20.013124,6,P-GPS,
16300,2023-10-10 22:26:11,40.0688619259146,-88.2097040563567,20.013124,,,726.37768564566,7.874016,10.1109688,9.6571853484,11.9962930348,23,10,21.581,726.37768564566,20.013124,10.1109688,9.6571853484,-10.06623,-0.894776,0,185.2, -22.6, 2.7,0,0,1024,1024,1024,1024,0,0,0,0,0,0,0,57,,,,,,,9.929,86,726.37768564566,20.013124,6,P-GPS,
16400,2023-10-10 22:26:11,40.0688576402206,-88.2097046029513,20.013124,,,726.37768564566,7.874016,11.0057448,11.2269032464,13.5673560772,23,10,21.581,726.37768564566,20.013124,11.0057448,11.2269032464,-10.961006,-0.894776,0,185.1, -22.6, 2.8,0,0,1024,1024,1024,1024,0,0,0,0,0,0,0,57,,,,,,,9.929,86,726.37768564566,20.013124,6,P-GPS,
16500,2023-10-10 22:26:12,40.0688532746887,-88.2097051626446,20.013124,,,726.37768564566,7.874016,11.6768268,12.8262143212,15.1677826376,23,10,21.581,726.37768564566,20.013124,11.6768268,12.8262143212,-11.632088,-0.894776,0,185.2, -17.6, 2.9,0,0,1024,1024,1024,1024,0,0,0,0,0,0,0,57,,,,,,,9.929,86,726.37768564566,20.013124,6,P-GPS,
16600,2023-10-10 22:26:12,40.0688483638229,-88.2097058292745,20.013124,,,726.37768564566,7.874016,12.1242148,14.6263456124,16.969160648,23,10,21.5995,726.37768564566,20.013124,12.1242148,14.6263456124,-12.079476,-1.11847,-0.223694,186, -2.5, 2.8,0,0,1024,1024,1024,1024,0,0,0,0,0,0,0,57,,,,,,,9.435,85.82,726.37768564566,20.013124,6,P-GPS,
16700,2023-10-10 22:26:12,40.0688437589486,-88.2097064367376,20.013124,,,726.37768564566,7.874016,11.9005208,16.3141737504,18.6577761876,23,10,21.5995,726.37768564566,20.013124,12.1242148,16.3141737504,-11.855782,-1.11847,0,186.8, 14.2, 2.8,0,0,1024,1024,1024,1024,0,0,0,0,0,0,0,57,,,,,,,9.435,85.82,726.37768564566,20.013124,6,P-GPS,
16800,2023-10-10 22:26:12,40.0688392021464,-88.2097070211876,20.013124,,,726.37768564566,7.874016,11.9005208,17.9842197356,20.3283142988,23,10,21.5995,726.37768564566,20.013124,12.1242148,17.9842197356,-10.961006,-0.894776,0,187.2, 22, 3.2,0,0,772,1024,1024,1024,-38,0,0,0,0,0,0,57,,,,,,,9.435,85.82,726.37768564566,20.013124,6,P-GPS,
16900,2023-10-10 22:26:12,40.0688351080518,-88.2097075490156,20.013124,,,726.37768564566,7.874016,10.1109688,19.4847775264,21.8292985988,23,10,21.5995,726.37768564566,20.013124,12.1242148,19.4847775264,-10.06623,-0.894776,0,187.2, 25.4, 3,0,0,364,1024,1024,1024,-100,0,0,0,0,0,0,57,,,,,,,9.435,85.82,726.37768564566,20.013124,6,P-GPS,
17000,2023-10-10 22:26:12,40.0688314002363,-88.2097080829847,20.013124,,,726.37768564566,7.874016,8.9924988,20.8450465988,23.1902566476,23,10,21.5995,726.37768564566,20.013124,12.1242148,20.8450465988,-8.94776,-0.894776,0,187, 26.2, 2.1,0,0,364,981,1024,1024,-100,-7,0,0,0,0,0,57,,,,,,,9.435,85.82,726.37768564566,20.013124,6,P-GPS,
17100,2023-10-10 22:26:12,40.0688283303955,-88.2097085222649,19.68504,,,726.04960164566,7.874016,7.8516594,21.9712605456,24.3169955288,23,10,21.5995,726.37768564566,20.013124,12.1242148,21.9712605456,-7.82929,-0.671082,0,186.6, 26.3, 1.1,0,0,364,981,1024,1024,-100,-7,0,0,0,0,0,57,,,,,,,9.435,85.82,726.04960164566,19.68504,6,P-GPS,
17200,2023-10-10 22:26:12,40.0688256456861,-88.2097088584008,19.68504,,,726.04960164566,7.874016,6.5094954,22.9551516532,25.3009850616,23,10,21.5995,726.37768564566,20.013124,12.1242148,22.9551516532,-6.487126,-0.447388,0,186.2, 25.6, 0.3,0,0,404,946,1024,1024,-94,-12,0,0,0,0,0,57,,,,,,,9.435,85.82,726.04960164566,19.68504,6,P-GPS,
17300,2023-10-10 22:26:12,40.0688232940648,-88.2097091156151,19.68504,,,726.04960164566,7.874016,5.368656,23.8161424944,26.1619759028,23,10,21.5995,726.37768564566,20.013124,12.1242148,23.8161424944,-5.368656,-0.223694,0,185.9, 24.6, 0,0,0,1024,1024,1024,1024,0,0,0,0,0,0,0,57,,,,,,,9.435,85.82,726.04960164566,19.68504,6,P-GPS,
17400,2023-10-10 22:26:12,40.0688213068476,-88.2097093439275,19.68504,,,726.04960164566,11.154856,5.368656,24.54396404,26.8898302568,23,10,21.5995,726.37768564566,20.013124,12.1242148,24.54396404,-4.47388,-0.223694,0,185.7, 23.5, 0.2,0,0,1024,1024,1024,1024,0,0,0,0,0,0,0,57,,,,,,,9.435,85.82,726.04960164566,19.68504,6,P-GPS,
17500,2023-10-10 22:26:13,40.068819779785,-88.2097094793385,19.68504,,,726.04960164566,11.154856,3.35541,25.1023301996,27.4482620332,23,10,21.5995,726.37768564566,20.013124,12.1242148,25.1023301996,-3.35541,0,0,185.7, 21, 1.5,0,0,1024,1024,1024,1024,0,0,0,0,0,0,0,57,,,,,,,9.435,85.82,726.04960164566,19.68504,6,P-GPS,
17600,2023-10-10 22:26:13,40.0688181660654,-88.2097096403683,19.68504,,,726.04960164566,10.826772,2.460634,25.6928157828,28.038714808,23,10,21.5995,726.37768564566,20.013124,12.1242148,25.6928157828,-2.460634,0,0,185.4, 13.7, 2,0,0,1024,1024,1024,1024,0,0,0,0,0,0,0,57,,,,,,,9.435,85.82,726.04960164566,19.68504,6,P-GPS,
17700,2023-10-10 22:26:13,40.0688171196749,-88.2097096943124,19.68504,,,726.04960164566,11.154856,2.460634,26.0745743252,28.4208014344,23,10,21.5995,726.37768564566,20.013124,12.1242148,26.0745743252,-2.013246,0,0,185.2, 5.7, 2.2,0,0,1024,1024,1024,1024,0,0,0,0,0,0,0,57,,,,,,,9.435,85.82,726.04960164566,19.68504,6,P-GPS,
17800,2023-10-10 22:26:13,40.0688161001626,-88.20970975893,19.68504,,,726.04960164566,11.154856,1.789552,26.4467856232,28.7932095828,23,10,21.5995,726.37768564566,20.013124,12.1242148,26.4467856232,-1.789552,0,0,185.1, 1.2, 2,0,0,1024,1024,1024,1024,0,0,0,0,0,0,0,57,,,,,,,9.435,85.82,726.04960164566,19.68504,6,P-GPS,
17900,2023-10-10 22:26:13,40.0688151341155,-88.209709828512,19.68504,,,726.04960164566,11.154856,1.789552,26.7996727736,29.1461951584,23,10,21.5995,726.37768564566,20.013124,12.1242148,26.7996727736,-1.789552,0,0,185.2, 0.5, 1.6,0,0,1024,1024,1024,1024,0,0,0,0,0,0,0,57,,,,,,,9.435,85.82,726.04960164566,19.68504,6,P-GPS,
18000,2023-10-10 22:26:13,40.0688140637681,-88.2097098058265,19.68504,,,726.04960164566,10.826772,1.789552,27.188485122,29.5367791604,23,10,21.5995,726.37768564566,20.013124,12.1242148,27.188485122,-1.789552,0,0,185.4, 1.8, 1.4,0,0,1024,1684,1024,1024,0,100,0,0,0,0,0,57,,,,,,,9.435,85.82,726.04960164566,19.68504,6,P-GPS,
18100,2023-10-10 22:26:13,40.0688132026294,-88.2097098105691,19.68504,,,726.04960164566,10.826772,1.565858,27.5018381504,29.8509523988,23,10,21.5995,726.37768564566,20.013124,12.1242148,27.5018381504,-1.565858,0,0,185.7, 3.5, 1.9,0,0,1024,1684,1024,1024,0,100,0,0,0,0,0,57,,,,,,,9.435,85.82,726.04960164566,19.68504,6,P-GPS,
18200,2023-10-10 22:26:13,40.0688123982369,-88.2097098186595,19.68504,,,726.04960164566,10.826772,1.342164,27.7946531204,30.1444563452,23,10,21.5995,726.37768564566,20.013124,12.1242148,27.7946531204,-1.342164,0,0,185.9, 4.3, 7.9,0,0,1024,1684,1024,1024,0,100,0,0,0,0,0,57,,,,,,,9.435,85.82,726.04960164566,19.68504,6,P-GPS,
18300,2023-10-10 22:26:13,40.0688118006972,-88.2097097816363,19.356956,,,725.72151764566,10.498688,1.11847,28.0112541772,30.362697822,23,10,21.5995,726.37768564566,20.013124,12.1242148,28.0112541772,-1.11847,0,0,186.2, 4.3, 17.6,0,0,1024,1684,1024,1024,0,100,0,0,0,0,0,57,,,,,,,9.435,85.82,725.72151764566,19.356956,6,P-GPS,
18400,2023-10-10 22:26:13,40.0688112515511,-88.2097101372817,19.356956,,,725.72151764566,10.498688,1.11847,28.2186360736,30.5863198764,23,10,21.5995,726.37768564566,20.013124,12.1242148,28.2186360736,-0.894776,-0.671082,0,186.2, 3.7, 22.2,0,0,1024,1684,1024,1024,0,100,0,0,0,0,0,57,,,,,,,9.435,85.82,725.72151764566,19.356956,6,P-GPS,
18500,2023-10-10 22:26:13,40.0688108258177,-88.2097108769941,19.356956,,,725.72151764566,10.498688,1.7000744,28.390256814,30.8447516432,23,10,21.573,726.37768564566,20.013124,12.1242148,28.390256814,-0.671082,-1.565858,0,186.1, 3.1, 24.1,0,0,1024,1684,1024,1024,0,100,0,0,0,0,0,57,,,,,,,10.124,85.82,725.72151764566,19.356956,6,P-GPS,
18600,2023-10-10 22:26:14,40.0688105351477,-88.2097121657056,19.356956,,,725.72151764566,10.498688,2.5053728,28.5286426452,31.2198500804,23,10,21.573,726.37768564566,20.013124,12.1242148,28.5286426452,-0.447388,-2.460634,0,186.1, 2.7, 24.1,0,0,1024,1684,1024,1024,0,100,0,0,0,0,0,57,,,,,,,10.124,85.82,725.72151764566,19.356956,6,P-GPS,
18700,2023-10-10 22:26:14,40.0688104038879,-88.2097137486628,19.356956,,,725.72151764566,10.498688,3.35541,28.6225074776,31.6644367088,23,10,21.573,726.37768564566,20.013124,12.1242148,28.6225074776,-0.223694,-3.35541,0,186, 2.4, 23.7,0,0,1024,1684,1024,1024,0,100,0,0,0,0,0,57,,,,,,,10.124,85.82,725.72151764566,19.356956,6,P-GPS,
18800,2023-10-10 22:26:14,40.0688102595038,-88.2097159725235,19.68504,,,726.04960164566,10.498688,3.35541,28.7510507888,32.28756665,23,10,21.573,726.37768564566,20.013124,12.1242148,28.7510507888,-0.223694,-4.250186,0,186, 2.1, 23.5,0,0,1024,1684,1024,1024,0,100,0,0,0,0,0,57,,,,,,,10.124,85.82,726.04960164566,19.68504,6,P-GPS,
18900,2023-10-10 22:26:14,40.0688101927173,-88.2097184718449,19.68504,,,726.04960164566,10.498688,4.921268,28.8764444936,32.985893444,23,10,21.573,726.37768564566,20.013124,12.1242148,28.8764444936,0,-4.921268,0,186, 2, 23.5,0,0,1024,1436,1024,1024,0,62,0,0,0,0,0,57,,,,,,,10.124,85.82,726.04960164566,19.68504,6,P-GPS,
