time(millisecond),datetime(utc),latitude,longitude,height_above_takeoff(feet),height_above_ground_at_drone_location(feet),ground_elevation_at_drone_location(feet),altitude_above_seaLevel(feet),height_sonar(feet),speed(mph),distance(feet),mileage(feet),satellites,gpslevel,voltage(v),max_altitude(feet),max_ascent(feet),max_speed(mph),max_distance(feet), xSpeed(mph), ySpeed(mph), zSpeed(mph), compass_heading(degrees), pitch(degrees), roll(degrees),isPhoto,isVideo,rc_elevator,rc_aileron,rc_throttle,rc_rudder,rc_elevator(percent),rc_aileron(percent),rc_throttle(percent),rc_rudder(percent),gimbal_heading(degrees),gimbal_pitch(degrees),gimbal_roll(degrees),battery_percent,voltageCell1,voltageCell2,voltageCell3,voltageCell4,voltageCell5,voltageCell6,current(A),battery_temperature(f),altitude(feet),ascent(feet),flycStateRaw,flycState,message
0,2023-10-10 21:37:53,40.0688717992478,-88.2096728735593,0,Available with any HD 360 subscription,Available with any HD 360 subscription,706.40956722453,0.656168,0,0,0,24,10,0,706.40956722453,0,0,0,0,0,0,276.7, -1.7, -2.6,0,0,364,364,364,1684,-100,-100,-100,100,0,0,0,90,,,,,,,0,86.9,706.40956722453,0,41,Motors_Started,"GEO: You are in a Warning Zone (Airport). Fly with caution.. Setting new Return-To-Home altitude to 100m (328 ft). Data Recorder File Index is 34. Setting new Maximum Flight Altitude to 120m (394 ft)"
100,2023-10-10 21:37:53,40.068871814727,-88.2096728707586,0,,,706.40956722453,0.656168,0,0.0057014765604,0.0057014765604,24,10,0,706.40956722453,0,0,0.0057014765604,0,0,0,276.7, -1.7, -2.6,0,0,364,364,364,1684,-100,-100,-100,100,0,0,0,90,,,,,,,0,86.9,706.40956722453,0,41,Motors_Started,
200,2023-10-10 21:37:53,40.0688718272894,-88.209672866511,0,,,706.40956722453,0.656168,0,0.0104185042704,0.0104357942972,24,10,0,706.40956722453,0,0,0.0104185042704,0,0,0,276.7, -1.7, -2.6,0,0,364,364,364,1684,-100,-100,-100,100,0,0,0,90,,,,,,,0,86.9,706.40956722453,0,41,Motors_Started,
300,2023-10-10 21:37:54,40.0688718373458,-88.2096728595656,0,,,706.40956722453,0.656168,0,0.0144387471812,0.0145858272384,24,10,0,706.40956722453,0,0,0.0144387471812,0,0,0,276.7, -1.7, -2.6,0,0,364,364,364,1684,-100,-100,-100,100,0,0,0,90,,,,,,,0,86.9,706.40956722453,0,41,Motors_Started,
400,2023-10-10 21:37:54,40.0688718253933,-88.2096728690867,0,,,706.40956722453,0.656168,0,0.009620571174,0.0196931108664,24,10,0,706.40956722453,0,0,0.0144387471812,0,0,0,276.7, -1.7, -2.6,0,0,364,364,364,1684,-100,-100,-100,100,0,0,0,90,,,,,,,0,86.9,706.40956722453,0,41,Motors_Started,
500,2023-10-10 21:37:54,40.0688718327172,-88.2096728941239,0,,,706.40956722453,0.656168,0,0.0134938652612,0.0271770349904,24,10,0,706.40956722453,0,0,0.0144387471812,0,0,0,276.7, -1.7, -2.6,0,0,364,364,364,1684,-100,-100,-100,100,0,0,0,90,,,,,,,0,86.9,706.40956722453,0,41,Motors_Started,
600,2023-10-10 21:37:54,40.0688718363607,-88.2096729209744,0,,,706.40956722453,0.656168,0,0.0189370740968,0.034791011612,24,10,0,706.40956722453,0,0,0.0189370740968,0,0,0,276.7, -1.7, -2.6,0,0,364,364,364,1684,-100,-100,-100,100,0,0,0,90,,,,,,,0,86.9,706.40956722453,0,41,Motors_Started,
700,2023-10-10 21:37:54,40.0688717990793,-88.2096729864544,0,,,706.40956722453,0.656168,0,0.0315213920848,0.057578413916,24,10,0,706.40956722453,0,0,0.0315213920848,0,0,0,276.7, -1.7, -2.6,0,0,364,364,364,1684,-100,-100,-100,100,0,0,0,90,,,,,,,0,86.9,706.40956722453,0,41,Motors_Started,
800,2023-10-10 21:37:54,40.0688718093737,-88.2096729953235,0,,,706.40956722453,0.656168,0,0.03419783574,0.062077101724,24,10,0,706.40956722453,0,0,0.03419783574,0,0,0,276.7, -1.6, -2.6,0,0,364,364,364,1684,-100,-100,-100,100,0,0,0,90,,,,,,,0,86.9,706.40956722453,0,41,Motors_Started,
900,2023-10-10 21:37:54,40.0688718250023,-88.2096729960848,0,,,706.40956722453,0.656168,0,0.03547736334,0.067783138652,24,10,0,706.40956722453,0,0,0.03547736334,0,0,0,276.7, -1.7, -2.6,0,0,364,364,364,1684,-100,-100,-100,100,0,0,0,90,,,,,,,0,86.9,706.40956722453,0,41,Motors_Started,
1000,2023-10-10 21:37:54,40.0688718386192,-88.2096729927882,0,,,706.40956722453,0.656168,0,0.036256890924,0.072835960336,24,10,24.1305,706.40956722453,0,0,0.036256890924,0,0,0,276.8, -1.5, -2.6,0,0,881,1024,1024,1024,-22,0,0,0,0,0,0,90,,,,,,,4.891,86.9,706.40956722453,0,41,Motors_Started,
1100,2023-10-10 21:37:54,40.0688718063485,-88.2096730123785,0,,,706.40956722453,0.656168,0,0.038846129852,0.085818244216,24,10,24.1305,706.40956722453,0,0,0.038846129852,0,0,0,276.7, -1.6, -2.6,0,0,881,1024,1024,1024,-22,0,0,0,0,0,0,90,,,,,,,4.891,86.9,706.40956722453,0,41,Motors_Started,
1200,2023-10-10 21:37:55,40.0688718165348,-88.2096730126662,0,,,706.40956722453,0.656168,0,0.03934875454,0.08953576402,24,10,24.1305,706.40956722453,0,0,0.03934875454,0,0,0,276.6, -1.6, -2.6,0,0,1024,1024,1024,1024,0,0,0,0,0,0,0,90,,,,,,,4.891,86.9,706.40956722453,0,41,Motors_Started,
1300,2023-10-10 21:37:55,40.0688718340662,-88.2096730137158,0,,,706.40956722453,0.656168,0,0.04114337402,0.095938651364,24,10,24.1305,706.40956722453,0,0,0.04114337402,0,0,0,276.5, -1.6, -2.6,0,0,1024,1024,1024,1024,0,0,0,0,0,0,0,90,,,,,,,4.891,86.9,706.40956722453,0,41,Motors_Started,
1400,2023-10-10 21:37:55,40.0688718014886,-88.2096730220935,0,,,706.40956722453,0.656168,0,0.041479988204,0.108052496896,24,10,24.1305,706.40956722453,0,0,0.041479988204,0,0,0,276.6, -1.6, -2.6,0,0,1024,1024,1024,1024,0,0,0,0,0,0,0,90,,,,,,,4.891,86.9,706.40956722453,0,41,Motors_Started,
1500,2023-10-10 21:37:55,40.0688717958648,-88.2096730165859,0,,,706.40956722453,0.656168,0,0.039953413352,0.11061680144,24,10,24.1305,706.40956722453,0,0,0.041479988204,0,0,0,276.6, -1.6, -2.6,0,0,1024,1024,1024,1024,0,0,0,0,0,0,0,90,,,,,,,4.891,86.9,706.40956722453,0,41,Motors_Started,
1600,2023-10-10 21:37:55,40.0688717874693,-88.2096730129518,0,,,706.40956722453,0.656168,0,0.039156169232,0.11384350758,24,10,24.1305,706.40956722453,0,0,0.041479988204,0,0,0,276.6, -1.6, -2.6,0,0,1024,1024,1024,1024,0,0,0,0,0,0,0,90,,,,,,,4.891,86.9,706.40956722453,0,41,Motors_Started,
1700,2023-10-10 21:37:55,40.0688717896747,-88.2096730037236,0,,,706.40956722453,0.656168,0,0.036510499856,0.116542982732,24,10,24.1305,706.40956722453,0,0,0.041479988204,0,0,0,276.6, -1.6, -2.6,0,0,1024,1024,1024,1024,0,0,0,0,0,0,0,90,,,,,,,4.891,86.9,706.40956722453,0,41,Motors_Started,
1800,2023-10-10 21:37:55,40.0688717671742,-88.2096730049076,0,,,706.40956722453,0.656168,0,0.038495408056,0.12475886226,24,10,24.1305,706.40956722453,0,0,0.041479988204,0,0,0,276.5, -1.6, -2.6,0,0,1024,1024,1024,1024,0,0,0,0,0,0,0,90,,,,,,,4.891,86.9,706.40956722453,0,41,Motors_Started,
1900,2023-10-10 21:37:55,40.0688717740728,-88.2096730023208,0,,,706.40956722453,0.656168,0,0.0371063004,0.127377300664,24,10,24.1305,706.40956722453,0,0,0.041479988204,0,0,0,276.5, -1.6, -2.6,0,0,1024,1024,1024,1024,0,0,0,0,0,0,0,90,,,,,,,4.891,86.9,706.40956722453,0,41,Motors_Started,
2000,2023-10-10 21:37:55,40.0688717804964,-88.2096730012278,0,,,706.40956722453,0.656168,0,0.036296589088,0.1297408178,24,10,24.187,706.40956722453,0,0,0.041479988204,0,0,0,276.6, -1.6, -2.6,0,0,1024,1024,1024,1024,0,0,0,0,0,0,0,90,,,,,,,1.466,86.9,706.40956722453,0,10,Assisted_Takeoff,
2100,2023-10-10 21:37:55,40.0688717533804,-88.2096730029447,0,,,706.40956722453,0.656168,0,0.039813321484,0.13964567376,24,10,24.187,706.40956722453,0,0,0.041479988204,0,0,0,276.6, -1.6, -2.6,0,0,1024,1024,1024,1024,0,0,0,0,0,0,0,90,,,,,,,1.466,86.9,706.40956722453,0,10,Assisted_Takeoff,
2200,2023-10-10 21:37:56,40.0688717543841,-88.2096729967901,0,,,706.40956722453,0.656168,0,0.03810203534,0.14140256358,24,10,24.187,706.40956722453,0,0,0.041479988204,0,0,0,276.6, -1.6, -2.6,0,0,1024,1024,1024,1024,0,0,0,0,0,0,0,90,,,,,,,1.466,86.9,706.40956722453,0,10,Assisted_Takeoff,
2300,2023-10-10 21:37:56,40.0688717512122,-88.2096729898933,0,,,706.40956722453,0.656168,0,0.03690780958,0.143649282812,24,10,24.187,706.40956722453,0,0,0.041479988204,0,0,0,276.5, -1.6, -2.6,0,0,1024,1024,1024,1024,0,0,0,0,0,0,0,90,,,,,,,1.466,86.9,706.40956722453,0,10,Assisted_Takeoff,
2400,2023-10-10 21:37:56,40.0688717574883,-88.2096729847503,0,,,706.40956722453,0.656168,0,0.034582678272,0.146352038804,24,10,24.187,706.40956722453,0,0,0.041479988204,0,0,0,276.5, -1.6, -2.6,0,0,1024,1024,1024,1024,0,0,0,0,0,0,0,90,,,,,,,1.466,86.9,706.40956722453,0,10,Assisted_Takeoff,
2500,2023-10-10 21:37:56,40.0688717379074,-88.2096730155354,0,,,706.40956722453,0.656168,0,0.045522311168,0.157528876432,24,10,24.187,706.40956722453,0,0,0.045522311168,0,0,0,276.6, -1.6, -2.6,0,0,1024,1024,1024,1024,0,0,0,0,0,0,0,90,,,,,,,1.466,86.9,706.40956722453,0,10,Assisted_Takeoff,
2600,2023-10-10 21:37:56,40.0688717498123,-88.2096730274954,0,,,706.40956722453,0.656168,0,0.046611550048,0.163007551148,24,10,24.187,706.40956722453,0,0,0.046611550048,0,0,0,276.6, -1.6, -2.6,0,0,1024,1024,1024,1024,0,0,0,0,0,0,0,90,,,,,,,1.466,86.9,706.40956722453,0,10,Assisted_Takeoff,
2700,2023-10-10 21:37:56,40.0688717674672,-88.2096730349248,0,,,706.40956722453,0.656168,0,0.046522639284,0.169774939816,24,10,24.187,706.40956722453,0,0,0.046611550048,0,0,0,276.5, -1.6, -2.6,0,0,1024,1024,1024,1024,0,0,0,0,0,0,0,90,,,,,,,1.466,86.9,706.40956722453,0,10,Assisted_Takeoff,
2800,2023-10-10 21:37:56,40.0688717635251,-88.209673043065,0,,,706.40956722453,0.656168,0,0.049089240416,0.172464572448,24,10,24.187,706.40956722453,0,0,0.049089240416,0,0,0,276.5, -1.6, -2.6,0,0,1024,1024,1024,1024,0,0,0,0,0,0,0,90,,,,,,,1.466,86.9,706.40956722453,0,10,Assisted_Takeoff,
2900,2023-10-10 21:37:56,40.0688717743782,-88.209673042114,0,,,706.40956722453,0.656168,0,0.047928807308,0.176433076512,24,10,24.187,706.40956722453,0,0,0.049089240416,0,0,0,276.5, -1.6, -2.6,0,0,1024,1024,1024,1024,0,0,0,0,0,0,0,90,,,,,,,1.466,86.9,706.40956722453,0,10,Assisted_Takeoff,
3000,2023-10-10 21:37:56,40.0688717828591,-88.2096730402317,0,,,706.40956722453,0.656168,0,0.046918964756,0.17957185614,24,10,24.187,706.40956722453,0,0,0.049089240416,0,0,0,276.5, -1.6, -2.7,0,0,1024,1024,1024,1024,0,0,0,0,0,0,0,90,,,,,,,1.466,86.9,706.40956722453,0,10,Assisted_Takeoff,
3100,2023-10-10 21:37:56,40.0688717917963,-88.2096730406437,0,,,706.40956722453,0.656168,0,0.04673064454,0.182834323436,24,10,24.187,706.40956722453,0,0,0.049089240416,0,0,0,276.5, -1.6, -2.7,0,0,1024,1024,1024,1024,0,0,0,0,0,0,0,90,,,,,,,1.466,86.9,706.40956722453,0,10,Assisted_Takeoff,
3200,2023-10-10 21:37:57,40.0688717810305,-88.2096730458083,0,,,706.40956722453,0.656168,0,0.048550526488,0.187018706772,24,10,24.187,706.40956722453,0,0,0.049089240416,0,0,0,276.5, -1.6, -2.7,0,0,1024,1024,1024,1024,0,0,0,0,0,0,0,90,,,,,,,1.466,86.9,706.40956722453,0,10,Assisted_Takeoff,
3300,2023-10-10 21:37:57,40.0688717893063,-88.2096730483345,0,,,706.40956722453,0.656168,0,0.048933400516,0.190119428656,24,10,24.188,706.40956722453,0,0,0.049089240416,0,0,0,276.5, -1.6, -2.7,0,0,1024,1024,1024,1024,0,0,0,0,0,0,0,90,,,,,,,1.032,86.9,706.40956722453,0,10,Assisted_Takeoff,
3400,2023-10-10 21:37:57,40.0688717980154,-88.2096730481415,0,,,706.40956722453,0.656168,0,0.048747048804,0.19329725028,24,10,24.188,706.40956722453,0,0,0.049089240416,0,0,0,276.5, -1.6, -2.7,0,0,1024,1024,1024,1024,0,0,0,0,0,0,0,90,,,,,,,1.032,86.9,706.40956722453,0,10,Assisted_Takeoff,
3500,2023-10-10 21:37:57,40.0688717604195,-88.2096730471586,0,,,706.40956722453,0.656168,0,0.050498361196,0.207017066992,24,10,24.188,706.40956722453,0,0,0.050498361196,0,0,0,276.5, -1.6, -2.6,0,0,1024,1024,1024,1024,0,0,0,0,0,0,0,90,,,,,,,1.032,86.9,706.40956722453,0,10,Assisted_Takeoff,
3600,2023-10-10 21:37:57,40.0688717552983,-88.2096730393129,0,,,706.40956722453,0.656168,0,0.048979004192,0.209896004092,24,10,24.188,706.40956722453,0,0,0.050498361196,0,0,0,276.5, -1.6, -2.6,0,0,1024,1024,1024,1024,0,0,0,0,0,0,0,90,,,,,,,1.032,86.9,706.40956722453,0,10,Assisted_Takeoff,
3700,2023-10-10 21:37:57,40.0688717539554,-88.2096730247,0,,,706.40956722453,0.656168,0,0.04531988334,0.214005584276,24,10,24.188,706.40956722453,0,0,0.050498361196,0,0,0,276.5, -1.6, -2.6,0,0,1024,1024,1024,1024,0,0,0,0,0,0,0,90,,,,,,,1.032,86.9,706.40956722453,0,10,Assisted_Takeoff,
3800,2023-10-10 21:37:57,40.0688717583403,-88.2096730122896,0,,,706.40956722453,0.656168,0,0.0415108281,0.217822185448,24,10,24.188,706.40956722453,0,0,0.050498361196,0,0,0,276.5, -1.6, -2.6,0,0,1024,1024,1024,1024,0,0,0,0,0,0,0,90,,,,,,,1.032,86.9,706.40956722453,0,10,Assisted_Takeoff,
3900,2023-10-10 21:37:57,40.068871738097,-88.2096730012125,0,,,706.40956722453,0.656168,0,0.04204888586,0.225829403552,24,10,24.188,706.40956722453,0,0,0.050498361196,0,0,0,276.5, -1.6, -2.7,0,0,1024,1024,1024,1024,0,0,0,0,0,0,0,90,,,,,,,1.032,86.9,706.40956722453,0,10,Assisted_Takeoff,
4000,2023-10-10 21:37:57,40.0688717503003,-88.2096729954147,0,,,706.40956722453,0.656168,0,0.03842519808,0.230566936512,24,10,24.188,706.40956722453,0,0,0.050498361196,0,0,0,276.5, -1.6, -2.7,0,0,1024,1024,1024,1024,0,0,0,0,0,0,0,90,,,,,,,1.032,86.9,706.40956722453,0,10,Assisted_Takeoff,
4100,2023-10-10 21:37:57,40.0688717658842,-88.2096729901628,0,,,706.40956722453,0.656168,0,0.034757875128,0.23643865586,24,10,24.188,706.40956722453,0,0,0.050498361196,0,0,0,276.5, -1.6, -2.7,0,0,1024,1024,1024,1024,0,0,0,0,0,0,0,90,,,,,,,1.032,86.9,706.40956722453,0,10,Assisted_Takeoff,
4200,2023-10-10 21:37:58,40.0688717743866,-88.209672991439,0,,,706.40956722453,0.656168,0,0.034140092956,0.239561031288,24,10,24.188,706.40956722453,0,0,0.050498361196,0,0,0,276.5, -1.6, -2.6,0,0,1024,1024,1024,1024,0,0,0,0,0,0,0,90,,,,,,,1.032,86.9,706.40956722453,0,10,Assisted_Takeoff,
4300,2023-10-10 21:37:58,40.0688717803094,-88.2096729882186,0,,,706.40956722453,0.656168,0,0.0327510509168,0.241901582544,24,10,24.192,706.40956722453,0,0,0.050498361196,0,0,0,276.5, -1.6, -2.6,0,0,1024,1024,1684,1024,0,0,100,0,0,0,0,90,,,,,,,0.943,86.9,706.40956722453,0,10,Assisted_Takeoff,
4400,2023-10-10 21:37:58,40.0688717860272,-88.2096729841409,0,,,706.40956722453,0.656168,0,0.0312498697664,0.24427822304,24,10,24.192,706.40956722453,0,0,0.050498361196,0,0,0,276.6, -1.6, -2.6,0,0,1024,1024,1684,1024,0,0,100,0,0,0,0,90,,,,,,,0.943,86.9,706.40956722453,0,10,Assisted_Takeoff,
4500,2023-10-10 21:37:58,40.0688718043599,-88.2096729753374,0,,,706.40956722453,0.656168,0,0.02847851141,0.25140420752,24,10,24.192,706.40956722453,0,0,0.050498361196,0,0,0,276.5, -1.5, -2.6,0,0,1024,1024,1684,1024,0,0,100,0,0,0,0,90,,,,,,,0.943,86.9,706.40956722453,0,10,Assisted_Takeoff,
4600,2023-10-10 21:37:58,40.0688717916511,-88.2096729677106,0,,,706.40956722453,0.656168,0,0.0264335966464,0.256506569888,24,10,24.192,706.40956722453,0,0,0.050498361196,0,0,0,276.5, -1.2, -2.4,0,0,1024,1024,1684,1024,0,0,100,0,0,0,0,90,,,,,,,0.943,86.9,706.40956722453,0,10,Assisted_Takeoff,
4700,2023-10-10 21:37:58,40.0688718157768,-88.2096729310391,0,,,706.40956722453,0.656168,0,0.017144521546,0.270009194992,24,10,24.192,706.40956722453,0,0,0.050498361196,0,0,0,276.4, -0.6, -2.1,0,0,1024,1024,1684,1024,0,0,100,0,0,0,0,90,,,,,,,0.943,86.9,706.40956722453,0,10,Assisted_Takeoff,
4800,2023-10-10 21:37:58,40.0688718389025,-88.2096728645871,0,,,706.40956722453,0.656168,0,0.0146832681864,0.290391413492,24,10,24.192,706.40956722453,0,0,0.050498361196,0,0,0,276.3, 0.6, -1.7,0,0,1024,1024,1684,904,0,0,100,-18,0,0,0,90,,,,,,,0.943,86.9,706.40956722453,0,10,Assisted_Takeoff,
4900,2023-10-10 21:37:58,40.0688718249719,-88.2096727400632,0,,,706.40956722453,0.656168,0.223694,0.03843668102,0.325529209892,24,10,24.192,706.40956722453,0,0.223694,0.050498361196,0,0.223694,-0.223694,276.1, 2.9, -1.8,0,0,1024,1024,1684,904,0,0,100,-18,0,0,0,90,,,,,,,0.943,86.9,706.40956722453,0,10,Assisted_Takeoff,
5000,2023-10-10 21:37:58,40.0688718275955,-88.2096724980454,0,,,706.40956722453,0.984252,0.447388,0.105355646416,0.3931102488,24,10,24.192,706.40956722453,0,0.447388,0.105355646416,0,0.447388,-0.447388,275.4, 5.2, -2,0,0,1024,1024,1684,904,0,0,100,-18,0,0,0,90,,,,,,,0.943,86.9,706.40956722453,0,6,P-GPS,
5100,2023-10-10 21:37:58,40.0688718047859,-88.2096720726422,0,,,706.40956722453,0.984252,0.671082,0.223632225004,0.51217849408,24,10,24.192,706.40956722453,0,0.671082,0.223632225004,0,0.671082,-1.11847,274.4, 3.6, -1.6,0,0,1024,1024,1684,902,0,0,100,-18,0,0,0,90,,,,,,,0.943,86.9,706.40956722453,0,6,P-GPS,
5200,2023-10-10 21:37:58,40.0688717633355,-88.2096715305111,0.328084,,,706.73765122453,1.312336,0.671082,0.37521982828,0.66429792152,24,10,24.192,706.73765122453,0.328084,0.671082,0.37521982828,0,1.11847,-1.789552,273.4, 0.9, -1.1,0,0,1024,1024,1684,902,0,0,100,-18,0,0,0,90,,,,,,,0.943,86.9,706.73765122453,0.328084,6,P-GPS,
5300,2023-10-10 21:37:59,40.0688716763678,-88.2096708972527,0.656168,,,707.06573522453,1.312336,1.11847,0.55361878412,0.84393375404,24,10,23.8885,707.06573522453,0.656168,1.11847,0.55361878412,0,1.11847,-2.460634,272.3, -1.7, -0.6,0,0,1024,1024,1684,901,0,0,100,-19,0,0,0,90,,,,,,,10.484,86.9,707.06573522453,0.656168,6,P-GPS,
5400,2023-10-10 21:37:59,40.0688716623336,-88.209670278509,0.984252,,,707.39381922453,1.968504,1.11847,0.7262795508,1.01676840524,24,10,23.8885,707.39381922453,0.984252,1.11847,0.7262795508,0,1.11847,-3.131716,271.2, -3.6, -0.6,0,0,1024,1024,1684,898,0,0,100,-19,0,0,0,90,,,,,,,10.484,86.9,707.39381922453,0.984252,6,P-GPS,
5500,2023-10-10 21:37:59,40.0688716619251,-88.2096696693931,1.64042,,,708.04998722453,2.624672,1.11847,0.89603349324,1.18684058916,24,10,23.8885,708.04998722453,1.64042,1.11847,0.89603349324,0,1.11847,-4.026492,270, -4.3, -1,0,0,1024,1024,1684,897,0,0,100,-19,0,0,0,90,,,,,,,10.484,86.9,708.04998722453,1.64042,6,P-GPS,
5600,2023-10-10 21:37:59,40.0688716176214,-88.2096691690054,2.296588,,,708.70615522453,2.952756,0.894776,1.03646328776,1.32748363828,24,10,23.8885,708.70615522453,2.296588,1.11847,1.03646328776,0,0.894776,-4.697574,268.9, -4.2, -1.2,0,0,1024,1024,1684,911,0,0,100,-17,0,0,0,90,,,,,,,10.484,86.9,708.70615522453,2.296588,6,P-GPS,
5700,2023-10-10 21:37:59,40.0688716100852,-88.2096686198416,2.952756,,,709.36232322453,3.608924,0.894776,1.18967851576,1.4808399424,24,10,23.8885,709.36232322453,2.952756,1.11847,1.18967851576,0,0.894776,-5.368656,267.9, -4.3, -1.1,0,0,1024,1024,1684,911,0,0,100,-17,0,0,0,90,,,,,,,10.484,86.9,709.36232322453,2.952756,6,P-GPS,
5800,2023-10-10 21:37:59,40.0688715943317,-88.2096681286691,3.937008,,,710.34657522453,4.593176,0.894776,1.32692261464,1.61810044548,24,10,23.8885,710.34657522453,3.937008,1.11847,1.32692261464,0,0.894776,-6.263432,267.1, -4.1, -0.9,0,0,1024,1024,1024,1024,0,0,0,0,0,0,0,90,,,,,,,10.484,86.9,710.34657522453,3.937008,6,P-GPS,
5900,2023-10-10 21:37:59,40.0688715672338,-88.2096676425576,4.92126,,,711.33082722453,5.249344,0.894776,1.4629921728,1.75418640784,24,10,23.8885,711.33082722453,4.92126,1.11847,1.4629921728,0,0.894776,-6.934514,266.9, -3.5, -0.9,0,0,1024,1024,1024,1024,0,0,0,0,0,0,0,90,,,,,,,10.484,86.9,711.33082722453,4.92126,6,P-GPS,
6000,2023-10-10 21:37:59,40.0688714928236,-88.209667162804,5.905512,,,712.31507922453,6.233596,0.894776,1.5984088438,1.89085964056,24,10,23.8885,712.31507922453,5.905512,1.11847,1.5984088438,0,0.894776,-7.158208,266.8, -5.1, -0.2,0,0,1024,1024,1024,1024,0,0,0,0,0,0,0,90,,,,,,,10.484,86.9,712.31507922453,5.905512,6,P-GPS,
6100,2023-10-10 21:37:59,40.0688714223667,-88.2096666151469,6.889764,,,713.29933122453,6.889764,0.894776,1.7528051742,2.04591870064,24,10,23.8885,713.29933122453,6.889764,1.11847,1.7528051742,0,0.894776,-6.934514,266.7, -7.7, 0.6,0,0,1024,1024,1024,1024,0,0,0,0,0,0,0,90,,,,,,,10.484,86.9,713.29933122453,6.889764,6,P-GPS,
6200,2023-10-10 21:37:59,40.0688713640599,-88.2096661400008,7.874016,,,714.28358322453,7.545932,0.894776,1.8867618714,2.18027566032,24,10,23.8885,714.28358322453,7.874016,1.11847,1.8867618714,0,0.894776,-6.487126,266.5, -10.2, 0.9,0,0,1024,1024,1024,1024,0,0,0,0,0,0,0,90,,,,,,,10.484,86.9,714.28358322453,7.874016,6,P-GPS,
6300,2023-10-10 21:38:00,40.0688712514637,-88.2096656825207,8.858268,,,715.26783522453,8.2021,0.671082,2.01772316168,2.3144521738,24,10,23.8885,715.26783522453,8.858268,1.11847,2.01772316168,0,0.671082,-6.039738,266.3, -10.9, 0.6,0,0,1024,1024,1024,1024,0,0,0,0,0,0,0,90,,,,,,,10.484,86.9,715.26783522453,8.858268,6,P-GPS,
6400,2023-10-10 21:38:00,40.068871180997,-88.2096653929058,9.514436,,,715.92400322453,8.858268,0.447388,2.10081043468,2.39930453872,24,10,23.8885,715.92400322453,9.514436,1.11847,2.10081043468,0,0.447388,-5.368656,266.3, -10.5, 1.2,0,0,1024,1024,1024,1024,0,0,0,0,0,0,0,90,,,,,,,10.484,86.9,715.92400322453,9.514436,6,P-GPS,
6500,2023-10-10 21:38:00,40.0688710973529,-88.2096651583312,10.498688,,,716.90825522453,8.858268,0.3131716,2.16932749724,2.47156175888,24,10,23.8885,716.90825522453,10.498688,1.11847,2.16932749724,-0.223694,0.223694,-4.697574,266.4, -9.4, 2.4,0,0,1024,1024,1024,1024,0,0,0,0,0,0,0,90,,,,,,,10.484,86.9,716.90825522453,10.498688,6,P-GPS,
6600,2023-10-10 21:38:00,40.0688710025693,-88.2096649705759,11.154856,,,717.56442322453,9.186352,0.3131716,2.22564311584,2.53436359816,24,10,23.8885,717.56442322453,11.154856,1.11847,2.22564311584,-0.223694,0.223694,-4.026492,266.6, -7.7, 3.5,0,0,1024,1024,1024,1024,0,0,0,0,0,0,0,90,,,,,,,10.484,86.9,717.56442322453,11.154856,6,P-GPS,
6700,2023-10-10 21:38:00,40.0688708711145,-88.2096646862871,11.48294,,,717.89250722453,9.186352,0.3131716,2.31090230492,2.62710310244,24,10,23.8885,717.89250722453,11.48294,1.11847,2.31090230492,-0.223694,0.223694,-3.131716,266.7, -6.6, 4.2,0,0,1024,1024,1024,1024,0,0,0,0,0,0,0,90,,,,,,,10.484,86.9,717.89250722453,11.48294,6,P-GPS,
6800,2023-10-10 21:38:00,40.0688707874549,-88.209664497165,11.811024,,,718.22059122453,9.186352,0.223694,2.3677166112,2.68809391804,24,10,23.8885,718.22059122453,11.811024,1.11847,2.3677166112,0,0.223694,-2.460634,266.6, -6.5, 4,0,0,1024,1024,1024,1024,0,0,0,0,0,0,0,90,,,,,,,10.484,86.9,718.22059122453,11.811024,6,P-GPS,
6900,2023-10-10 21:38:00,40.0688707169328,-88.2096642887098,12.139108,,,718.54867522453,9.186352,0.223694,2.42927501212,2.75173237152,24,10,23.9475,718.54867522453,12.139108,1.11847,2.42927501212,0,0.223694,-1.789552,266.6, -6.8, 3.2,0,0,1024,1024,1024,1024,0,0,0,0,0,0,0,90,,,,,,,15.239,86.9,718.54867522453,12.139108,6,P-GPS,
7000,2023-10-10 21:38:00,40.0688706140909,-88.209664018832,12.467192,,,718.87675922453,8.858268,0.223694,2.50984588084,2.8359088834,24,10,23.9475,718.87675922453,12.467192,1.11847,2.50984588084,0,0.223694,-1.11847,266.5, -7.2, 2.5,0,0,1024,1024,1024,1024,0,0,0,0,0,0,0,90,,,,,,,15.239,86.9,718.87675922453,12.467192,6,P-GPS,
7100,2023-10-10 21:38:00,40.0688705873375,-88.2096638572958,12.467192,,,718.87675922453,8.858268,0,2.5559548062,2.882053898,24,10,23.9475,718.87675922453,12.467192,1.11847,2.5559548062,0,0,-0.671082,266.5, -7.2, 2.3,0,0,1024,1024,1024,1024,0,0,0,0,0,0,0,90,,,,,,,15.239,86.9,718.87675922453,12.467192,6,P-GPS,
7200,2023-10-10 21:38:01,40.0688705630123,-88.2096637222398,12.795276,,,719.20484322453,8.530184,0,2.59463262896,2.92079405672,24,10,23.9475,719.20484322453,12.795276,1.11847,2.59463262896,0,0,-0.223694,266.5, -7, 2.2,0,0,1024,1024,1024,1024,0,0,0,0,0,0,0,90,,,,,,,15.239,86.9,719.20484322453,12.795276,6,P-GPS,
7300,2023-10-10 21:38:01,40.0688705378458,-88.2096635996681,12.795276,,,719.20484322453,8.530184,0,2.62993118652,2.95622712872,24,10,23.9475,719.20484322453,12.795276,1.11847,2.62993118652,0,0,0,266.5, -6.5, 2,0,0,1024,1024,1024,1024,0,0,0,0,0,0,0,90,,,,,,,15.239,86.9,719.20484322453,12.795276,6,P-GPS,
7400,2023-10-10 21:38:01,40.068870494492,-88.2096634813433,12.467192,,,718.87675922453,8.530184,0,2.66524614828,2.99285770732,24,10,23.9475,719.20484322453,12.795276,1.11847,2.66524614828,0,0,0,266.6, -6.2, 2,0,0,1024,1024,1024,1024,0,0,0,0,0,0,0,90,,,,,,,15.239,86.9,718.87675922453,12.467192,6,P-GPS,
7500,2023-10-10 21:38:01,40.0688704563506,-88.2096633900883,12.467192,,,718.87675922453,8.530184,0,2.69281832764,3.02188657964,24,10,23.9475,719.20484322453,12.795276,1.11847,2.69281832764,0,0,0,266.6, -6.1, 2.1,0,0,1024,1024,1024,1024,0,0,0,0,0,0,0,90,,,,,,,15.239,86.9,718.87675922453,12.467192,6,P-GPS,
7600,2023-10-10 21:38:01,40.0688704402621,-88.2096633175867,12.467192,,,718.87675922453,8.2021,0,2.71378945692,3.04296597664,24,10,23.9475,719.20484322453,12.795276,1.11847,2.71378945692,0,0,0,266.7, -6, 2,0,0,1024,1024,1024,1024,0,0,0,0,0,0,0,90,,,,,,,15.239,86.9,718.87675922453,12.467192,6,P-GPS,
7700,2023-10-10 21:38:01,40.0688704294414,-88.2096632546972,12.467192,,,718.87675922453,8.530184,0,2.7317750218,3.06096138404,24,10,23.9475,719.20484322453,12.795276,1.11847,2.7317750218,0,0,0,266.8, -5.9, 1.8,0,0,1024,1024,1024,1024,0,0,0,0,0,0,0,90,,,,,,,15.239,86.9,718.87675922453,12.467192,6,P-GPS,
7800,2023-10-10 21:38:01,40.0688704732165,-88.2096632193785,12.467192,,,718.87675922453,8.530184,0,2.73860573068,3.07973435052,24,10,23.9475,719.20484322453,12.795276,1.11847,2.73860573068,0,0,0,266.8, -6, 1.4,0,0,1024,1024,1024,1024,0,0,0,0,0,0,0,90,,,,,,,15.239,86.9,718.87675922453,12.467192,6,P-GPS,
7900,2023-10-10 21:38:01,40.0688705209312,-88.2096631967399,12.467192,,,718.87675922453,8.530184,0,2.74181111136,3.09825469232,24,10,23.9475,719.20484322453,12.795276,1.11847,2.74181111136,0,0,0,266.7, -6.3, 1.1,0,0,1024,1024,1401,1024,0,0,57,0,0,0,0,90,,,,,,,15.239,86.9,718.87675922453,12.467192,6,P-GPS,
8000,2023-10-10 21:38:01,40.0688705666732,-88.2096631893527,12.467192,,,718.87675922453,8.530184,0,2.74105651816,3.11506899732,24,10,23.9475,719.20484322453,12.795276,1.11847,2.74181111136,0,0,0,266.7, -6.4, 0.8,0,0,1024,1024,1684,1024,0,0,100,0,0,0,0,90,,,,,,,15.239,86.9,718.87675922453,12.467192,6,P-GPS,
8100,2023-10-10 21:38:01,40.0688705646951,-88.2096631867132,12.139108,,,718.54867522453,8.530184,0,2.74190297488,3.11610246192,24,10,23.9475,719.20484322453,12.795276,1.11847,2.74190297488,0,0,0,266.8, -6.3, 0.3,0,0,1024,1024,1530,1024,0,0,77,0,0,0,0,90,,,,,,,15.239,86.9,718.54867522453,12.139108,6,P-GPS,
8200,2023-10-10 21:38:02,40.0688706133682,-88.209663231204,12.139108,,,718.54867522453,8.530184,0,2.72677502164,3.13777241012,24,10,23.9475,719.20484322453,12.795276,1.11847,2.74190297488,0,0,-0.223694,266.8, -5.2, 0.1,0,0,1024,1024,1530,1024,0,0,77,0,0,0,0,90,,,,,,,15.239,86.9,718.54867522453,12.139108,6,P-GPS,
8300,2023-10-10 21:38:02,40.0688706796214,-88.2096633007482,12.467192,,,718.87675922453,8.858268,0,2.70384851172,3.16877962896,24,10,23.7655,719.20484322453,12.795276,1.11847,2.74190297488,0,0,-0.894776,266.8, -4.3, 0,0,0,1024,1024,1024,1024,0,0,0,0,0,0,0,90,,,,,,,7.821,86.9,718.87675922453,12.467192,6,P-GPS,
8400,2023-10-10 21:38:02,40.0688707513697,-88.2096633750129,12.467192,,,718.87675922453,9.186352,0,2.67949155556,3.20217201848,24,10,23.7655,719.20484322453,12.795276,1.11847,2.74190297488,0,0,-1.11847,266.6, -4.4, 0.3,0,0,1024,1024,1024,1024,0,0,0,0,0,0,0,90,,,,,,,7.821,86.9,718.87675922453,12.467192,6,P-GPS,
8500,2023-10-10 21:38:02,40.0688708091021,-88.2096634390144,12.467192,,,718.87675922453,9.186352,0,2.65886491448,3.22979669128,24,10,23.7655,719.20484322453,12.795276,1.11847,2.74190297488,0,0,-0.671082,266.6, -6, 0.7,0,0,1024,1024,1494,1024,0,0,71,0,0,0,0,90,,,,,,,7.821,86.9,718.87675922453,12.467192,6,P-GPS,
8600,2023-10-10 21:38:02,40.0688708723937,-88.2096635223525,12.795276,,,719.20484322453,9.186352,0,2.63274614724,3.26257884456,24,10,23.7655,719.20484322453,12.795276,1.11847,2.74190297488,0,0,-0.671082,266.7, -6.5, 0.5,0,0,1024,1024,1684,1024,0,0,100,0,0,0,0,90,,,,,,,7.821,86.9,719.20484322453,12.795276,6,P-GPS,
8700,2023-10-10 21:38:02,40.068870940731,-88.2096636541134,12.795276,,,719.20484322453,9.186352,0.223694,2.59313656592,3.3070211032,24,10,23.7655,719.20484322453,12.795276,1.11847,2.74190297488,0,-0.223694,-1.342164,266.7, -5.5, -0.1,0,0,1024,1024,1345,1024,0,0,49,0,0,0,0,90,,,,,,,7.821,86.9,719.20484322453,12.795276,6,P-GPS,
8800,2023-10-10 21:38:02,40.0688709705373,-88.2096638392891,13.12336,,,719.53292722453,9.514436,0.223694,2.54050533064,3.3598426272,24,10,23.7655,719.53292722453,13.12336,1.11847,2.74190297488,0,-0.223694,-1.789552,266.7, -3.9, -0.2,0,0,1024,1024,1684,1024,0,0,100,0,0,0,0,90,,,,,,,7.821,86.9,719.53292722453,13.12336,6,P-GPS,
8900,2023-10-10 21:38:02,40.0688709608949,-88.2096640015817,13.451444,,,719.86101122453,9.514436,0.223694,2.4959482426,3.4053150696,24,10,23.7655,719.86101122453,13.451444,1.11847,2.74190297488,0,-0.223694,-1.565858,266.7, -3.5, 0.4,0,0,1024,1024,1684,1024,0,0,100,0,0,0,0,90,,,,,,,7.821,86.9,719.86101122453,13.451444,6,P-GPS,
9000,2023-10-10 21:38:02,40.068870956569,-88.2096641239974,13.451444,,,719.86101122453,9.514436,0,2.46222448824,3.4395342308,24,10,23.7655,719.86101122453,13.451444,1.11847,2.74190297488,0,0,-1.565858,266.7, -4.9, 0.6,0,0,1024,1024,1112,1024,0,0,13,0,0,0,0,90,,,,,,,7.821,86.9,719.86101122453,13.451444,6,P-GPS,
9100,2023-10-10 21:38:02,40.0688708838932,-88.2096642518392,13.779528,,,720.18909522453,9.84252,0.223694,2.4303150384,3.4839896128,24,10,23.7655,720.18909522453,13.779528,1.11847,2.74190297488,0,-0.223694,-2.23694,266.7, -4.6, 0.5,0,0,1024,1024,1327,1024,0,0,46,0,0,0,0,90,,,,,,,7.821,86.9,720.18909522453,13.779528,6,P-GPS,
9200,2023-10-10 21:38:03,40.0688708832013,-88.2096643899278,14.107612,,,720.51717922453,9.84252,0.223694,2.39216543088,3.5225394828,24,10,23.7655,720.51717922453,14.107612,1.11847,2.74190297488,0,-0.223694,-2.460634,266.6, -3.7, 0.9,0,0,1024,1024,1327,1024,0,0,46,0,0,0,0,90,,,,,,,7.821,86.9,720.51717922453,14.107612,6,P-GPS,
9300,2023-10-10 21:38:03,40.0688708676875,-88.2096644816579,14.435696,,,720.84526322453,9.84252,0,2.36761490516,3.5487862028,24,10,23.7655,720.84526322453,14.435696,1.11847,2.74190297488,0,0,-2.013246,266.6, -4.4, 1.7,0,0,1024,1024,1213,1024,0,0,29,0,0,0,0,90,,,,,,,7.821,86.9,720.84526322453,14.435696,6,P-GPS,
9400,2023-10-10 21:38:03,40.068870866377,-88.20966455359,14.76378,,,721.17334722453,10.170604,0,2.34780847408,3.5688649436,24,10,23.7655,721.17334722453,14.76378,1.11847,2.74190297488,0,0,-2.460634,266.6, -4.7, 1.4,0,0,1024,1024,1062,1024,0,0,6,0,0,0,0,90,,,,,,,7.821,86.9,721.17334722453,14.76378,6,P-GPS,
9500,2023-10-10 21:38:03,40.068870880174,-88.2096646756051,15.091864,,,721.50143122453,10.170604,0,2.31337277744,3.6033137636,24,10,23.7655,721.50143122453,15.091864,1.11847,2.74190297488,0,0,-2.908022,266.5, -4.1, 0.9,0,0,1024,1024,1357,1024,0,0,50,0,0,0,0,90,,,,,,,7.821,86.9,721.50143122453,15.091864,6,P-GPS,
9600,2023-10-10 21:38:03,40.0688709008388,-88.2096647651754,15.748032,,,722.15759922453,10.170604,0,2.28753944328,3.62942925,24,10,23.7655,722.15759922453,15.748032,1.11847,2.74190297488,0,0,-2.684328,266.4, -4.5, 1.1,0,0,1024,1024,1357,1024,0,0,50,0,0,0,0,90,,,,,,,7.821,86.9,722.15759922453,15.748032,6,P-GPS,
9700,2023-10-10 21:38:03,40.0688709034543,-88.2096648387705,16.076116,,,722.48568322453,10.170604,0,2.26706700168,3.6500001168,24,10,23.7655,722.48568322453,16.076116,1.11847,2.74190297488,0,0,-2.23694,266.5, -5.9, 1.4,0,0,1024,1024,1684,1024,0,0,100,0,0,0,0,90,,,,,,,7.821,86.9,722.48568322453,16.076116,6,P-GPS,
9800,2023-10-10 21:38:03,40.0688708730216,-88.209664997185,16.4042,,,722.81376722453,10.170604,0,2.22496398196,3.6956037928,24,10,23.7655,722.81376722453,16.4042,1.11847,2.74190297488,0,0,-2.684328,266.5, -5.4, 1.2,0,0,1024,1024,1024,1024,0,0,0,0,0,0,0,90,,,,,,,7.821,86.9,722.81376722453,16.4042,6,P-GPS,
9900,2023-10-10 21:38:03,40.0688708872475,-88.2096651071972,16.732284,,,723.14185122453,10.170604,0,2.193815687,3.7267389644,24,10,24.0235,723.14185122453,16.732284,1.11847,2.74190297488,0,0,-2.908022,266.6, -4.3, 0.9,0,0,1024,1024,1024,1024,0,0,0,0,0,0,0,90,,,,,,,10.811,86.9,723.14185122453,16.732284,6,P-GPS,
10000,2023-10-10 21:38:03,40.068870898978,-88.2096651655782,17.060368,,,723.46993522453,9.84252,0,2.17705715628,3.743602482,24,10,24.0235,723.46993522453,17.060368,1.11847,2.74190297488,0,0,-2.460634,266.6, -5.1, 1.5,0,0,1024,1024,1024,1024,0,0,0,0,0,0,0,90,,,,,,,10.811,86.9,723.46993522453,17.060368,6,P-GPS,
10100,2023-10-10 21:38:03,40.0688709230901,-88.2096651808505,17.388452,,,723.79801922453,9.514436,0,2.17152894088,3.7533793852,24,10,24.0235,723.79801922453,17.388452,1.11847,2.74190297488,0,0,-1.789552,266.7, -6.4, 2,0,0,1024,1024,1024,1024,0,0,0,0,0,0,0,90,,,,,,,10.811,86.9,723.79801922453,17.388452,6,P-GPS,
10200,2023-10-10 21:38:04,40.068870935999,-88.2096651832195,17.716536,,,724.12610322453,9.514436,0,2.17018707732,3.7581366032,24,10,24.0235,724.12610322453,17.716536,1.11847,2.74190297488,0,0,-1.342164,266.9, -7, 1.9,0,0,1024,1024,1024,1024,0,0,0,0,0,0,0,90,,,,,,,10.811,86.9,724.12610322453,17.716536,6,P-GPS,
10300,2023-10-10 21:38:04,40.0688709319666,-88.2096651774103,17.716536,,,724.12610322453,8.858268,0,2.17200466268,3.760334766,24,10,24.0235,724.12610322453,17.716536,1.11847,2.74190297488,0,0,-0.894776,266.9, -7.1, 1.3,0,0,1024,1024,1024,1024,0,0,0,0,0,0,0,90,,,,,,,10.811,86.9,724.12610322453,17.716536,6,P-GPS,
10400,2023-10-10 21:38:04,40.0688709273157,-88.2096651781624,18.04462,,,724.45418722453,8.530184,0,2.17204403276,3.7620408028,24,10,24.0235,724.45418722453,18.04462,1.11847,2.74190297488,0,0,-0.447388,266.9, -6.7, 1,0,0,1024,1024,1024,1024,0,0,0,0,0,0,0,90,,,,,,,10.811,86.9,724.45418722453,18.04462,6,P-GPS,
10500,2023-10-10 21:38:04,40.0688707701994,-88.2096651152915,18.04462,,,724.45418722453,8.2021,0,2.19847119896,3.8219817496,24,10,24.0235,724.45418722453,18.04462,1.11847,2.74190297488,0,0,-0.223694,267, -6.1, 1.3,0,0,1024,1024,1024,1024,0,0,0,0,0,0,0,90,,,,,,,10.811,86.9,724.45418722453,18.04462,6,P-GPS,
10600,2023-10-10 21:38:04,40.0688707328871,-88.2096651026821,18.04462,,,724.45418722453,8.2021,0,2.20430453248,3.8360565532,24,10,24.0235,724.45418722453,18.04462,1.11847,2.74190297488,0,0,0,267, -5.8, 1.6,0,0,1024,1024,1024,1024,0,0,0,0,0,0,0,90,,,,,,,10.811,86.9,724.45418722453,18.04462,6,P-GPS,
10700,2023-10-10 21:38:04,40.0688707393422,-88.2096651031886,18.04462,,,724.45418722453,7.874016,0,2.20375007052,3.8383859496,24,10,24.0235,724.45418722453,18.04462,1.11847,2.74190297488,0,0,0,267, -5.5, 1.6,0,0,1024,1024,1024,1024,0,0,0,0,0,0,0,90,,,,,,,10.811,86.9,724.45418722453,18.04462,6,P-GPS,
10800,2023-10-10 21:38:04,40.0688707468514,-88.2096650888937,18.04462,,,724.45418722453,7.874016,0,2.2072015142,3.8432415928,24,10,24.0235,724.45418722453,18.04462,1.11847,2.74190297488,0,0,0,267.1, -5.7, 1.4,0,0,1024,1024,1024,1024,0,0,0,0,0,0,0,90,,,,,,,10.811,86.9,724.45418722453,18.04462,6,P-GPS,
10900,2023-10-10 21:38:04,40.0688707092935,-88.2096650479698,18.04462,,,724.45418722453,7.545932,0,2.2208662128,3.8610893624,24,10,23.9175,724.45418722453,18.04462,1.11847,2.74190297488,0,0,0,267.1, -5.9, 1,0,0,1024,1024,1024,1024,0,0,0,0,0,0,0,89,,,,,,,6.088,86.9,724.45418722453,18.04462,6,P-GPS,
11000,2023-10-10 21:38:04,40.0688707144188,-88.2096650113204,18.04462,,,724.45418722453,7.545932,0,2.23060374592,3.8714896252,24,10,23.9175,724.45418722453,18.04462,1.11847,2.74190297488,0,0,0,266.9, -6.2, 0.6,0,0,1024,1024,1024,1024,0,0,0,0,0,0,0,90,,,,,,,6.088,86.9,724.45418722453,18.04462,6,P-GPS,
11100,2023-10-10 21:38:04,40.0688707130974,-88.2096649714774,18.04462,,,724.45418722453,7.874016,0,2.24163721084,3.8826116728,24,10,23.9175,724.45418722453,18.04462,1.11847,2.74190297488,0,0,0,266.9, -6.4, 0.8,0,0,1024,1024,1024,1024,0,0,0,0,0,0,0,90,,,,,,,6.088,86.9,724.45418722453,18.04462,6,P-GPS,
11200,2023-10-10 21:38:04,40.0688706637512,-88.2096649312944,18.04462,,,724.45418722453,7.545932,0,2.25591542652,3.9038387076,24,10,23.9175,724.45418722453,18.04462,1.11847,2.74190297488,0,0,0,266.8, -6.2, 1.2,0,0,1024,1024,1024,1024,0,0,0,0,0,0,0,90,,,,,,,6.088,86.9,724.45418722453,18.04462,6,P-GPS,
11300,2023-10-10 21:38:05,40.0688706653401,-88.2096649180504,18.04462,,,724.45418722453,7.874016,0,2.25944561036,3.9075788652,24,10,23.9175,724.45418722453,18.04462,1.11847,2.74190297488,0,0,0,266.8, -5.9, 1.5,0,0,1024,1024,1024,1024,0,0,0,0,0,0,0,90,,,,,,,6.088,86.9,724.45418722453,18.04462,6,P-GPS,
11400,2023-10-10 21:38:05,40.068870672674,-88.2096649066768,17.716536,,,724.12610322453,7.874016,0,2.26208012488,3.911745532,24,10,23.9175,724.45418722453,18.04462,1.11847,2.74190297488,0,0,0,266.8, -5.7, 1.7,0,0,1024,1024,1024,1024,0,0,0,0,0,0,0,90,,,,,,,6.088,86.9,724.12610322453,17.716536,6,P-GPS,
11500,2023-10-10 21:38:05,40.0688706708757,-88.2096648922924,17.716536,,,724.12610322453,8.2021,0,2.26614836648,3.9158137736,24,10,23.9175,724.45418722453,18.04462,1.11847,2.74190297488,0,0,0,266.9, -5.8, 1.7,0,0,1024,1024,1024,1024,0,0,0,0,0,0,0,90,,,,,,,6.088,86.9,724.12610322453,17.716536,6,P-GPS,
11600,2023-10-10 21:38:05,40.0688706380088,-88.2096648718941,17.716536,,,724.12610322453,8.2021,0,2.27395348484,3.9290683672,24,10,23.9175,724.45418722453,18.04462,1.11847,2.74190297488,0,0,0,267, -6.1, 1.4,0,0,1024,1024,1024,1024,0,0,0,0,0,0,0,90,,,,,,,6.088,86.9,724.12610322453,17.716536,6,P-GPS,
11700,2023-10-10 21:38:05,40.0688706520617,-88.2096648573438,17.716536,,,724.12610322453,8.530184,0,2.27699482352,3.9356300472,24,10,23.9175,724.45418722453,18.04462,1.11847,2.74190297488,0,0,0,267.1, -6.2, 1.2,0,0,1024,1024,1024,1024,0,0,0,0,0,0,0,90,,,,,,,6.088,86.9,724.12610322453,17.716536,6,P-GPS,
11800,2023-10-10 21:38:05,40.0688706730719,-88.2096648505922,17.716536,,,724.12610322453,8.530184,0,2.27745414112,3.9435040632,24,10,23.9175,724.45418722453,18.04462,1.11847,2.74190297488,0,0,0,267.2, -6.3, 1.2,0,0,1024,1024,1024,1024,0,0,0,0,0,0,0,90,,,,,,,6.088,86.9,724.12610322453,17.716536,6,P-GPS,
11900,2023-10-10 21:38:05,40.0688706466527,-88.2096648469246,17.716536,,,724.12610322453,8.530184,0,2.28021988924,3.9532153496,24,10,23.858,724.45418722453,18.04462,1.11847,2.74190297488,0,0,0,267.3, -6.4, 1.2,0,0,1024,1024,1024,1024,0,0,0,0,0,0,0,89,,,,,,,8.344,86.9,724.12610322453,17.716536,6,P-GPS,
12000,2023-10-10 21:38:05,40.0688706869954,-88.2096648698654,17.716536,,,724.12610322453,8.530184,0,2.27124679184,3.9692586572,24,10,23.858,724.45418722453,18.04462,1.11847,2.74190297488,0,0,0,267.3, -6.2, 0.9,0,0,1024,1024,1024,1024,0,0,0,0,0,0,0,90,,,,,,,8.344,86.9,724.12610322453,17.716536,6,P-GPS,
12100,2023-10-10 21:38:05,40.0688707377952,-88.2096649163708,17.716536,,,724.12610322453,8.530184,0,2.2552166076,3.9918964532,24,10,23.858,724.45418722453,18.04462,1.11847,2.74190297488,0,0,0,267.2, -5.6, 0.5,0,0,1024,1024,1024,1024,0,0,0,0,0,0,0,90,,,,,,,8.344,86.9,724.12610322453,17.716536,6,P-GPS,
12200,2023-10-10 21:38:05,40.0688707911285,-88.2096649641044,17.716536,,,724.12610322453,8.530184,0,2.23880912676,4.0154856928,24,10,23.858,724.45418722453,18.04462,1.11847,2.74190297488,0,0,0,267.1, -5.2, 0.3,0,0,1024,1024,1024,1024,0,0,0,0,0,0,0,90,,,,,,,8.344,86.9,724.12610322453,17.716536,6,P-GPS,
12300,2023-10-10 21:38:06,40.0688708119689,-88.209665008301,17.716536,,,724.12610322453,8.858268,0,2.225393772,4.0299541972,24,10,23.858,724.45418722453,18.04462,1.11847,2.74190297488,0,0,0,267.1, -4.8, 0.1,0,0,1024,1024,1024,1024,0,0,0,0,0,0,0,90,,,,,,,8.344,86.9,724.12610322453,17.716536,6,P-GPS,
12400,2023-10-10 21:38:06,40.0688708728259,-88.2096650393137,17.716536,,,724.12610322453,8.858268,0,2.21334980836,4.053805904,24,10,23.858,724.45418722453,18.04462,1.11847,2.74190297488,0,0,0,267.1, -4.8, 0.2,0,0,1024,1024,1024,1024,0,0,0,0,0,0,0,90,,,,,,,8.344,86.9,724.12610322453,17.716536,6,P-GPS,
12500,2023-10-10 21:38:06,40.0688709291473,-88.2096650603298,17.716536,,,724.12610322453,8.858268,0,2.20449810204,4.0751641724,24,10,23.858,724.45418722453,18.04462,1.11847,2.74190297488,0,0,0,267.1, -5.3, 0.2,0,0,1024,1024,1024,1024,0,0,0,0,0,0,0,90,,,,,,,8.344,86.9,724.12610322453,17.716536,6,P-GPS,
12600,2023-10-10 21:38:06,40.068870922634,-88.2096650832857,17.716536,,,724.12610322453,8.858268,0,2.19850072652,4.082021128,24,10,23.858,724.45418722453,18.04462,1.11847,2.74190297488,0,0,0,267.1, -5.9, 0,0,0,1024,1024,1024,1024,0,0,0,0,0,0,0,90,,,,,,,8.344,86.9,724.12610322453,17.716536,6,P-GPS,
12700,2023-10-10 21:38:06,40.0688709818726,-88.2096650929017,17.716536,,,724.12610322453,8.858268,0,2.19280190744,4.1037730972,24,10,23.858,724.45418722453,18.04462,1.11847,2.74190297488,0,0,0,266.9, -6.4, -0.1,0,0,1024,1024,1024,1024,0,0,0,0,0,0,0,90,,,,,,,8.344,86.9,724.12610322453,17.716536,6,P-GPS,
12800,2023-10-10 21:38:06,40.0688710255081,-88.20966511282,17.716536,,,724.12610322453,8.858268,0,2.18517723528,4.1206366148,24,10,23.858,724.45418722453,18.04462,1.11847,2.74190297488,0,0,0,266.8, -6.5, -0.5,0,0,1024,1024,1024,1024,0,0,0,0,0,0,0,90,,,,,,,8.344,86.9,724.12610322453,17.716536,6,P-GPS,
12900,2023-10-10 21:38:06,40.0688710450165,-88.2096651473873,17.716536,,,724.12610322453,8.858268,0,2.17469495148,4.1326444892,24,10,23.858,724.45418722453,18.04462,1.11847,2.74190297488,0,0,0,266.7, -6.3, -0.5,0,0,1024,1024,1024,1024,0,0,0,0,0,0,0,90,,,,,,,8.344,86.9,724.12610322453,17.716536,6,P-GPS,
13000,2023-10-10 21:38:06,40.0688709969064,-88.20966518386,17.388452,,,723.79801922453,8.530184,0,2.1668963948,4.1529200804,24,10,23.8795,724.45418722453,18.04462,1.11847,2.74190297488,0,0,0,266.6, -5.8, 0,0,0,1024,1024,1024,1024,0,0,0,0,0,0,0,89,,,,,,,7.912,86.9,723.79801922453,17.388452,6,P-GPS,
13100,2023-10-10 21:38:06,40.0688709684615,-88.2096652477055,17.388452,,,723.79801922453,8.530184,0,2.150672641,4.173556564,24,10,23.8795,724.45418722453,18.04462,1.11847,2.74190297488,0,0,0,266.6, -5.3, 0.9,0,0,1024,1024,1024,1024,0,0,0,0,0,0,0,89,,,,,,,7.912,86.9,723.79801922453,17.388452,6,P-GPS,
13200,2023-10-10 21:38:07,40.0688709388202,-88.2096653041603,17.388452,,,723.79801922453,8.858268,0,2.1366306458,4.1926838612,24,10,23.8795,724.45418722453,18.04462,1.11847,2.74190297488,0,0,0,266.7, -5.2, 1.4,0,0,1024,1024,1024,1024,0,0,0,0,0,0,0,89,,,,,,,7.912,86.9,723.79801922453,17.388452,6,P-GPS,
13300,2023-10-10 21:38:07,40.068870852299,-88.2096653380919,17.388452,,,723.79801922453,8.858268,0,2.13214573752,4.2256234948,24,10,23.8795,724.45418722453,18.04462,1.11847,2.74190297488,0,0,0,266.8, -5.3, 1.7,0,0,1024,1024,1024,1024,0,0,0,0,0,0,0,89,,,,,,,7.912,86.9,723.79801922453,17.388452,6,P-GPS,
13400,2023-10-10 21:38:07,40.0688708509887,-88.2096653805691,17.388452,,,723.79801922453,9.186352,0,2.1205217214,4.2375001356,24,10,23.8795,724.45418722453,18.04462,1.11847,2.74190297488,0,0,0,266.8, -5.5, 1.6,0,0,1024,1024,1024,1024,0,0,0,0,0,0,0,89,,,,,,,7.912,86.9,723.79801922453,17.388452,6,P-GPS,
13500,2023-10-10 21:38:07,40.0688708734548,-88.2096654223221,17.388452,,,723.79801922453,9.186352,0,2.107693637,4.2517389812,24,10,23.8795,724.45418722453,18.04462,1.11847,2.74190297488,0,0,0,266.8, -5.7, 1.5,0,0,1024,1024,1024,1024,0,0,0,0,0,0,0,89,,,,,,,7.912,86.9,723.79801922453,17.388452,6,P-GPS,
13600,2023-10-10 21:38:07,40.0688709077907,-88.2096654651697,17.388452,,,723.79801922453,9.186352,0,2.09390098564,4.2690618164,24,10,23.8795,724.45418722453,18.04462,1.11847,2.74190297488,0,0,0,267, -5.7, 0.9,0,0,1024,1024,1024,1024,0,0,0,0,0,0,0,89,,,,,,,7.912,86.9,723.79801922453,17.388452,6,P-GPS,
13700,2023-10-10 21:38:07,40.0688709118066,-88.2096655097595,17.388452,,,723.79801922453,8.858268,0,2.08137473852,4.2816274336,24,10,23.8795,724.45418722453,18.04462,1.11847,2.74190297488,0,0,0,266.9, -5.5, 0.6,0,0,1024,1024,1024,1024,0,0,0,0,0,0,0,89,,,,,,,7.912,86.9,723.79801922453,17.388452,6,P-GPS,
13800,2023-10-10 21:38:07,40.0688709414785,-88.2096655586458,17.388452,,,723.79801922453,8.858268,0,2.06622710024,4.299048694,24,10,23.8795,724.45418722453,18.04462,1.11847,2.74190297488,0,0,0,266.9, -5.4, 0.4,0,0,1024,1024,1024,1024,0,0,0,0,0,0,0,89,,,,,,,7.912,86.9,723.79801922453,17.388452,6,P-GPS,
13900,2023-10-10 21:38:07,40.0688709590583,-88.2096656086711,17.388452,,,723.79801922453,8.858268,0,2.05145347772,4.3144030252,24,10,23.8795,724.45418722453,18.04462,1.11847,2.74190297488,0,0,-0.223694,266.8, -5.1, 0.4,0,0,1024,1024,1024,1024,0,0,0,0,0,0,0,89,,,,,,,7.912,86.9,723.79801922453,17.388452,6,P-GPS,
14000,2023-10-10 21:38:07,40.0688709258424,-88.2096656477162,17.388452,,,723.79801922453,8.858268,0,2.04252959292,4.3307088,24,10,23.8515,724.45418722453,18.04462,1.11847,2.74190297488,0,0,-0.671082,266.9, -4.6, 0.9,0,0,1024,1024,1024,1024,0,0,0,0,0,0,0,89,,,,,,,8.239,86.9,723.79801922453,17.388452,6,P-GPS,
14100,2023-10-10 21:38:07,40.0688709231963,-88.2096656506456,17.716536,,,724.12610322453,8.858268,0,2.04187342492,4.3319555192,24,10,23.8515,724.45418722453,18.04462,1.11847,2.74190297488,0,0,-0.223694,266.8, -6, 2,0,0,1024,1024,1024,1024,0,0,0,0,0,0,0,89,,,,,,,8.239,86.9,724.12610322453,17.716536,6,P-GPS,
14200,2023-10-10 21:38:08,40.0688709352219,-88.2096656431933,17.716536,,,724.12610322453,8.858268,0,2.04324481604,4.3368111624,24,10,23.8515,724.45418722453,18.04462,1.11847,2.74190297488,0,0,0,266.7, -7, 2.2,0,0,1024,1024,1040,1024,0,0,2,0,0,0,0,89,,,,,,,8.239,86.9,724.12610322453,17.716536,6,P-GPS,
14300,2023-10-10 21:38:08,40.068870937231,-88.209665633252,17.716536,,,724.12610322453,8.858268,0,2.04587604972,4.3396983016,24,10,23.8515,724.45418722453,18.04462,1.11847,2.74190297488,0,0,0,266.7, -7.3, 1.7,0,0,1024,1024,1184,1024,0,0,24,0,0,0,0,89,,,,,,,8.239,86.9,724.12610322453,17.716536,6,P-GPS,
14400,2023-10-10 21:38:08,40.0688708977571,-88.2096656448298,17.716536,,,724.12610322453,8.858268,0,2.044947572,4.3544620816,24,10,23.8515,724.45418722453,18.04462,1.11847,2.74190297488,0,0,0,266.7, -7, 1.4,0,0,1024,1024,1515,1024,0,0,74,0,0,0,0,89,,,,,,,8.239,86.9,724.12610322453,17.716536,6,P-GPS,
14500,2023-10-10 21:38:08,40.0688708823122,-88.2096657165198,17.716536,,,724.12610322453,8.858268,0,2.02611883124,4.3752626072,24,10,23.8515,724.45418722453,18.04462,1.11847,2.74190297488,0,0,0,266.7, -6.3, 1.2,0,0,1024,1024,1024,1024,0,0,0,0,0,0,0,89,,,,,,,8.239,86.9,724.12610322453,17.716536,6,P-GPS,
14600,2023-10-10 21:38:08,40.0688708522727,-88.2096658192749,17.716536,,,724.12610322453,8.858268,0,1.99969166504,4.4059712696,24,10,23.8515,724.45418722453,18.04462,1.11847,2.74190297488,0,0,-0.671082,266.6, -4.8, 1.2,0,0,1024,1024,1024,1024,0,0,0,0,0,0,0,89,,,,,,,8.239,86.9,724.12610322453,17.716536,6,P-GPS,
14700,2023-10-10 21:38:08,40.0688707476288,-88.2096659526552,17.716536,,,724.12610322453,8.858268,0,1.97009848824,4.4592849196,24,10,23.8515,724.45418722453,18.04462,1.11847,2.74190297488,0,0,-0.894776,266.6, -4.2, 1.8,0,0,1024,1024,1024,1024,0,0,0,0,0,0,0,89,,,,,,,8.239,86.9,724.12610322453,17.716536,6,P-GPS,
14800,2023-10-10 21:38:08,40.0688707186839,-88.209665998208,17.716536,,,724.12610322453,9.186352,0,1.95972447216,4.4758203532,24,10,23.8515,724.45418722453,18.04462,1.11847,2.74190297488,0,0,-0.447388,266.6, -5.8, 2.4,0,0,1024,1024,1024,1024,0,0,0,0,0,0,0,89,,,,,,,8.239,86.9,724.12610322453,17.716536,6,P-GPS,
14900,2023-10-10 21:38:08,40.0688707013132,-88.2096660372929,18.04462,,,724.45418722453,9.186352,0,1.9503281464,4.4884515872,24,10,23.8515,724.45418722453,18.04462,1.11847,2.74190297488,0,0,-0.447388,266.6, -6.7, 2.2,0,0,1024,1024,1024,1024,0,0,0,0,0,0,0,89,,,,,,,8.239,86.9,724.45418722453,18.04462,6,P-GPS,
15000,2023-10-10 21:38:08,40.0688706901108,-88.209666088576,18.04462,,,724.45418722453,9.186352,0,1.93716541632,4.5033466008,24,10,23.6375,724.45418722453,18.04462,1.11847,2.74190297488,0,0,-0.223694,266.5, -6.6, 1.8,0,0,1024,1024,1024,1024,0,0,0,0,0,0,0,89,,,,,,,7.536,86.9,724.45418722453,18.04462,6,P-GPS,
15100,2023-10-10 21:38:08,40.0688706359405,-88.2096661850882,18.04462,,,724.45418722453,8.858268,0,1.91510504816,4.536745552,24,10,23.6375,724.45418722453,18.04462,1.11847,2.74190297488,0,0,-0.223694,266.5, -5.9, 1.8,0,0,1024,1024,1024,1024,0,0,0,0,0,0,0,89,,,,,,,7.536,86.9,724.45418722453,18.04462,6,P-GPS,
15200,2023-10-10 21:38:09,40.0688706056743,-88.2096662257909,18.04462,,,724.45418722453,8.530184,0,1.90651580904,4.5525920092,24,10,23.6375,724.45418722453,18.04462,1.11847,2.74190297488,0,0,0,266.6, -5.5, 2.2,0,0,1024,1024,1024,1024,0,0,0,0,0,0,0,89,,,,,,,7.536,86.9,724.45418722453,18.04462,6,P-GPS,
15300,2023-10-10 21:38:09,40.0688705675242,-88.2096662364646,18.04462,,,724.45418722453,8.530184,0,1.90684717388,4.5668308548,24,10,23.6375,724.45418722453,18.04462,1.11847,2.74190297488,0,0,0,266.7, -5.4, 2.4,0,0,1024,1024,1024,1024,0,0,0,0,0,0,0,89,,,,,,,7.536,86.9,724.45418722453,18.04462,6,P-GPS,
15400,2023-10-10 21:38:09,40.0688705006203,-88.2096662063943,18.04462,,,724.45418722453,8.2021,0,1.9208826074,4.5926510656,24,10,23.6375,724.45418722453,18.04462,1.11847,2.74190297488,0,0,0,266.7, -5.6, 2.2,0,0,1024,1024,1024,1024,0,0,0,0,0,0,0,89,,,,,,,7.536,86.9,724.45418722453,18.04462,6,P-GPS,
15500,2023-10-10 21:38:09,40.0688705035217,-88.209666175803,18.04462,,,724.45418722453,8.2021,0,1.92890098036,4.6012468664,24,10,23.6375,724.45418722453,18.04462,1.11847,2.74190297488,0,0,0,266.7, -6.2, 2.3,0,0,1024,1024,1024,1024,0,0,0,0,0,0,0,89,,,,,,,7.536,86.9,724.45418722453,18.04462,6,P-GPS,
15600,2023-10-10 21:38:09,40.0688705088632,-88.2096661450366,18.04462,,,724.45418722453,8.530184,0,1.93675531132,4.610072326,24,10,23.6375,724.45418722453,18.04462,1.11847,2.74190297488,0,0,0,266.8, -6.8, 2.5,0,0,1024,1024,1029,1024,0,0,1,0,0,0,0,89,,,,,,,7.536,86.9,724.45418722453,18.04462,6,P-GPS,
15700,2023-10-10 21:38:09,40.0688705184796,-88.2096661238536,18.04462,,,724.45418722453,8.2021,0,1.94164704376,4.6169292816,24,10,23.6375,724.45418722453,18.04462,1.11847,2.74190297488,0,0,0,266.8, -6.9, 2.1,0,0,1024,1024,1029,1024,0,0,1,0,0,0,0,89,,,,,,,7.536,86.9,724.45418722453,18.04462,6,P-GPS,
15800,2023-10-10 21:38:09,40.068870494679,-88.2096661362586,18.04462,,,724.45418722453,8.2021,0,1.94039704372,4.6262796756,24,10,23.6375,724.45418722453,18.04462,1.11847,2.74190297488,0,0,0,266.8, -6.8, 1.8,0,0,1024,1024,1134,1024,0,0,17,0,0,0,0,89,,,,,,,7.536,86.9,724.45418722453,18.04462,6,P-GPS,
15900,2023-10-10 21:38:09,40.0688704822223,-88.2096661468496,18.04462,,,724.45418722453,8.2021,0,1.93865163684,4.63172587,24,10,23.6375,724.45418722453,18.04462,1.11847,2.74190297488,0,0,0,266.8, -6.4, 1.6,0,0,1024,1024,1137,1024,0,0,17,0,0,0,0,89,,,,,,,7.536,86.9,724.45418722453,18.04462,6,P-GPS,
16000,2023-10-10 21:38:09,40.0688704578,-88.2096661733031,18.04462,,,724.45418722453,8.2021,0,1.93373037684,4.6432744268,24,10,23.6375,724.45418722453,18.04462,1.11847,2.74190297488,0,0,-0.223694,266.8, -5.7, 2.2,0,0,1024,1024,1119,1024,0,0,14,0,0,0,0,90,,,,,,,7.536,86.9,724.45418722453,18.04462,6,P-GPS,
16100,2023-10-10 21:38:09,40.0688703695271,-88.2096662113699,18.04462,,,724.45418722453,8.530184,0,1.93189638728,4.6771983124,24,10,23.849,724.45418722453,18.04462,1.11847,2.74190297488,0,0,-0.223694,266.9, -5.3, 2.6,0,0,1024,1024,1110,1024,0,0,13,0,0,0,0,89,,,,,,,7.641,86.9,724.45418722453,18.04462,6,P-GPS,
16200,2023-10-10 21:38:09,40.0688703395872,-88.2096662198546,18.04462,,,724.45418722453,8.858268,0,1.93259848704,4.6883859768,24,10,23.849,724.45418722453,18.04462,1.11847,2.74190297488,0,0,-0.223694,266.8, -5.5, 3,0,0,1024,1024,1110,1024,0,0,13,0,0,0,0,89,,,,,,,7.641,86.9,724.45418722453,18.04462,6,P-GPS,
16300,2023-10-10 21:38:10,40.0688703226668,-88.2096662172561,18.04462,,,724.45418722453,8.858268,0,1.9350066236,4.6945867644,24,10,23.849,724.45418722453,18.04462,1.11847,2.74190297488,0,0,-0.223694,266.7, -5.9, 2.8,0,0,1024,1024,1080,1024,0,0,8,0,0,0,0,89,,,,,,,7.641,86.9,724.45418722453,18.04462,6,P-GPS,
16400,2023-10-10 21:38:10,40.0688703176647,-88.2096662122635,18.04462,,,724.45418722453,8.858268,0,1.93685373652,4.6968833524,24,10,23.849,724.45418722453,18.04462,1.11847,2.74190297488,0,0,-0.223694,266.7, -6.4, 2.2,0,0,1024,1024,1103,1024,0,0,12,0,0,0,0,89,,,,,,,7.641,86.9,724.45418722453,18.04462,6,P-GPS,
16500,2023-10-10 21:38:10,40.0688702309273,-88.2096662199836,18.04462,,,724.45418722453,8.858268,0,1.94386161076,4.7286090752,24,10,23.849,724.45418722453,18.04462,1.11847,2.74190297488,0,0,-0.223694,266.8, -6.5, 2.1,0,0,1024,1024,1119,1024,0,0,14,0,0,0,0,89,,,,,,,7.641,86.9,724.45418722453,18.04462,6,P-GPS,
16600,2023-10-10 21:38:10,40.0688702123021,-88.2096662331484,18.04462,,,724.45418722453,8.530184,0,1.94236554772,4.7363518576,24,10,23.849,724.45418722453,18.04462,1.11847,2.74190297488,0,0,-0.223694,266.9, -5.9, 2.2,0,0,1024,1024,1119,1024,0,0,14,0,0,0,0,89,,,,,,,7.641,86.9,724.45418722453,18.04462,6,P-GPS,
16700,2023-10-10 21:38:10,40.0688702220794,-88.2096662558479,18.04462,,,724.45418722453,8.530184,0,1.9352526866,4.743602514,24,10,23.849,724.45418722453,18.04462,1.11847,2.74190297488,0,0,-0.223694,266.9, -5.7, 2.3,0,0,1024,1024,1137,1024,0,0,17,0,0,0,0,89,,,,,,,7.641,86.9,724.45418722453,18.04462,6,P-GPS,
16800,2023-10-10 21:38:10,40.0688701883109,-88.2096662879456,18.372704,,,724.78227122453,8.2021,0,1.9304134476,4.75885842,24,10,23.849,724.78227122453,18.372704,1.11847,2.74190297488,0,0,-0.223694,267, -5.9, 1.9,0,0,1024,1024,1170,1024,0,0,22,0,0,0,0,89,,,,,,,7.641,86.9,724.78227122453,18.372704,6,P-GPS,
16900,2023-10-10 21:38:10,40.0688702183402,-88.2096663116032,18.372704,,,724.78227122453,8.530184,0,1.92080386724,4.771653696,24,10,23.849,724.78227122453,18.372704,1.11847,2.74190297488,0,0,-0.447388,267, -5.9, 1.5,0,0,1024,1024,1184,1024,0,0,24,0,0,0,0,89,,,,,,,7.641,86.9,724.78227122453,18.372704,6,P-GPS,
17000,2023-10-10 21:38:10,40.0688702549885,-88.2096663402911,18.372704,,,724.78227122453,8.530184,0,1.90917657028,4.787237686,24,10,23.849,724.78227122453,18.372704,1.11847,2.74190297488,0,0,-0.447388,267.1, -5.4, 1,0,0,1024,1024,1184,1024,0,0,24,0,0,0,0,89,,,,,,,7.641,86.9,724.78227122453,18.372704,6,P-GPS,
17100,2023-10-10 21:38:10,40.0688702958605,-88.2096663647928,18.372704,,,724.78227122453,8.530184,0,1.8982776198,4.803641886,24,10,23.811,724.78227122453,18.372704,1.11847,2.74190297488,0,0,-0.671082,267.1, -5.3, 0.5,0,0,1024,1024,1102,1024,0,0,12,0,0,0,0,89,,,,,,,8.121,86.9,724.78227122453,18.372704,6,P-GPS,
17200,2023-10-10 21:38:11,40.0688703033155,-88.2096663890646,18.700788,,,725.11035522453,8.2021,0,1.89100399752,4.8109253508,24,10,23.811,725.11035522453,18.700788,1.11847,2.74190297488,0,0,-0.671082,267, -5.5, 1,0,0,1024,1024,1024,1024,0,0,0,0,0,0,0,89,,,,,,,8.121,86.9,725.11035522453,18.700788,6,P-GPS,
17300,2023-10-10 21:38:11,40.0688703560673,-88.2096663897261,18.700788,,,725.11035522453,8.530184,0,1.88536095272,4.8301838816,24,10,23.811,725.11035522453,18.700788,1.11847,2.74190297488,0,0,-0.671082,266.9, -6.1, 1.3,0,0,1024,1024,1024,1024,0,0,0,0,0,0,0,89,,,,,,,8.121,86.9,725.11035522453,18.700788,6,P-GPS,
17400,2023-10-10 21:38:11,40.0688704142545,-88.2096663852844,18.700788,,,725.11035522453,8.530184,0,1.88073824916,4.8514437248,24,10,23.811,725.11035522453,18.700788,1.11847,2.74190297488,0,0,-0.447388,266.9, -6.6, 1.3,0,0,1024,1024,1024,1024,0,0,0,0,0,0,0,89,,,,,,,8.121,86.9,725.11035522453,18.700788,6,P-GPS,
17500,2023-10-10 21:38:11,40.0688704541857,-88.2096663924369,18.700788,,,725.11035522453,8.2021,0,1.87494756656,4.866141888,24,10,23.811,725.11035522453,18.700788,1.11847,2.74190297488,0,0,-0.223694,266.9, -6.6, 1.2,0,0,1024,1024,1024,1024,0,0,0,0,0,0,0,89,,,,,,,8.121,86.9,725.11035522453,18.700788,6,P-GPS,
17600,2023-10-10 21:38:11,40.0688705106669,-88.2096664068742,18.700788,,,725.11035522453,7.545932,0,1.86576121456,4.887139264,24,10,23.811,725.11035522453,18.700788,1.11847,2.74190297488,0,0,-0.223694,266.7, -6.3, 1.1,0,0,1024,1024,1024,1024,0,0,0,0,0,0,0,89,,,,,,,8.121,86.9,725.11035522453,18.700788,6,P-GPS,
17700,2023-10-10 21:38:11,40.0688705599896,-88.2096664268819,18.700788,,,725.11035522453,7.545932,0,1.855889167,4.906004094,24,10,23.811,725.11035522453,18.700788,1.11847,2.74190297488,0,0,0,266.6, -6, 1,0,0,1024,1024,1024,1024,0,0,0,0,0,0,0,89,,,,,,,8.121,86.9,725.11035522453,18.700788,6,P-GPS,
17800,2023-10-10 21:38:11,40.068870594675,-88.2096664320621,18.700788,,,725.11035522453,7.545932,0,1.85144034796,4.9187337532,24,10,23.811,725.11035522453,18.700788,1.11847,2.74190297488,0,0,0,266.7, -5.7, 1.4,0,0,1024,1024,1075,1024,0,0,8,0,0,0,0,89,,,,,,,8.121,86.9,725.11035522453,18.700788,6,P-GPS,
17900,2023-10-10 21:38:11,40.0688706031816,-88.2096664104202,18.700788,,,725.11035522453,7.874016,0,1.8565781434,4.925525092,24,10,23.811,725.11035522453,18.700788,1.11847,2.74190297488,0,0,0,266.8, -5.8, 1.8,0,0,1024,1024,1171,1024,0,0,22,0,0,0,0,89,,,,,,,8.121,86.9,725.11035522453,18.700788,6,P-GPS,
18000,2023-10-10 21:38:11,40.0688706336314,-88.2096663615206,18.700788,,,725.11035522453,7.874016,0,1.867290086,4.9431103944,24,10,23.811,725.11035522453,18.700788,1.11847,2.74190297488,0,0,0,266.9, -6.4, 1.8,0,0,1024,1024,1171,1024,0,0,22,0,0,0,0,89,,,,,,,8.121,86.9,725.11035522453,18.700788,6,P-GPS,
18100,2023-10-10 21:38:11,40.0688706474215,-88.2096662970757,18.700788,,,725.11035522453,7.545932,0,1.88368772432,4.9618111824,24,10,23.833,725.11035522453,18.700788,1.11847,2.74190297488,0,0,-0.223694,267.1, -6.4, 1.5,0,0,1024,1024,1197,1024,0,0,26,0,0,0,0,89,,,,,,,7.641,86.9,725.11035522453,18.700788,6,P-GPS,
18200,2023-10-10 21:38:11,40.068870600154,-88.2096662331446,18.700788,,,725.11035522453,7.545932,0,1.90497709508,4.9866143328,24,10,23.833,725.11035522453,18.700788,1.11847,2.74190297488,0,0,-0.447388,267.2, -6.1, 1.7,0,0,1024,1024,1211,1024,0,0,28,0,0,0,0,89,,,,,,,7.641,86.9,725.11035522453,18.700788,6,P-GPS,
18300,2023-10-10 21:38:12,40.0688706170479,-88.2096661854328,19.028872,,,725.43843922453,7.545932,0,1.91654861776,5.001312496,24,10,23.833,725.43843922453,19.028872,1.11847,2.74190297488,0,0,-0.671082,267.4, -6.5, 2.2,0,0,1024,1024,1211,1024,0,0,28,0,0,0,0,89,,,,,,,7.641,86.9,725.43843922453,19.028872,6,P-GPS,
18400,2023-10-10 21:38:12,40.0688706486024,-88.2096661481523,19.028872,,,725.43843922453,7.545932,0,1.9241470432,5.0168308692,24,10,23.833,725.43843922453,19.028872,1.11847,2.74190297488,0,0,-0.894776,267.4, -7.1, 2.4,0,0,1024,1024,1210,1024,0,0,28,0,0,0,0,89,,,,,,,7.641,86.9,725.43843922453,19.028872,6,P-GPS,
18500,2023-10-10 21:38:12,40.0688706988882,-88.2096661274327,19.356956,,,725.76652322453,7.545932,0,1.9258858884,5.0360565916,24,10,23.833,725.76652322453,19.356956,1.11847,2.74190297488,0,0,-1.11847,267.2, -7.2, 1.7,0,0,1024,1024,1188,1024,0,0,25,0,0,0,0,89,,,,,,,7.641,86.9,725.76652322453,19.356956,6,P-GPS,
18600,2023-10-10 21:38:12,40.0688707191901,-88.2096661205431,19.356956,,,725.76652322453,7.545932,0,1.92624021912,5.0437337572,24,10,23.833,725.76652322453,19.356956,1.11847,2.74190297488,0,0,-1.342164,267, -7, 1.2,0,0,1024,1024,1024,1024,0,0,0,0,0,0,0,89,,,,,,,7.641,86.9,725.76652322453,19.356956,6,P-GPS,
18700,2023-10-10 21:38:12,40.0688707591875,-88.2096661364305,19.68504,,,726.09460722453,7.545932,0,1.91895675432,5.0589568548,24,10,23.833,726.09460722453,19.68504,1.11847,2.74190297488,0,0,-1.342164,266.9, -7, 1.1,0,0,1024,1024,1024,1024,0,0,0,0,0,0,0,89,,,,,,,7.641,86.9,726.09460722453,19.68504,6,P-GPS,
18800,2023-10-10 21:38:12,40.0688708037147,-88.2096661500025,19.68504,,,726.09460722453,7.217848,0,1.9120899562,5.0756563304,24,10,23.833,726.09460722453,19.68504,1.11847,2.74190297488,0,0,-0.894776,266.9, -7.4, 1.1,0,0,1024,1024,1024,1024,0,0,0,0,0,0,0,89,,,,,,,7.641,86.9,726.09460722453,19.68504,6,P-GPS,
18900,2023-10-10 21:38:12,40.0688708318193,-88.2096661552662,20.013124,,,726.42269122453,7.217848,0,1.9087270952,5.0860237848,24,10,23.833,726.42269122453,20.013124,1.11847,2.74190297488,0,0,-0.671082,266.8, -7.4, 1.1,0,0,1024,1024,1024,1024,0,0,0,0,0,0,0,89,,,,,,,7.641,86.9,726.42269122453,20.013124,6,P-GPS,
19000,2023-10-10 21:38:12,40.0688708735726,-88.2096661870618,20.013124,,,726.42269122453,6.56168,0,1.89723103184,5.1036418956,24,10,23.833,726.42269122453,20.013124,1.11847,2.74190297488,0,0,-0.447388,266.8, -7.1, 1.1,0,0,1024,1024,1024,1024,0,0,0,0,0,0,0,89,,,,,,,7.641,86.9,726.42269122453,20.013124,6,P-GPS,
19100,2023-10-10 21:38:13,40.0688708908025,-88.2096662292821,20.013124,,,726.42269122453,6.233596,0,1.88451777684,5.1169949144,24,10,23.833,726.42269122453,20.013124,1.11847,2.74190297488,0,0,-0.223694,266.7, -6.8, 1.3,0,0,1024,1024,1024,1024,0,0,0,0,0,0,0,89,,,,,,,7.641,86.9,726.42269122453,20.013124,6,P-GPS,
19200,2023-10-10 21:38:13,40.0688709076852,-88.2096662814977,20.013124,,,726.42269122453,5.905512,0,1.86908470548,5.1328413716,24,10,23.833,726.42269122453,20.013124,1.11847,2.74190297488,0,0,0,266.7, -6.5, 1.6,0,0,1024,1024,1024,1024,0,0,0,0,0,0,0,89,,,,,,,7.641,86.9,726.42269122453,20.013124,6,P-GPS,
