time(millisecond),datetime(utc),latitude,longitude,height_above_takeoff(feet),height_above_ground_at_drone_location(feet),ground_elevation_at_drone_location(feet),altitude_above_seaLevel(feet),height_sonar(feet),speed(mph),distance(feet),mileage(feet),satellites,gpslevel,voltage(v),max_altitude(feet),max_ascent(feet),max_speed(mph),max_distance(feet), xSpeed(mph), ySpeed(mph), zSpeed(mph), compass_heading(degrees), pitch(degrees), roll(degrees),isPhoto,isVideo,rc_elevator,rc_aileron,rc_throttle,rc_rudder,rc_elevator(percent),rc_aileron(percent),rc_throttle(percent),rc_rudder(percent),gimbal_heading(degrees),gimbal_pitch(degrees),gimbal_roll(degrees),battery_percent,voltageCell1,voltageCell2,voltageCell3,voltageCell4,voltageCell5,voltageCell6,current(A),battery_temperature(f),altitude(feet),ascent(feet),flycStateRaw,flycState,message
0,2023-10-10 22:20:58,40.0688863606542,-88.2096455267422,0,Available with any HD 360 subscription,Available with any HD 360 subscription,706.43970403652,0.328084,0,0,0,23,10,0,706.43970403652,0,0,0,0,0,0,177.6, -0.9, -0.3,0,0,1024,1024,1024,1024,0,0,0,0,0,0,0,63,,,,,,,0,85.82,706.43970403652,0,41,Motors_Started,"GEO: You are in a Warning Zone (Airport). Fly with caution."
100,2023-10-10 22:20:58,40.0688864059728,-88.2096455044133,0,,,706.43970403652,0.328084,0,0.0176708010904,0.0176708010904,23,10,0,706.43970403652,0,0,0.0176708010904,0,0,0,177.6, -0.9, -0.3,0,0,364,364,364,1684,-100,-100,-100,100,0,0,0,63,,,,,,,0,85.82,706.43970403652,0,41,Motors_Started,
200,2023-10-10 22:20:58,40.0688863903238,-88.2096455102683,0,,,706.43970403652,0.328084,0,0.011761647358,0.02360974485,23,10,0,706.43970403652,0,0,0.0176708010904,0,0,0,177.6, -0.9, -0.3,0,0,364,364,364,1684,-100,-100,-100,100,0,0,0,63,,,,,,,0,85.82,706.43970403652,0,41,Motors_Started,
300,2023-10-10 22:20:58,40.0688863709533,-88.2096455159813,0,,,706.43970403652,0.328084,0,0.0048111222012,0.0308548566304,23,10,0,706.43970403652,0,0,0.0176708010904,0,0,0,177.6, -0.9, -0.3,0,0,364,364,364,1684,-100,-100,-100,100,0,0,0,63,,,,,,,0,85.82,706.43970403652,0,41,Motors_Started,
400,2023-10-10 22:20:58,40.0688863534659,-88.2096455282495,0,,,706.43970403652,0.328084,0,0.00265618118736,0.038096457912,23,10,0,706.43970403652,0,0,0.0176708010904,0,0,0,177.6, -0.9, -0.3,0,0,364,364,364,1684,-100,-100,-100,100,0,0,0,63,,,,,,,0,85.82,706.43970403652,0,41,Motors_Started,"Setting new Return-To-Home altitude to 100m (328 ft). Data Recorder File Index is 38. Setting new Maximum Flight Altitude to 120m (394 ft)"
500,2023-10-10 22:20:58,40.0688863897205,-88.2096455141435,0,,,706.43970403652,0.328084,0,0.0111730318536,0.05189796754,23,10,0,706.43970403652,0,0,0.0176708010904,0,0,0,177.6, -0.9, -0.3,0,0,364,364,364,1684,-100,-100,-100,100,0,0,0,63,,,,,,,0,85.82,706.43970403652,0,41,Motors_Started,
600,2023-10-10 22:20:58,40.0688863696989,-88.2096455289832,0,,,706.43970403652,0.328084,0,0.00335875995,0.060295933688,23,10,0,706.43970403652,0,0,0.0176708010904,0,0,0,177.6, -0.9, -0.3,0,0,364,364,364,1684,-100,-100,-100,100,0,0,0,63,,,,,,,0,85.82,706.43970403652,0,41,Motors_Started,
700,2023-10-10 22:20:58,40.0688863439712,-88.2096455457559,0,,,706.43970403652,0.328084,0,0.0080766406784,0.070786091504,23,10,0,706.43970403652,0,0,0.0176708010904,0,0,0,177.6, -0.9, -0.3,0,0,364,364,364,1684,-100,-100,-100,100,0,0,0,63,,,,,,,0,85.82,706.43970403652,0,41,Motors_Started,"Infrared sensors blocked"
800,2023-10-10 22:20:59,40.068886393273,-88.2096455334057,0,,,706.43970403652,0.328084,0,0.0120455056348,0.089101380804,23,10,0,706.43970403652,0,0,0.0176708010904,0,0,0,177.6, -0.9, -0.3,0,0,364,364,364,1684,-100,-100,-100,100,0,0,0,63,,,,,,,0,85.82,706.43970403652,0,41,Motors_Started,
900,2023-10-10 22:20:59,40.0688863841381,-88.2096455534189,0,,,706.43970403652,0.328084,0,0.0113529859276,0.095607614608,23,10,0,706.43970403652,0,0,0.0176708010904,0,0,0,177.5, -0.9, -0.3,0,0,1024,1024,1024,1024,0,0,0,0,0,0,0,63,,,,,,,0,85.82,706.43970403652,0,41,Motors_Started,
1000,2023-10-10 22:20:59,40.0688863767375,-88.2096455609864,0,,,706.43970403652,0.328084,0,0.011218340254,0.099036092408,22,10,22.465,706.43970403652,0,0,0.0176708010904,0,0,0,177.5, -0.8, -0.3,0,0,1024,1024,1024,1024,0,0,0,0,0,0,0,63,,,,,,,0.316,85.82,706.43970403652,0,41,Motors_Started,
1100,2023-10-10 22:20:59,40.0688863609218,-88.2096455665767,0,,,706.43970403652,0.328084,0,0.0111225725344,0.105013782888,22,10,22.465,706.43970403652,0,0,0.0176708010904,0,0,0,177.5, -0.8, -0.3,0,0,1024,1024,1024,1024,0,0,0,0,0,0,0,63,,,,,,,0.316,85.82,706.43970403652,0,41,Motors_Started,
1200,2023-10-10 22:20:59,40.0688863768891,-88.2096455520661,0,,,706.43970403652,0.328084,0,0.0092238848096,0.112109911724,22,10,22.465,706.43970403652,0,0,0.0176708010904,0,0,0,177.5, -0.9, -0.3,0,0,1024,1024,1024,1024,0,0,0,0,0,0,0,63,,,,,,,0.316,85.82,706.43970403652,0,41,Motors_Started,
1300,2023-10-10 22:20:59,40.0688863764193,-88.2096455482734,0,,,706.43970403652,0.328084,0,0.0083201446232,0.113182746404,22,10,22.465,706.43970403652,0,0,0.0176708010904,0,0,0,177.6, -0.9, -0.4,0,0,1024,1024,1024,1024,0,0,0,0,0,0,0,63,,,,,,,0.316,85.82,706.43970403652,0,41,Motors_Started,
1400,2023-10-10 22:20:59,40.0688863800846,-88.2096455490566,0,,,706.43970403652,0.328084,0,0.0094378940028,0.114537733324,22,10,22.465,706.43970403652,0,0,0.0176708010904,0,0,0,177.6, -0.9, -0.4,0,0,1024,1024,1024,1024,0,0,0,0,0,0,0,63,,,,,,,0.316,85.82,706.43970403652,0,41,Motors_Started,
1500,2023-10-10 22:20:59,40.0688864258207,-88.2096455288347,0,,,706.43970403652,0.328084,0,0.023783137244,0.13215387562,22,10,22.465,706.43970403652,0,0,0.023783137244,0,0,0,177.6, -0.9, -0.4,0,0,1024,1024,1024,1024,0,0,0,0,0,0,0,63,,,,,,,0.316,85.82,706.43970403652,0,41,Motors_Started,
1600,2023-10-10 22:20:59,40.0688864065459,-88.2096455403844,0,,,706.43970403652,0.328084,0,0.0171713916256,0.139890424424,22,10,22.465,706.43970403652,0,0,0.023783137244,0,0,0,177.6, -0.9, -0.4,0,0,1024,1024,1024,1024,0,0,0,0,0,0,0,63,,,,,,,0.316,85.82,706.43970403652,0,41,Motors_Started,
1700,2023-10-10 22:20:59,40.0688863849379,-88.2096455525284,0,,,706.43970403652,0.328084,0,0.0114163717564,0.148472117612,22,10,22.465,706.43970403652,0,0,0.023783137244,0,0,0,177.6, -0.9, -0.3,0,0,1024,1024,1024,1024,0,0,0,0,0,0,0,63,,,,,,,0.316,85.82,706.43970403652,0,41,Motors_Started,
1800,2023-10-10 22:21:00,40.0688863702477,-88.209645559094,0,,,706.43970403652,0.328084,0,0.0096873690764,0.154136815956,22,10,22.465,706.43970403652,0,0,0.023783137244,0,0,0,177.6, -0.9, -0.4,0,0,1024,1024,1024,1024,0,0,0,0,0,0,0,63,,,,,,,0.316,85.82,706.43970403652,0,41,Motors_Started,
1900,2023-10-10 22:21:00,40.0688864126302,-88.2096455210348,0,,,706.43970403652,0.328084,0,0.0190302499528,0.172899283748,22,10,22.465,706.43970403652,0,0,0.023783137244,0,0,0,177.6, -0.9, -0.3,0,0,1024,1024,1024,1024,0,0,0,0,0,0,0,63,,,,,,,0.316,85.82,706.43970403652,0,41,Motors_Started,
2000,2023-10-10 22:21:00,40.0688863964208,-88.2096455280702,0,,,706.43970403652,0.328084,0,0.0130547248272,0.179130911244,22,10,22.3915,706.43970403652,0,0,0.023783137244,0,0,0,177.5, -0.9, -0.3,0,0,1024,1024,1024,1024,0,0,0,0,0,0,0,63,,,,,,,3.186,85.82,706.43970403652,0,10,Assisted_Takeoff,
2100,2023-10-10 22:21:00,40.0688863750231,-88.209645538586,0,,,706.43970403652,0.328084,0,0.00619832697,0.187471790776,22,10,22.3915,706.43970403652,0,0,0.023783137244,0,0,0,177.5, -0.9, -0.3,0,0,1024,1024,1024,1024,0,0,0,0,0,0,0,63,,,,,,,3.186,85.82,706.43970403652,0,10,Assisted_Takeoff,
2200,2023-10-10 22:21:00,40.0688864129688,-88.2096455203412,0,,,706.43970403652,0.328084,0,0.0191704730544,0.202223759752,22,10,22.3915,706.43970403652,0,0,0.023783137244,0,0,0,177.6, -0.9, -0.3,0,0,1024,1024,1024,1024,0,0,0,0,0,0,0,63,,,,,,,3.186,85.82,706.43970403652,0,10,Assisted_Takeoff,
2300,2023-10-10 22:21:00,40.0688863904991,-88.2096455369451,0,,,706.43970403652,0.328084,0,0.0112553809376,0.211641739056,22,10,22.3915,706.43970403652,0,0,0.023783137244,0,0,0,177.6, -0.9, -0.3,0,0,1024,1024,1024,1024,0,0,0,0,0,0,0,63,,,,,,,3.186,85.82,706.43970403652,0,10,Assisted_Takeoff,
2400,2023-10-10 22:21:00,40.0688863735197,-88.2096455583795,0,,,706.43970403652,0.328084,0,0.0100031499264,0.220255584476,22,10,22.3915,706.43970403652,0,0,0.023783137244,0,0,0,177.6, -0.9, -0.3,0,0,1024,1024,1024,1024,0,0,0,0,0,0,0,63,,,,,,,3.186,85.82,706.43970403652,0,10,Assisted_Takeoff,
2500,2023-10-10 22:21:00,40.0688863542307,-88.2096455853981,0,,,706.43970403652,0.328084,0,0.0165440950176,0.230572185856,22,10,22.3915,706.43970403652,0,0,0.023783137244,0,0,0,177.6, -0.9, -0.3,0,0,1024,1024,1024,1024,0,0,0,0,0,0,0,63,,,,,,,3.186,85.82,706.43970403652,0,10,Assisted_Takeoff,
2600,2023-10-10 22:21:00,40.0688863692913,-88.2096455907059,0,,,706.43970403652,0.328084,0,0.0181351055672,0.236263459004,22,10,22.3915,706.43970403652,0,0,0.023783137244,0,0,0,177.5, -0.9, -0.3,0,0,1024,1024,1024,1024,0,0,0,0,0,0,0,63,,,,,,,3.186,85.82,706.43970403652,0,10,Assisted_Takeoff,
2700,2023-10-10 22:21:01,40.0688863395087,-88.2096456048524,0,,,706.43970403652,0.328084,0,0.0231333996904,0.247825139164,22,10,22.3915,706.43970403652,0,0,0.023783137244,0,0,0,177.5, -0.9, -0.3,0,0,1024,1024,1024,1024,0,0,0,0,0,0,0,63,,,,,,,3.186,85.82,706.43970403652,0,10,Assisted_Takeoff,
2800,2023-10-10 22:21:01,40.0688863274445,-88.2096456231475,0,,,706.43970403652,0.328084,0,0.0295185704984,0.254568249616,22,10,22.3915,706.43970403652,0,0,0.0295185704984,0,0,0,177.5, -0.9, -0.3,0,0,1024,1024,1024,1024,0,0,0,0,0,0,0,63,,,,,,,3.186,85.82,706.43970403652,0,10,Assisted_Takeoff,
2900,2023-10-10 22:21:01,40.0688863931257,-88.2096456044659,0,,,706.43970403652,0.328084,0,0.02472441024,0.279093184784,22,10,22.3915,706.43970403652,0,0,0.0295185704984,0,0,0,177.5, -0.9, -0.3,0,0,1024,1024,1024,1024,0,0,0,0,0,0,0,63,,,,,,,3.186,85.82,706.43970403652,0,10,Assisted_Takeoff,
3000,2023-10-10 22:21:01,40.0688863830458,-88.2096456251772,0,,,706.43970403652,0.328084,0,0.028672409054,0.285946203376,22,10,22.3915,706.43970403652,0,0,0.0295185704984,0,0,0,177.6, -0.9, -0.3,0,0,1024,1024,1024,1024,0,0,0,0,0,0,0,63,,,,,,,3.186,85.82,706.43970403652,0,10,Assisted_Takeoff,
3100,2023-10-10 22:21:01,40.068886364322,-88.2096456483621,0,,,706.43970403652,0.328084,0,0.033983596888,0.295357621,22,10,22.4385,706.43970403652,0,0,0.033983596888,0,0,0,177.5, -1, -0.3,0,0,1024,1024,1024,1024,0,0,0,0,0,0,0,63,,,,,,,0.659,85.82,706.43970403652,0,10,Assisted_Takeoff,
3200,2023-10-10 22:21:01,40.0688863479721,-88.2096456681079,0,,,706.43970403652,0.328084,0,0.03974081492,0.303480324672,22,10,22.4385,706.43970403652,0,0,0.03974081492,0,0,0,177.5, -0.9, -0.3,0,0,1024,1024,1024,1024,0,0,0,0,0,0,0,63,,,,,,,0.659,85.82,706.43970403652,0,10,Assisted_Takeoff,
3300,2023-10-10 22:21:01,40.0688863935298,-88.2096456385008,0,,,706.43970403652,0.328084,0,0.033429791096,0.32204397356,22,10,22.4385,706.43970403652,0,0,0.03974081492,0,0,0,177.5, -0.9, -0.3,0,0,1024,1024,1024,1024,0,0,0,0,0,0,0,63,,,,,,,0.659,85.82,706.43970403652,0,10,Assisted_Takeoff,
3400,2023-10-10 22:21:01,40.0688863640674,-88.2096456558469,0,,,706.43970403652,0.328084,0,0.036068570708,0.33383531252,22,10,22.4385,706.43970403652,0,0,0.03974081492,0,0,0,177.5, -0.9, -0.3,0,0,1024,1024,1024,1024,0,0,0,0,0,0,0,63,,,,,,,0.659,85.82,706.43970403652,0,10,Assisted_Takeoff,
3500,2023-10-10 22:21:01,40.068886322562,-88.2096456751203,0,,,706.43970403652,0.328084,0,0.04369750796,0.34990486684,22,10,22.4385,706.43970403652,0,0,0.04369750796,0,0,0,177.5, -1, -0.3,0,0,1024,1024,1024,1024,0,0,0,0,0,0,0,63,,,,,,,0.659,85.82,706.43970403652,0,10,Assisted_Takeoff,
3600,2023-10-10 22:21:01,40.0688863344511,-88.2096456289248,0,,,706.43970403652,0.328084,0,0.0300894366584,0.36351379116,22,10,22.4385,706.43970403652,0,0,0.04369750796,0,0,0,177.5, -0.9, -0.3,0,0,1024,1024,1556,1024,0,0,81,0,0,0,0,63,,,,,,,0.659,85.82,706.43970403652,0,10,Assisted_Takeoff,
3700,2023-10-10 22:21:01,40.0688863028673,-88.2096456400459,0,,,706.43970403652,0.328084,0,0.038017389668,0.37544620624,22,10,22.4385,706.43970403652,0,0,0.04369750796,0,0,0,177.5, -0.9, -0.3,0,0,1024,1024,1556,1024,0,0,81,0,0,0,0,63,,,,,,,0.659,85.82,706.43970403652,0,10,Assisted_Takeoff,
3800,2023-10-10 22:21:02,40.0688862862536,-88.2096456487325,0,,,706.43970403652,0.328084,0,0.043554463336,0.38197507784,22,10,22.4385,706.43970403652,0,0,0.04369750796,0,0,0,177.5, -0.9, -0.3,0,0,1024,1024,1684,1238,0,0,100,32,0,0,0,63,,,,,,,0.659,85.82,706.43970403652,0,10,Assisted_Takeoff,
3900,2023-10-10 22:21:02,40.0688862735545,-88.2096456598813,0,,,706.43970403652,0.328084,0,0.048905513376,0.38755906752,22,10,22.4385,706.43970403652,0,0,0.048905513376,0,0,0,177.5, -0.9, -0.3,0,0,1024,1024,1684,1238,0,0,100,32,0,0,0,63,,,,,,,0.659,85.82,706.43970403652,0,10,Assisted_Takeoff,
4000,2023-10-10 22:21:02,40.068886318545,-88.2096456312798,0,,,706.43970403652,0.328084,0,0.032984253024,0.40581366128,21,10,22.4385,706.43970403652,0,0,0.048905513376,0,0,0,177.6, -0.9, -0.4,0,0,1024,1024,1684,1206,0,0,100,28,0,0,0,63,,,,,,,0.659,85.82,706.43970403652,0,10,Assisted_Takeoff,
4100,2023-10-10 22:21:02,40.0688863106312,-88.2096456361097,0,,,706.43970403652,0.328084,0,0.035574804288,0.40899935692,21,10,22.4385,706.43970403652,0,0,0.048905513376,0,0,0,177.6, -0.8, -0.4,0,0,1024,1024,1684,1154,0,0,100,20,0,0,0,63,,,,,,,0.659,85.82,706.43970403652,0,10,Assisted_Takeoff,
4200,2023-10-10 22:21:02,40.0688863000069,-88.2096456333313,0,,,706.43970403652,0.328084,0,0.03708497494,0.41295276912,21,10,22.4385,706.43970403652,0,0,0.048905513376,0,0,0,177.6, -0.7, -0.5,0,0,1024,1024,1684,1152,0,0,100,19,0,0,0,63,,,,,,,0.659,85.82,706.43970403652,0,10,Assisted_Takeoff,
4300,2023-10-10 22:21:02,40.0688863695819,-88.2096455585102,0,,,706.43970403652,0.328084,0,0.0094490816672,0.44582678592,21,10,22.4385,706.43970403652,0,0,0.048905513376,0,0,0,177.6, -0.3, -0.6,0,0,1024,1024,1684,1152,0,0,100,19,0,0,0,63,,,,,,,0.659,85.82,706.43970403652,0,10,Assisted_Takeoff,
4400,2023-10-10 22:21:02,40.068886387784,-88.2096455569483,0,,,706.43970403652,0.328084,0,0.0130040686576,0.45248361028,21,10,22.4385,706.43970403652,0,0,0.048905513376,0,0,0,177.3, 1.2, -0.3,0,0,1024,1024,1684,1153,0,0,100,20,0,0,0,63,,,,,,,0.659,85.82,706.43970403652,0,10,Assisted_Takeoff,
4500,2023-10-10 22:21:02,40.0688864419459,-88.2096455444226,0,,,706.43970403652,0.328084,0,0.03006725818,0.47254922772,21,10,22.4385,706.43970403652,0,0,0.048905513376,0,0,-0.447388,177.2, 3, -0.1,0,0,1024,1024,1684,1152,0,0,100,19,0,0,0,63,,,,,,,0.659,85.82,706.43970403652,0,6,P-GPS,
4600,2023-10-10 22:21:02,40.068886572062,-88.2096455117364,0,,,706.43970403652,0.328084,0.223694,0.07724573738,0.52089240512,21,10,22.4385,706.43970403652,0,0.223694,0.07724573738,0.223694,0,-1.11847,177.5, 3.2, -0.2,0,0,1024,1024,1684,1152,0,0,100,19,0,0,0,63,,,,,,,0.659,85.82,706.43970403652,0,6,P-GPS,
4700,2023-10-10 22:21:02,40.0688868688699,-88.209645401934,0.328084,,,706.76778803652,0.328084,0.223694,0.188668313124,0.63343834048,21,10,22.4385,706.76778803652,0.328084,0.223694,0.188668313124,0.447388,0,-1.565858,177.9, 1.8, 0.4,0,0,1024,1024,1684,1108,0,0,100,13,0,0,0,63,,,,,,,0.659,85.82,706.76778803652,0.328084,6,P-GPS,
4800,2023-10-10 22:21:03,40.0688871314627,-88.209645342503,0.656168,,,707.09587203652,0.328084,0.447388,0.285895022272,0.73067259556,21,10,22.1945,707.09587203652,0.656168,0.447388,0.285895022272,0.447388,0,-2.23694,178.5, -0.1, 0.3,0,0,1024,1024,1684,1052,0,0,100,4,0,0,0,63,,,,,,,8.314,85.82,707.09587203652,0.656168,6,P-GPS,
4900,2023-10-10 22:21:03,40.0688874149389,-88.2096452732496,0.984252,,,707.42395603652,0.328084,0.447388,0.39111221724,0.83588913436,21,10,22.1945,707.42395603652,0.984252,0.447388,0.39111221724,0.447388,0,-2.908022,178.7, -2.3, -0.3,0,0,1024,1024,1684,1025,0,0,100,0,0,0,0,63,,,,,,,8.314,85.82,707.42395603652,0.984252,6,P-GPS,
5000,2023-10-10 22:21:03,40.068887697351,-88.209645123698,1.312336,,,707.75204003652,0.328084,0.4921268,0.5005085462,0.94706695944,21,10,22.1945,707.75204003652,1.312336,0.4921268,0.5005085462,0.447388,0.223694,-3.579104,178.7, -4, -1,0,0,1024,1024,1684,1024,0,0,100,0,0,0,0,63,,,,,,,8.314,85.82,707.75204003652,1.312336,6,P-GPS,
5100,2023-10-10 22:21:03,40.0688878668036,-88.2096449481199,1.968504,,,708.40820803652,0.328084,0.3131716,0.57277560888,1.02597116144,21,10,22.1945,708.40820803652,1.968504,0.4921268,0.57277560888,0.223694,0.223694,-4.250186,178.5, -4.3, -0.7,0,0,1024,1024,1684,1024,0,0,100,0,0,0,0,63,,,,,,,8.314,85.82,708.40820803652,1.968504,6,P-GPS,
5200,2023-10-10 22:21:03,40.0688879575374,-88.2096447033209,2.624672,,,709.06437603652,0.328084,0.447388,0.62634188356,1.10191604576,22,10,22.1945,709.06437603652,2.624672,0.4921268,0.62634188356,0,0.447388,-4.921268,178.2, -3.2, 0.9,0,0,1024,1024,1684,1024,0,0,100,0,0,0,0,63,,,,,,,8.314,85.82,709.06437603652,2.624672,6,P-GPS,
5300,2023-10-10 22:21:03,40.068887994829,-88.2096444162939,3.608924,,,710.04862803652,0.328084,0.447388,0.67202429972,1.1832021376,22,10,22.1945,710.04862803652,3.608924,0.4921268,0.67202429972,0,0.447388,-5.59235,178.1, -1.3, 2.8,0,0,1024,1024,1684,1024,0,0,100,0,0,0,0,63,,,,,,,8.314,85.82,710.04862803652,3.608924,6,P-GPS,
5400,2023-10-10 22:21:03,40.0688880597985,-88.2096441262325,4.265092,,,710.70479603652,0.328084,0.223694,0.7329560602,1.26758862324,22,10,22.1945,710.70479603652,4.265092,0.4921268,0.7329560602,0,0.223694,-6.263432,178.3, 0.3, 4,0,0,1024,1024,1684,1024,0,0,100,0,0,0,0,63,,,,,,,8.314,85.82,710.70479603652,4.265092,6,P-GPS,
5500,2023-10-10 22:21:03,40.0688881292196,-88.2096439178047,5.249344,,,711.68904803652,0.328084,0.223694,0.7862369018,1.33105647304,22,10,22.1945,711.68904803652,5.249344,0.4921268,0.7862369018,0,0.223694,-7.158208,178.4, 0.7, 3.5,0,0,1024,1024,1684,1024,0,0,100,0,0,0,0,63,,,,,,,8.314,85.82,711.68904803652,5.249344,6,P-GPS,
5600,2023-10-10 22:21:03,40.0688882302375,-88.2096437734399,6.56168,,,713.00138403652,0.328084,0,0.8395997644,1.38567261652,22,10,22.1945,713.00138403652,6.56168,0.4921268,0.8395997644,0,0,-7.82929,178.5, -0.5, 2.3,0,0,1024,1024,1024,1024,0,0,0,0,0,0,0,63,,,,,,,8.314,85.82,713.00138403652,6.56168,6,P-GPS,
5700,2023-10-10 22:21:03,40.0688884589845,-88.2096435681361,7.545932,,,713.98563603652,0.328084,0,0.9408300826,1.48691933892,22,10,22.1945,713.98563603652,7.545932,0.4921268,0.9408300826,0,0,-8.500372,178.5, -2, 1.8,0,0,1024,1024,1024,1024,0,0,0,0,0,0,0,63,,,,,,,8.314,85.82,713.98563603652,7.545932,6,P-GPS,
5800,2023-10-10 22:21:04,40.0688885605982,-88.2096434535029,9.186352,,,715.62605603652,0.328084,0,0.98961289256,1.53589899928,22,10,21.9175,715.62605603652,9.186352,0.4921268,0.98961289256,0,0,-9.171454,178.7, -2.9, 1.8,0,0,1024,1024,1024,1024,0,0,0,0,0,0,0,62,,,,,,,14.011,85.82,715.62605603652,9.186352,6,P-GPS,
5900,2023-10-10 22:21:04,40.0688886414101,-88.2096433341559,10.498688,,,716.93839203652,0.328084,0,1.03306433752,1.58039375136,22,10,21.9175,716.93839203652,10.498688,0.4921268,1.03306433752,0,0,-9.395148,178.8, -2.8, 2.1,0,0,1024,1024,1024,1024,0,0,0,0,0,0,0,62,,,,,,,14.011,85.82,716.93839203652,10.498688,6,P-GPS,
6000,2023-10-10 22:21:04,40.0688887072771,-88.20964320491,11.811024,,,718.25072803652,0.328084,0.223694,1.07390751468,1.62375005196,22,10,21.9175,718.25072803652,11.811024,0.4921268,1.07390751468,0,0.223694,-9.171454,178.8, -2.3, 3.6,0,0,1024,1024,1024,1024,0,0,0,0,0,0,0,62,,,,,,,14.011,85.82,718.25072803652,11.811024,6,P-GPS,
6100,2023-10-10 22:21:04,40.0688889176014,-88.2096430347585,13.12336,,,719.56306403652,0.328084,0,1.163795969,1.71400267952,22,10,21.9175,719.56306403652,13.12336,0.4921268,1.163795969,0,0,-8.94776,178.6, -1.6, 5,0,0,1024,1024,1024,1024,0,0,0,0,0,0,0,62,,,,,,,14.011,85.82,719.56306403652,13.12336,6,P-GPS,
6200,2023-10-10 22:21:04,40.0688889327394,-88.2096429922493,14.435696,,,720.87540003652,0.328084,0,1.17533468328,1.72709323112,22,10,21.9175,720.87540003652,14.435696,0.4921268,1.17533468328,0,0,-8.724066,178.6, -1.5, 5.1,0,0,1024,1024,1024,1024,0,0,0,0,0,0,0,62,,,,,,,14.011,85.82,720.87540003652,14.435696,6,P-GPS,
6300,2023-10-10 22:21:04,40.0688889543406,-88.2096429922803,15.419948,,,721.85965203652,0.328084,0,1.18163061524,1.7349738088,22,10,21.9175,721.85965203652,15.419948,0.4921268,1.18163061524,0,0,-8.052984,178.6, -1.9, 4.3,0,0,1024,1024,1024,1024,0,0,0,0,0,0,0,62,,,,,,,14.011,85.82,721.85965203652,15.419948,6,P-GPS,
6400,2023-10-10 22:21:04,40.0688890813619,-88.2096429198332,16.732284,,,723.17198803652,0.328084,0,1.23091211288,1.78554139572,22,10,21.9175,723.17198803652,16.732284,0.4921268,1.23091211288,0,0,-7.605596,178.7, -1.9, 3.6,0,0,1024,1024,1024,1024,0,0,0,0,0,0,0,63,,,,,,,14.011,85.82,723.17198803652,16.732284,6,P-GPS,
6500,2023-10-10 22:21:04,40.0688890709469,-88.2096429517555,17.716536,,,724.15624003652,0.328084,0,1.2225886218,1.79522971624,22,10,21.9175,724.15624003652,17.716536,0.4921268,1.23091211288,0,0,-6.934514,178.8, -1.3, 3.2,0,0,1024,1024,1024,1024,0,0,0,0,0,0,0,63,,,,,,,14.011,85.82,724.15624003652,17.716536,6,P-GPS,"Sensor system error. Return to home or land"
6600,2023-10-10 22:21:04,40.0688890743087,-88.2096429963132,18.700788,,,725.14049203652,0.328084,0,1.21631237488,1.80772971664,22,10,21.9175,725.14049203652,18.700788,0.4921268,1.23091211288,0,0,-6.039738,178.8, -1.2, 3,0,0,1024,1024,1024,1024,0,0,0,0,0,0,0,63,,,,,,,14.011,85.82,725.14049203652,18.700788,6,P-GPS,
6700,2023-10-10 22:21:04,40.0688890835784,-88.2096430540015,19.68504,,,726.12474403652,0.328084,0,1.20980318832,1.82418969092,22,10,21.9175,726.12474403652,19.68504,0.4921268,1.23091211288,0,0,-5.368656,178.7, -1.6, 2.8,0,0,1024,1024,1015,1024,0,0,-1,0,0,0,0,63,,,,,,,14.011,85.82,726.12474403652,19.68504,6,P-GPS,
6800,2023-10-10 22:21:05,40.0688891689573,-88.2096430819786,20.341208,,,726.78091203652,0.328084,0,1.23116473756,1.85630255284,22,10,22.2175,726.78091203652,20.341208,0.4921268,1.23116473756,0,0,-4.47388,178.6, -2, 2.5,0,0,1024,1024,1015,1024,0,0,-1,0,0,0,0,62,,,,,,,7.043,85.82,726.78091203652,20.341208,6,P-GPS,
6900,2023-10-10 22:21:05,40.068889181631,-88.2096431326905,20.997376,,,727.43708003652,0.328084,0,1.22724413376,1.87119756644,22,10,22.2175,727.43708003652,20.997376,0.4921268,1.23116473756,0,0,-3.579104,178.5, -2.3, 2.6,0,0,1024,1024,1024,1024,0,0,0,0,0,0,0,62,,,,,,,7.043,85.82,727.43708003652,20.997376,6,P-GPS,
7000,2023-10-10 22:21:05,40.0688891820503,-88.2096431563465,21.653544,,,728.09324803652,0.328084,0,1.22378940924,1.8778051782,22,10,22.2175,728.09324803652,21.653544,0.4921268,1.23116473756,0,0,-2.684328,178.5, -2.2, 2.9,0,0,1024,1024,1024,1024,0,0,0,0,0,0,0,62,,,,,,,7.043,85.82,728.09324803652,21.653544,6,P-GPS,
7100,2023-10-10 22:21:05,40.0688892909056,-88.2096430974326,21.981628,,,728.42133203652,0.328084,0,1.26611552608,1.92079402472,22,10,22.2175,728.42133203652,21.981628,0.4921268,1.26611552608,0,0,-2.013246,178.5, -1.9, 3.2,0,0,1024,1024,1024,1024,0,0,0,0,0,0,0,62,,,,,,,7.043,85.82,728.42133203652,21.981628,6,P-GPS,
7200,2023-10-10 22:21:05,40.0688892509672,-88.2096431079921,21.981628,,,728.42133203652,0.328084,0.223694,1.25224085372,1.93565951076,22,10,22.2175,728.42133203652,21.981628,0.4921268,1.26611552608,-0.223694,0,-1.342164,178.4, -1.4, 3.3,0,0,1024,1024,1024,1024,0,0,0,0,0,0,0,62,,,,,,,7.043,85.82,728.42133203652,21.981628,6,P-GPS,
7300,2023-10-10 22:21:05,40.0688891849565,-88.2096431162788,22.309712,,,728.74941603652,0.328084,0.223694,1.23076119424,1.95985570576,22,10,22.2175,728.74941603652,22.309712,0.4921268,1.26611552608,-0.223694,0,-0.671082,178.4, -0.9, 3.2,0,0,1024,1024,1024,1024,0,0,0,0,0,0,0,62,,,,,,,7.043,85.82,728.74941603652,22.309712,6,P-GPS,
7400,2023-10-10 22:21:05,40.0688891217218,-88.2096431313424,22.309712,,,728.74941603652,0.328084,0.223694,1.20917982872,1.98330715008,22,10,22.2175,728.74941603652,22.309712,0.4921268,1.26611552608,-0.223694,0,-0.223694,178.4, -0.4, 2.7,0,0,1024,1024,1024,1024,0,0,0,0,0,0,0,63,,,,,,,7.043,85.82,728.74941603652,22.309712,6,P-GPS,
7500,2023-10-10 22:21:05,40.0688891505511,-88.2096430793934,22.309712,,,728.74941603652,0.328084,0.223694,1.22598101036,2.00122381732,22,10,22.2175,728.74941603652,22.309712,0.4921268,1.26611552608,-0.223694,0,0,178.5, -0.2, 2.3,0,0,1024,1024,1024,1024,0,0,0,0,0,0,0,63,,,,,,,7.043,85.82,728.74941603652,22.309712,6,P-GPS,
7600,2023-10-10 22:21:05,40.0688890717507,-88.2096430685196,22.309712,,,728.74941603652,0.328084,0.223694,1.20394688892,2.0301345794,22,10,22.2175,728.74941603652,22.309712,0.4921268,1.26611552608,-0.223694,0,0.223694,178.5, 0, 2.4,0,0,1024,1024,1024,1024,0,0,0,0,0,0,0,63,,,,,,,7.043,85.82,728.74941603652,22.309712,6,P-GPS,
7700,2023-10-10 22:21:06,40.068888976377,-88.2096430382891,22.309712,,,728.74941603652,0.328084,0.223694,1.18047247872,2.06593838632,22,10,22.2175,728.74941603652,22.309712,0.4921268,1.26611552608,-0.223694,0,0.223694,178.5, 0.2, 2.7,0,0,1024,1024,1024,1024,0,0,0,0,0,0,0,63,,,,,,,7.043,85.82,728.74941603652,22.309712,6,P-GPS,
7800,2023-10-10 22:21:06,40.0688889756207,-88.2096429187117,22.309712,,,728.74941603652,0.328084,0.223694,1.20021001216,2.099327495,22,10,22.1435,728.74941603652,22.309712,0.4921268,1.26611552608,-0.223694,0,0.223694,178.5, 0.3, 3,0,0,1024,1024,1024,1024,0,0,0,0,0,0,0,62,,,,,,,7.791,85.82,728.74941603652,22.309712,6,P-GPS,
7900,2023-10-10 22:21:06,40.0688888964943,-88.2096428685027,22.309712,,,728.74941603652,0.328084,0.223694,1.18611224268,2.13142067188,22,10,22.1435,728.74941603652,22.309712,0.4921268,1.26611552608,-0.223694,0,0.223694,178.5, 0.2, 3,0,0,1024,1024,1024,1024,0,0,0,0,0,0,0,62,,,,,,,7.791,85.82,728.74941603652,22.309712,6,P-GPS,
8000,2023-10-10 22:21:06,40.0688888148765,-88.2096428196786,22.309712,,,728.74941603652,0.328084,0.223694,1.17177825272,2.16417001676,22,10,22.1435,728.74941603652,22.309712,0.4921268,1.26611552608,-0.223694,0,0.223694,178.5, 0.3, 3,0,0,1024,1024,1024,1024,0,0,0,0,0,0,0,62,,,,,,,7.791,85.82,728.74941603652,22.309712,6,P-GPS,
8100,2023-10-10 22:21:06,40.0688887203584,-88.2096427704416,22.309712,,,728.74941603652,0.328084,0.223694,1.15476053564,2.2012960022,22,10,22.1435,728.74941603652,22.309712,0.4921268,1.26611552608,-0.223694,0,0.223694,178.5, 0.3, 2.9,0,0,1024,1024,1024,1024,0,0,0,0,0,0,0,62,,,,,,,7.791,85.82,728.74941603652,22.309712,6,P-GPS,
8200,2023-10-10 22:21:06,40.0688886544864,-88.2096426920798,21.981628,,,728.42133203652,0.328084,0.223694,1.15187667728,2.23379600324,22,10,22.1435,728.74941603652,22.309712,0.4921268,1.26611552608,-0.223694,0,0.223694,178.5, 0.3, 3.1,0,0,1024,1024,1024,1024,0,0,0,0,0,0,0,62,,,,,,,7.791,85.82,728.42133203652,21.981628,6,P-GPS,
8300,2023-10-10 22:21:06,40.0688885529712,-88.2096426530088,21.981628,,,728.42133203652,0.328084,0.223694,1.13295279216,2.27240492836,23,10,22.1435,728.74941603652,22.309712,0.4921268,1.26611552608,-0.223694,0,0.223694,178.5, 0.5, 3.5,0,0,1024,1024,1024,1024,0,0,0,0,0,0,0,62,,,,,,,7.791,85.82,728.42133203652,21.981628,6,P-GPS,
8400,2023-10-10 22:21:06,40.0688884557798,-88.2096426027318,21.981628,,,728.42133203652,0.328084,0.223694,1.11840882844,2.31054469336,23,10,22.1435,728.74941603652,22.309712,0.4921268,1.26611552608,-0.223694,0,0,178.5, 0.6, 3.7,0,0,1024,1024,1024,1024,0,0,0,0,0,0,0,63,,,,,,,7.791,85.82,728.42133203652,21.981628,6,P-GPS,
8500,2023-10-10 22:21:06,40.0688883864953,-88.209642484316,21.981628,,,728.42133203652,0.328084,0.223694,1.1260170964,2.35216214876,23,10,22.1435,728.74941603652,22.309712,0.4921268,1.26611552608,-0.223694,0,0,178.5, 0.6, 3.8,0,0,1024,1024,1024,1024,0,0,0,0,0,0,0,63,,,,,,,7.791,85.82,728.42133203652,21.981628,6,P-GPS,
8600,2023-10-10 22:21:06,40.068888313265,-88.2096424234079,21.981628,,,728.42133203652,0.328084,0.223694,1.12174544272,2.38383537812,23,10,22.1435,728.74941603652,22.309712,0.4921268,1.26611552608,-0.223694,0,0,178.5, 0.7, 3.9,0,0,1024,1024,1024,1024,0,0,0,0,0,0,0,63,,,,,,,7.791,85.82,728.42133203652,21.981628,6,P-GPS,
8700,2023-10-10 22:21:07,40.0688882510571,-88.2096423664427,21.981628,,,728.42133203652,0.328084,0,1.11995738492,2.4115486336,23,10,22.1435,728.74941603652,22.309712,0.4921268,1.26611552608,0,0,0,178.4, 0.5, 3.8,0,0,1024,1024,1024,1024,0,0,0,0,0,0,0,63,,,,,,,7.791,85.82,728.42133203652,21.981628,6,P-GPS,
8800,2023-10-10 22:21:07,40.0688882022187,-88.2096423352597,21.981628,,,728.42133203652,0.328084,0,1.1160105344,2.4313813114,23,10,22.115,728.74941603652,22.309712,0.4921268,1.26611552608,0,0,0,178.4, 0.5, 3.7,0,0,1024,1024,1024,1196,0,0,0,26,0,0,0,62,,,,,,,8.733,85.82,728.42133203652,21.981628,6,P-GPS,
8900,2023-10-10 22:21:07,40.0688882397463,-88.2096422152861,21.981628,,,728.42133203652,0.328084,0,1.15103678224,2.4675689766,23,10,22.115,728.74941603652,22.309712,0.4921268,1.26611552608,0,0,0,178.5, 0.4, 3.9,0,0,1024,1024,895,1684,0,0,-20,100,0,0,0,62,,,,,,,8.733,85.82,728.42133203652,21.981628,6,P-GPS,
9000,2023-10-10 22:21:07,40.0688882043648,-88.2096422263976,21.981628,,,728.42133203652,0.328084,0,1.14088914412,2.48084653608,23,10,22.115,728.74941603652,22.309712,0.4921268,1.26611552608,0,0,0,180.7, 0.1, 3.6,0,0,1024,1024,920,1684,0,0,-16,100,0,0,0,62,,,,,,,8.733,85.82,728.42133203652,21.981628,6,P-GPS,
9100,2023-10-10 22:21:07,40.068888160713,-88.2096422798131,21.981628,,,728.42133203652,0.328084,0,1.11946197808,2.50266412208,23,10,22.115,728.74941603652,22.309712,0.4921268,1.26611552608,0,0,0,186.7, -0.1, 2.6,0,0,1024,1024,916,1684,0,0,-16,100,0,0,0,62,,,,,,,8.733,85.82,728.42133203652,21.981628,6,P-GPS,
9200,2023-10-10 22:21:07,40.068888240841,-88.2096422334815,21.981628,,,728.42133203652,0.328084,0,1.14720148028,2.53463262704,23,10,22.115,728.74941603652,22.309712,0.4921268,1.26611552608,0,0,0,194.1, -0.2, 2.2,0,0,1024,1024,1024,1024,0,0,0,0,0,0,0,62,,,,,,,8.733,85.82,728.42133203652,21.981628,6,P-GPS,
9300,2023-10-10 22:21:07,40.0688882044608,-88.2096422461137,21.981628,,,728.42133203652,0.328084,0,1.13646985264,2.54836622328,23,10,22.115,728.74941603652,22.309712,0.4921268,1.26611552608,0,0,0,200.4, 0.3, 3.2,0,0,1024,1024,1024,1024,0,0,0,0,0,0,0,62,,,,,,,8.733,85.82,728.42133203652,21.981628,6,P-GPS,
9400,2023-10-10 22:21:07,40.0688881904323,-88.209642213664,21.981628,,,728.42133203652,0.328084,0,1.1407808764,2.55877304776,23,10,22.115,728.74941603652,22.309712,0.4921268,1.26611552608,0,0,0,202.4, 0.6, 4.7,0,0,1024,1024,1024,1024,0,0,0,0,0,0,0,63,,,,,,,8.733,85.82,728.42133203652,21.981628,6,P-GPS,
9500,2023-10-10 22:21:07,40.0688882150492,-88.2096421760532,21.981628,,,728.42133203652,0.328084,0,1.15455384272,2.57259194584,23,10,22.115,728.74941603652,22.309712,0.4921268,1.26611552608,0,0,0,203.2, -0.6, 5.4,0,0,1024,1024,1024,364,0,0,0,-100,0,0,0,63,,,,,,,8.733,85.82,728.42133203652,21.981628,6,P-GPS,
9600,2023-10-10 22:21:07,40.0688883422074,-88.2096421139816,21.981628,,,728.42133203652,0.328084,0,1.19609911964,2.62211622564,23,10,22.115,728.74941603652,22.309712,0.4921268,1.26611552608,0,0,0,201.2, -1.9, 5,0,0,1024,1024,1049,364,0,0,4,-100,0,0,0,63,,,,,,,8.733,85.82,728.42133203652,21.981628,6,P-GPS,
9700,2023-10-10 22:21:07,40.0688884460039,-88.2096421007292,21.981628,,,728.42133203652,0.328084,0,1.22225397612,2.66016740796,23,10,22.115,728.74941603652,22.309712,0.4921268,1.26611552608,0,0,0,195.1, -2.4, 4.6,0,0,1024,1024,1049,364,0,0,4,-100,0,0,0,63,,,,,,,8.733,85.82,728.42133203652,21.981628,6,P-GPS,
9800,2023-10-10 22:21:08,40.0688885746183,-88.2096420562346,21.981628,,,728.42133203652,0.328084,0,1.26152235008,2.70870743576,23,10,22.1275,728.74941603652,22.309712,0.4921268,1.26611552608,0,0,0,187.5, -3.3, 4.7,0,0,1024,1024,1024,1323,0,0,0,45,0,0,0,62,,,,,,,9.226,85.82,728.42133203652,21.981628,6,P-GPS,
9900,2023-10-10 22:21:08,40.0688888576726,-88.2096418680675,21.981628,,,728.42133203652,0.328084,0,1.368766448,2.82457686204,23,10,22.1275,728.74941603652,22.309712,0.4921268,1.368766448,0,0,0,179.6, -4, 4.4,0,0,1024,1024,1024,1088,0,0,0,10,0,0,0,62,,,,,,,9.226,85.82,728.42133203652,21.981628,6,P-GPS,
10000,2023-10-10 22:21:08,40.0688889367277,-88.209641891279,21.981628,,,728.42133203652,0.328084,0.223694,1.383366186,2.85413723044,23,10,22.1275,728.74941603652,22.309712,0.4921268,1.383366186,0,-0.223694,0,176.5, -4.5, 3.2,0,0,1024,1024,1024,1015,0,0,0,-1,0,0,0,62,,,,,,,9.226,85.82,728.42133203652,21.981628,6,P-GPS,
10100,2023-10-10 22:21:08,40.0688889307179,-88.2096419470037,21.981628,,,728.42133203652,0.328084,0.3131716,1.370488889,2.86985245404,23,10,22.1275,728.74941603652,22.309712,0.4921268,1.383366186,-0.223694,-0.223694,0,175.3, -3.2, 1.1,0,0,1024,1024,1024,1186,0,0,0,25,0,0,0,62,,,,,,,9.226,85.82,728.42133203652,21.981628,6,P-GPS,
10200,2023-10-10 22:21:08,40.0688888887769,-88.2096419558918,21.981628,,,728.42133203652,0.328084,0.3131716,1.35824479412,2.88535442304,23,10,22.1275,728.74941603652,22.309712,0.4921268,1.383366186,-0.223694,-0.223694,0,174.5, -1.1, 0.5,0,0,1024,1024,1024,1186,0,0,0,25,0,0,0,62,,,,,,,9.226,85.82,728.42133203652,21.981628,6,P-GPS,
10300,2023-10-10 22:21:08,40.0688889947755,-88.2096417650331,21.981628,,,728.42133203652,0.328084,0.223694,1.42364505868,2.951197601,23,10,22.1275,728.74941603652,22.309712,0.4921268,1.42364505868,-0.223694,0,0,174.3, 0.8, 1.4,0,0,1024,1024,1024,1427,0,0,0,61,0,0,0,62,,,,,,,9.226,85.82,728.42133203652,21.981628,6,P-GPS,
10400,2023-10-10 22:21:08,40.0688889305479,-88.2096417395323,21.981628,,,728.42133203652,0.328084,0.223694,1.41325135756,2.9756890716,23,10,22.1275,728.74941603652,22.309712,0.4921268,1.42364505868,-0.223694,0,0,175.9, 1.4, 2.8,0,0,1024,1024,1024,1024,0,0,0,0,0,0,0,63,,,,,,,9.226,85.82,728.42133203652,21.981628,6,P-GPS,
10500,2023-10-10 22:21:08,40.0688888577033,-88.2096417376523,21.981628,,,728.42133203652,0.328084,0.223694,1.39615818116,3.00227043728,23,10,22.1275,728.74941603652,22.309712,0.4921268,1.42364505868,-0.223694,0,0,176.8, 1.4, 4,0,0,1024,1024,1024,1024,0,0,0,0,0,0,0,63,,,,,,,9.226,85.82,728.42133203652,21.981628,6,P-GPS,
10600,2023-10-10 22:21:08,40.0688889699977,-88.209641649658,21.981628,,,728.42133203652,0.328084,0.223694,1.44158797264,3.05004274852,23,10,22.1275,728.74941603652,22.309712,0.4921268,1.44158797264,-0.223694,0,0,177.1, 1, 5,0,0,1024,1024,1024,1212,0,0,0,28,0,0,0,63,,,,,,,9.226,85.82,728.42133203652,21.981628,6,P-GPS,
10700,2023-10-10 22:21:08,40.0688889663389,-88.2096416397237,21.653544,,,728.09324803652,0.328084,0,1.44279204092,3.05312017644,23,10,22.1275,728.74941603652,22.309712,0.4921268,1.44279204092,0,0,0,177.1, 0.3, 5.1,0,0,1024,1024,1024,1212,0,0,0,28,0,0,0,63,,,,,,,9.226,85.82,728.09324803652,21.653544,6,P-GPS,
10800,2023-10-10 22:21:09,40.0688889675374,-88.2096416741416,21.653544,,,728.09324803652,0.328084,0,1.43586618768,3.06274288016,23,10,22.1275,728.74941603652,22.309712,0.4921268,1.44279204092,0,0,0,177.1, 0, 4.4,0,0,1024,1024,1024,1212,0,0,0,28,0,0,0,63,,,,,,,9.226,85.82,728.09324803652,21.653544,6,P-GPS,
10900,2023-10-10 22:21:09,40.0688889651611,-88.2096417497702,21.653544,,,728.09324803652,0.328084,0,1.419537447,3.0838747706,23,10,22.1275,728.74941603652,22.309712,0.4921268,1.44279204092,0,0,0,178.2, -0.3, 3.5,0,0,1024,1024,1024,1024,0,0,0,0,0,0,0,63,,,,,,,9.226,85.82,728.09324803652,21.653544,6,P-GPS,
11000,2023-10-10 22:21:09,40.0688890475903,-88.2096417761562,21.653544,,,728.09324803652,0.328084,0,1.43445542648,3.11483933852,23,10,22.1275,728.74941603652,22.309712,0.4921268,1.44279204092,0,0,0,178.6, -0.3, 3.1,0,0,1024,1024,1024,1024,0,0,0,0,0,0,0,63,,,,,,,9.226,85.82,728.09324803652,21.653544,6,P-GPS,
11100,2023-10-10 22:21:09,40.0688890680715,-88.2096418134538,21.653544,,,728.09324803652,0.328084,0,1.43201448152,3.1276575804,23,10,22.1275,728.74941603652,22.309712,0.4921268,1.44279204092,0,0,0,178.7, -0.5, 3.3,0,0,1024,1024,1024,1024,0,0,0,0,0,0,0,63,,,,,,,9.226,85.82,728.09324803652,21.653544,6,P-GPS,
11200,2023-10-10 22:21:09,40.0688890629032,-88.2096418732361,21.653544,,,728.09324803652,0.328084,0,1.41866474356,3.1444554812,23,10,22.1275,728.74941603652,22.309712,0.4921268,1.44279204092,0,0,0,178.7, -0.8, 3.5,0,0,1024,1024,1024,1024,0,0,0,0,0,0,0,63,,,,,,,9.226,85.82,728.09324803652,21.653544,6,P-GPS,
11300,2023-10-10 22:21:09,40.0688891705277,-88.2096417805447,21.653544,,,728.09324803652,0.328084,0,1.4645997844,3.19148304176,23,10,22.1275,728.74941603652,22.309712,0.4921268,1.4645997844,0,0,0,178.6, -1.2, 3.4,0,0,1024,1024,1024,1024,0,0,0,0,0,0,0,63,,,,,,,9.226,85.82,728.09324803652,21.653544,6,P-GPS,
11400,2023-10-10 22:21:09,40.0688891900771,-88.2096417929733,21.653544,,,728.09324803652,0.328084,0,1.46713259288,3.19941611288,23,10,22.1275,728.74941603652,22.309712,0.4921268,1.46713259288,0,0,0,178.6, -1.3, 3.3,0,0,1024,1024,1024,1024,0,0,0,0,0,0,0,63,,,,,,,9.226,85.82,728.09324803652,21.653544,6,P-GPS,
11500,2023-10-10 22:21:09,40.0688891895931,-88.209641846351,21.653544,,,728.09324803652,0.328084,0.223694,1.45645673952,3.21431768816,23,10,22.1275,728.74941603652,22.309712,0.4921268,1.46713259288,0,-0.223694,0,178.6, -1.1, 2.8,0,0,1024,1024,1024,1024,0,0,0,0,0,0,0,63,,,,,,,9.226,85.82,728.09324803652,21.653544,6,P-GPS,
11600,2023-10-10 22:21:09,40.0688891809325,-88.2096418819758,21.653544,,,728.09324803652,0.328084,0.223694,1.44720477072,3.22475732104,23,10,22.1275,728.74941603652,22.309712,0.4921268,1.46713259288,0,-0.223694,0,178.7, -0.7, 2.6,0,0,1024,1036,1024,1024,0,2,0,0,0,0,0,63,,,,,,,9.226,85.82,728.09324803652,21.653544,6,P-GPS,
11700,2023-10-10 22:21:09,40.0688892762017,-88.2096417386077,21.653544,,,728.09324803652,0.328084,0,1.50007222648,3.27776913376,23,10,22.1275,728.74941603652,22.309712,0.4921268,1.50007222648,0,0,0,178.7, -0.5, 2.6,0,0,1024,1036,1024,1024,0,2,0,0,0,0,0,63,,,,,,,9.226,85.82,728.09324803652,21.653544,6,P-GPS,
11800,2023-10-10 22:21:10,40.0688892746103,-88.2096417564183,21.653544,,,728.09324803652,0.328084,0,1.49615818436,3.2827756956,23,10,22.0755,728.74941603652,22.309712,0.4921268,1.50007222648,0,0,0,178.7, -0.5, 3.1,0,0,1080,1684,1024,1024,8,100,0,0,0,0,0,62,,,,,,,9.301,85.82,728.09324803652,21.653544,6,P-GPS,
11900,2023-10-10 22:21:10,40.0688892749609,-88.2096417829344,21.653544,,,728.09324803652,0.328084,0,1.49104991648,3.290190394,23,10,22.0755,728.74941603652,22.309712,0.4921268,1.50007222648,0,0,0,178.6, -0.7, 4.2,0,0,1080,1684,1024,1024,8,100,0,0,0,0,0,62,,,,,,,9.301,85.82,728.09324803652,21.653544,6,P-GPS,
12000,2023-10-10 22:21:10,40.0688894065243,-88.2096416641226,21.653544,,,728.09324803652,0.328084,0.223694,1.54856960336,3.3485237292,23,10,22.0755,728.74941603652,22.309712,0.4921268,1.54856960336,0,-0.223694,0,178.6, -0.9, 11.7,0,0,1046,1684,1024,1024,3,100,0,0,0,0,0,62,,,,,,,9.301,85.82,728.09324803652,21.653544,6,P-GPS,
12100,2023-10-10 22:21:10,40.0688894058784,-88.209641862826,21.653544,,,728.09324803652,0.328084,0.447388,1.51028220056,3.4040027336,23,10,22.0755,728.74941603652,22.309712,0.4921268,1.54856960336,0,-0.447388,0,178.4, -1, 19.7,0,0,1064,1684,1024,1024,6,100,0,0,0,0,0,62,,,,,,,9.301,85.82,728.09324803652,21.653544,6,P-GPS,
12200,2023-10-10 22:21:10,40.0688893972217,-88.2096423742307,21.653544,,,728.09324803652,0.328084,1.11847,1.41498692192,3.5468176988,23,10,22.0755,728.74941603652,22.309712,1.11847,1.54856960336,0,-1.11847,0,178.3, -1.1, 22.6,0,0,1064,1684,1024,1024,6,100,0,0,0,0,0,62,,,,,,,9.301,85.82,728.09324803652,21.653544,6,P-GPS,
12300,2023-10-10 22:21:10,40.0688893655872,-88.2096433326194,21.653544,,,728.09324803652,0.328084,2.013246,1.25589899032,3.8146654764,23,10,22.0755,728.74941603652,22.309712,2.013246,1.54856960336,0,-2.013246,0,178.3, -1.1, 23.8,0,0,1062,1684,1024,1024,6,100,0,0,0,0,0,62,,,,,,,9.301,85.82,728.09324803652,21.653544,6,P-GPS,
12400,2023-10-10 22:21:10,40.0688893674749,-88.2096445977718,21.653544,,,728.09324803652,0.328084,2.908022,1.12728350064,4.1679135192,23,10,22.0755,728.74941603652,22.309712,2.908022,1.54856960336,-0.223694,-2.908022,0,178.4, -0.8, 24.1,0,0,1059,1684,1024,1024,5,100,0,0,0,0,0,63,,,,,,,9.301,85.82,728.09324803652,21.653544,6,P-GPS,
12500,2023-10-10 22:21:10,40.0688892825824,-88.2096464503653,21.653544,,,728.09324803652,0.328084,3.802798,1.09681105872,4.6860893888,23,10,22.0755,728.74941603652,22.309712,3.802798,1.54856960336,-0.223694,-3.802798,0,178.5, -0.3, 24.5,0,0,1042,1684,1024,1024,3,100,0,0,0,0,0,63,,,,,,,9.301,85.82,728.09324803652,21.653544,6,P-GPS,
12600,2023-10-10 22:21:10,40.0688891988252,-88.2096486314557,21.653544,,,728.09324803652,0.328084,4.47388,1.35045279912,5.2958335028,23,10,22.0755,728.74941603652,22.309712,4.47388,1.54856960336,-0.223694,-4.47388,0,178.6, 0, 24.6,0,0,1042,1684,1024,1024,3,100,0,0,0,0,0,63,,,,,,,9.301,85.82,728.09324803652,21.653544,6,P-GPS,
12700,2023-10-10 22:21:10,40.0688891739391,-88.2096512920442,21.653544,,,728.09324803652,0.328084,5.368656,1.90912407684,6.0387469124,23,10,22.0755,728.74941603652,22.309712,5.368656,1.90912407684,-0.223694,-5.368656,0,178.5, -0.2, 24.4,0,0,1036,1684,1024,1024,2,100,0,0,0,0,0,63,,,,,,,9.301,85.82,728.09324803652,21.653544,6,P-GPS,
12800,2023-10-10 22:21:11,40.0688891019146,-88.2096542339693,21.653544,,,728.09324803652,0.328084,6.039738,2.6288222626,6.8605973324,23,10,22.07,728.74941603652,22.309712,6.039738,2.6288222626,-0.223694,-6.039738,0,178.4, -0.4, 24.3,0,0,1024,1684,1024,1024,0,100,0,0,0,0,0,62,,,,,,,8.614,85.82,728.09324803652,21.653544,6,P-GPS,
12900,2023-10-10 22:21:11,40.0688890267256,-88.2096577128075,21.653544,,,728.09324803652,0.328084,6.934514,3.5387796408,7.8323165236,23,10,22.07,728.74941603652,22.309712,6.934514,3.5387796408,-0.223694,-6.934514,0,178.4, -0.4, 24.1,0,0,1024,1684,1024,1024,0,100,0,0,0,0,0,62,,,,,,,8.614,85.82,728.09324803652,21.653544,6,P-GPS,
13000,2023-10-10 22:21:11,40.0688889542595,-88.2096613741746,21.653544,,,728.09324803652,0.328084,7.605596,4.5248032944,8.8549215432,23,10,22.07,728.74941603652,22.309712,7.605596,4.5248032944,-0.223694,-7.605596,0,178.4, -0.5, 24.1,0,0,1024,1684,1024,1024,0,100,0,0,0,0,0,62,,,,,,,8.614,85.82,728.09324803652,21.653544,6,P-GPS,
13100,2023-10-10 22:21:11,40.068888969436,-88.2096653928371,21.653544,,,728.09324803652,0.328084,8.276678,5.6278545108,9.9770016316,23,10,22.07,728.74941603652,22.309712,8.276678,5.6278545108,-0.223694,-8.276678,0,178.4, -0.4, 24.1,0,0,1024,1684,1024,1024,0,100,0,0,0,0,0,62,,,,,,,8.614,85.82,728.09324803652,21.653544,6,P-GPS,
13200,2023-10-10 22:21:11,40.0688889033434,-88.2096697256061,21.653544,,,728.09324803652,0.328084,8.94776,6.8199149164,11.1869754236,23,10,22.07,728.74941603652,22.309712,8.94776,6.8199149164,-0.223694,-8.94776,0,178.4, -0.4, 24.1,0,0,1024,1684,1024,1024,0,100,0,0,0,0,0,62,,,,,,,8.614,85.82,728.09324803652,21.653544,6,P-GPS,
13300,2023-10-10 22:21:11,40.0688888339007,-88.2096746216538,21.653544,,,728.09324803652,0.328084,9.395148,8.1735238836,12.5542326852,23,10,22.07,728.74941603652,22.309712,9.395148,8.1735238836,-0.223694,-9.395148,0,178.3, -0.4, 24,0,0,1024,1684,1024,1024,0,100,0,0,0,0,0,62,,,,,,,8.614,85.82,728.09324803652,21.653544,6,P-GPS,
13400,2023-10-10 22:21:11,40.0688889446091,-88.2096793100915,21.653544,,,728.09324803652,0.328084,10.06623,9.4795934792,13.8639112048,23,10,22.07,728.74941603652,22.309712,10.06623,9.4795934792,-0.223694,-10.06623,0,178.3, -0.5, 24.1,0,0,1024,1684,1024,1024,0,100,0,0,0,0,0,63,,,,,,,8.614,85.82,728.09324803652,21.653544,6,P-GPS,
13500,2023-10-10 22:21:11,40.0688888679735,-88.2096848664902,21.653544,,,728.09324803652,0.328084,10.737312,11.0220147884,15.4155516744,23,10,22.07,728.74941603652,22.309712,10.737312,11.0220147884,-0.223694,-10.737312,0,178.4, -0.4, 24.1,0,0,1024,938,1024,1024,0,-13,0,0,0,0,0,63,,,,,,,8.614,85.82,728.09324803652,21.653544,6,P-GPS,
13600,2023-10-10 22:21:11,40.0688887900911,-88.2096904553806,21.653544,,,728.09324803652,0.328084,11.408394,12.5757549956,16.9762800708,23,10,22.07,728.74941603652,22.309712,11.408394,12.5757549956,-0.223694,-11.408394,0,178.4, -0.3, 24,0,0,1024,1024,1024,1024,0,0,0,0,0,0,0,63,,,,,,,8.614,85.82,728.09324803652,21.653544,6,P-GPS,
13700,2023-10-10 22:21:12,40.0688886941691,-88.2096966655185,21.653544,,,728.09324803652,0.328084,11.855782,14.3037406152,18.7105649032,23,10,22.07,728.74941603652,22.309712,11.855782,14.3037406152,-0.223694,-11.855782,0,178.6, 0, 21.7,0,0,1024,1024,1024,1024,0,0,0,0,0,0,0,63,,,,,,,8.614,85.82,728.09324803652,21.653544,6,P-GPS,
13800,2023-10-10 22:21:12,40.0688886983419,-88.2097027541272,21.653544,,,728.09324803652,0.328084,12.30317,16.0011159976,20.4105649576,23,10,22.008,728.74941603652,22.309712,12.30317,16.0011159976,-0.223694,-12.30317,0,178.9, 1.5, 3.2,0,0,1024,1024,1024,1024,0,0,0,0,0,0,0,62,,,,,,,10.095,85.82,728.09324803652,21.653544,6,P-GPS,
13900,2023-10-10 22:21:12,40.0688886616029,-88.2097091476828,21.653544,,,728.09324803652,0.328084,11.855782,17.7833339024,22.1957356184,23,10,22.008,728.74941603652,22.309712,12.30317,17.7833339024,-0.223694,-11.855782,-0.223694,178.8, 1.8, -11.9,0,0,1024,1024,1024,1024,0,0,0,0,0,0,0,62,,,,,,,10.095,85.82,728.09324803652,21.653544,6,P-GPS,
14000,2023-10-10 22:21:12,40.0688886854949,-88.2097147693114,21.981628,,,728.42133203652,0.328084,10.961006,19.3517394644,23.7653550912,23,10,22.008,728.74941603652,22.309712,12.30317,19.3517394644,0,-10.961006,-0.447388,179, 1.2, -19.1,0,0,1024,1024,1024,1024,0,0,0,0,0,0,0,62,,,,,,,10.095,85.82,728.42133203652,21.981628,6,P-GPS,
14100,2023-10-10 22:21:12,40.0688889203154,-88.2097199273742,21.981628,,,728.42133203652,0.328084,9.842536,20.794292004,25.2081044812,23,10,22.008,728.74941603652,22.309712,12.30317,20.794292004,0,-9.842536,-0.671082,179.2, 0.7, -22.3,0,0,1024,1024,1024,1024,0,0,0,0,0,0,0,62,,,,,,,10.095,85.82,728.42133203652,21.981628,6,P-GPS,
14200,2023-10-10 22:21:12,40.0688890487543,-88.2097244315159,21.981628,,,728.42133203652,0.328084,8.724066,22.0527238028,26.4665690884,23,10,22.008,728.74941603652,22.309712,12.30317,22.0527238028,0,-8.724066,-0.447388,179.4, 0, -23.6,0,0,1024,1024,1024,1024,0,0,0,0,0,0,0,62,,,,,,,10.095,85.82,728.42133203652,21.981628,6,P-GPS,
14300,2023-10-10 22:21:12,40.0688892149163,-88.20972858567,21.981628,,,728.42133203652,0.328084,7.605596,23.2141411628,27.6280192568,23,10,22.008,728.74941603652,22.309712,12.30317,23.2141411628,0.223694,-7.605596,-0.447388,179.6, -0.8, -24.5,0,0,1024,1024,1024,1024,0,0,0,0,0,0,0,62,,,,,,,10.095,85.82,728.42133203652,21.981628,6,P-GPS,
14400,2023-10-10 22:21:12,40.068889403076,-88.2097320109901,22.309712,,,728.74941603652,0.328084,6.487126,24.1726385688,28.5868447468,23,10,22.008,728.74941603652,22.309712,12.30317,24.1726385688,0.223694,-6.487126,-0.223694,179.7, -1.4, -24.8,0,0,1024,1024,1024,1024,0,0,0,0,0,0,0,63,,,,,,,10.095,85.82,728.74941603652,22.309712,6,P-GPS,
14500,2023-10-10 22:21:12,40.068889821139,-88.2097347940144,22.309712,,,728.74941603652,0.328084,5.368656,24.9561687776,29.3787410976,23,10,22.008,728.74941603652,22.309712,12.30317,24.9561687776,0.223694,-5.368656,0,180.1, -2.2, -24.3,0,0,1024,1024,1024,1024,0,0,0,0,0,0,0,63,,,,,,,10.095,85.82,728.74941603652,22.309712,6,P-GPS,
14600,2023-10-10 22:21:12,40.0688899767665,-88.2097372068173,22.309712,,,728.74941603652,0.328084,4.250186,25.6318577756,30.054790988,23,10,22.008,728.74941603652,22.309712,12.30317,25.6318577756,0.223694,-4.250186,0,180.6, -3, -20.3,0,0,1024,1024,1024,1024,0,0,0,0,0,0,0,63,,,,,,,10.095,85.82,728.74941603652,22.309712,6,P-GPS,
14700,2023-10-10 22:21:13,40.0688900843574,-88.2097393065519,22.309712,,,728.74941603652,0.328084,3.579104,26.2193577944,30.6423566236,23,10,22.008,728.74941603652,22.309712,12.30317,26.2193577944,0,-3.579104,0,180.7, -3.5, -15.4,0,0,1024,1024,1024,1024,0,0,0,0,0,0,0,63,,,,,,,10.095,85.82,728.74941603652,22.309712,6,P-GPS,
14800,2023-10-10 22:21:13,40.0688901965261,-88.2097410545135,22.309712,,,728.74941603652,0.328084,2.908022,26.7088919308,31.1321204188,23,10,22.008,728.74941603652,22.309712,12.30317,26.7088919308,0,-2.908022,0.223694,180.7, -3.2, -10.7,0,0,1311,1606,1024,1024,43,88,0,0,0,0,0,63,,,,,,,10.095,85.82,728.74941603652,22.309712,6,P-GPS,
14900,2023-10-10 22:21:13,40.0688901929759,-88.2097426200455,21.981628,,,728.42133203652,0.328084,2.460634,27.145342076,31.569226732,23,10,21.995,728.74941603652,22.309712,12.30317,27.145342076,0,-2.460634,0.223694,180.3, -1.7, -6.4,0,0,1311,1606,1024,1024,43,88,0,0,0,0,0,62,,,,,,,9.961,85.82,728.42133203652,21.981628,6,P-GPS,
15000,2023-10-10 22:21:13,40.0688901585956,-88.2097439432018,21.981628,,,728.42133203652,0.328084,2.23694,27.5136491744,31.9388789748,22,10,21.995,728.74941603652,22.309712,12.30317,27.5136491744,0,-2.23694,0.447388,179.9, -1.5, -0.8,0,0,1223,1655,1024,1024,30,96,0,0,0,0,0,62,,,,,,,9.961,85.82,728.42133203652,21.981628,6,P-GPS,
15100,2023-10-10 22:21:13,40.0688900935942,-88.2097452411706,21.981628,,,728.42133203652,0.328084,2.013246,27.8744431492,32.3020679628,22,10,21.995,728.74941603652,22.309712,12.30317,27.8744431492,0,-2.013246,0.447388,179.3, -4, 9.1,0,0,1024,1024,1024,1024,0,0,0,0,0,0,0,62,,,,,,,9.961,85.82,728.42133203652,21.981628,6,P-GPS,
15200,2023-10-10 22:21:13,40.0688899377661,-88.2097466240937,21.981628,,,728.42133203652,0.328084,2.460634,28.2574156024,32.6923566892,23,10,21.995,728.74941603652,22.309712,12.30317,28.2574156024,-0.223694,-2.460634,0.447388,178.5, -4.6, 16.8,0,0,1024,1024,1024,1024,0,0,0,0,0,0,0,62,,,,,,,9.961,85.82,728.42133203652,21.981628,6,P-GPS,
15300,2023-10-10 22:21:13,40.0688896897938,-88.2097482770147,21.981628,,,728.42133203652,0.328084,2.460634,28.7144694228,33.16273072,23,10,21.995,728.74941603652,22.309712,12.30317,28.7144694228,-0.447388,-2.908022,0.223694,178.6, -2.5, 14.1,0,0,1024,1024,1024,1024,0,0,0,0,0,0,0,62,,,,,,,9.961,85.82,728.42133203652,21.981628,6,P-GPS,
15400,2023-10-10 22:21:13,40.0688894534738,-88.2097500866573,21.981628,,,728.42133203652,0.328084,3.3777794,29.2158473916,33.675197928,23,10,21.995,728.74941603652,22.309712,12.30317,29.2158473916,-0.447388,-3.35541,0,178.7, 0.5, 4.4,0,0,1024,1024,1024,1024,0,0,0,0,0,0,0,63,,,,,,,9.961,85.82,728.42133203652,21.981628,6,P-GPS,
15500,2023-10-10 22:21:13,40.0688892541056,-88.209752133946,21.981628,,,728.42133203652,0.328084,3.3777794,29.7843841552,34.251313432,23,10,21.995,728.74941603652,22.309712,12.30317,29.7843841552,-0.447388,-3.35541,0,178.4, 2.6, -5.3,0,0,1024,1024,1024,1024,0,0,0,0,0,0,0,63,,,,,,,9.961,85.82,728.42133203652,21.981628,6,P-GPS,
15600,2023-10-10 22:21:13,40.0688890736632,-88.2097537059428,21.981628,,,728.42133203652,0.328084,2.9527608,30.220801492,34.695211084,23,10,21.995,728.74941603652,22.309712,12.30317,30.220801492,-0.447388,-2.908022,0,178.2, 2.7, -10.3,0,0,1024,1024,1024,1024,0,0,0,0,0,0,0,63,,,,,,,9.961,85.82,728.42133203652,21.981628,6,P-GPS,
15700,2023-10-10 22:21:14,40.0688889101812,-88.2097550375173,21.981628,,,728.42133203652,0.328084,2.23694,30.5905193516,35.071851516,23,10,21.995,728.74941603652,22.309712,12.30317,30.5905193516,-0.223694,-2.23694,0,178.4, 1.3, -10.9,0,0,1024,1024,1024,1024,0,0,0,0,0,0,0,63,,,,,,,9.961,85.82,728.42133203652,21.981628,6,P-GPS,
15800,2023-10-10 22:21:14,40.0688888063207,-88.2097559260508,21.981628,,,728.42133203652,0.328084,1.5882274,30.8373697532,35.322835776,23,10,21.995,728.74941603652,22.309712,12.30317,30.8373697532,-0.223694,-1.565858,0,178.6, 0, -8.8,0,0,1024,1024,1024,1024,0,0,0,0,0,0,0,63,,,,,,,9.961,85.82,728.42133203652,21.981628,6,P-GPS,
15900,2023-10-10 22:21:14,40.0688887372371,-88.2097563602035,21.981628,,,728.42133203652,0.328084,1.1408394,30.9578093896,35.446523444,23,10,22.028,728.74941603652,22.309712,12.30317,30.9578093896,-0.223694,-1.11847,0,178.5, -0.4, -5.6,0,0,1024,1024,1024,1024,0,0,0,0,0,0,0,62,,,,,,,8.569,85.82,728.42133203652,21.981628,6,P-GPS,
16000,2023-10-10 22:21:14,40.068888671926,-88.2097567218612,21.981628,,,728.42133203652,0.328084,0.7158208,31.0581046684,35.550197988,23,10,22.028,728.74941603652,22.309712,12.30317,31.0581046684,-0.223694,-0.671082,0,178.4, -0.3, -2.6,0,0,1024,1024,1024,1024,0,0,0,0,0,0,0,62,,,,,,,8.569,85.82,728.42133203652,21.981628,6,P-GPS,
16100,2023-10-10 22:21:14,40.0688886102807,-88.2097569630782,21.653544,,,728.09324803652,0.328084,0.4921268,31.1248041456,35.621392216,23,10,22.028,728.74941603652,22.309712,12.30317,31.1248041456,-0.223694,-0.447388,0,178.2, 0.1, -1,0,0,1024,1024,1024,1024,0,0,0,0,0,0,0,62,,,,,,,8.569,85.82,728.09324803652,21.653544,6,P-GPS,
16200,2023-10-10 22:21:14,40.0688885438173,-88.2097570967506,21.653544,,,728.09324803652,0.328084,0.4921268,31.1614839368,35.66601164,23,10,22.028,728.74941603652,22.309712,12.30317,31.1614839368,-0.223694,-0.447388,0,178.2, 0.7, -0.3,0,0,1024,1024,1024,1024,0,0,0,0,0,0,0,62,,,,,,,8.569,85.82,728.09324803652,21.653544,6,P-GPS,
16300,2023-10-10 22:21:14,40.0688885364969,-88.2097567781355,21.653544,,,728.09324803652,0.328084,0.4921268,31.072507556,35.754922404,23,10,22.028,728.74941603652,22.309712,12.30317,31.1614839368,-0.223694,-0.223694,0,178.3, 1.1, 0,0,0,1024,1024,1024,1024,0,0,0,0,0,0,0,62,,,,,,,8.569,85.82,728.09324803652,21.653544,6,P-GPS,
16400,2023-10-10 22:21:14,40.0688885132165,-88.2097564325643,21.653544,,,728.09324803652,0.328084,0.223694,30.9758212012,35.851707184,23,10,22.028,728.74941603652,22.309712,12.30317,31.1614839368,-0.223694,0,0,178.4, 1.6, -0.3,0,0,1024,1024,1024,1024,0,0,0,0,0,0,0,63,,,,,,,8.569,85.82,728.09324803652,21.653544,6,P-GPS,
16500,2023-10-10 22:21:14,40.0688884291069,-88.2097563961489,21.653544,,,728.09324803652,0.328084,0,30.964896004,35.8841875,23,10,22.028,728.74941603652,22.309712,12.30317,31.1614839368,0,0,0,178.4, 2.1, 0,0,0,1024,1024,1024,1024,0,0,0,0,0,0,0,63,,,,,,,8.569,85.82,728.09324803652,21.653544,6,P-GPS,
16600,2023-10-10 22:21:14,40.0688883643593,-88.2097561904069,21.653544,,,728.09324803652,0.328084,0,30.9068907528,35.946195376,23,10,22.028,728.74941603652,22.309712,12.30317,31.1614839368,0,0,0,178.5, 1.8, 0.9,0,0,1024,1024,1024,1024,0,0,0,0,0,0,0,63,,,,,,,8.569,85.82,728.09324803652,21.653544,6,P-GPS,
16700,2023-10-10 22:21:14,40.0688883548013,-88.2097560687909,21.653544,,,728.09324803652,0.328084,0,30.872868442,35.980316112,23,10,22.028,728.74941603652,22.309712,12.30317,31.1614839368,0,0,0,178.5, 0.9, 1.7,0,0,1024,1024,1024,1024,0,0,0,0,0,0,0,63,,,,,,,8.569,85.82,728.09324803652,21.653544,6,P-GPS,
16800,2023-10-10 22:21:15,40.0688883639258,-88.2097558975725,21.653544,,,728.09324803652,0.328084,0,30.8251650284,36.028216376,23,10,22.028,728.74941603652,22.309712,12.30317,31.1614839368,0,0,0,178.5, 0.2, 2.4,0,0,1024,1024,1024,1024,0,0,0,0,0,0,0,63,,,,,,,8.569,85.82,728.09324803652,21.653544,6,P-GPS,
16900,2023-10-10 22:21:15,40.0688883924351,-88.2097555039213,21.653544,,,728.09324803652,0.328084,0,30.7155193556,36.138780684,23,10,22.018,728.74941603652,22.309712,12.30317,31.1614839368,0,0,0,178.5, -0.2, 2.7,0,0,1038,1024,1024,1024,2,0,0,0,0,0,0,62,,,,,,,8.091,85.82,728.09324803652,21.653544,6,P-GPS,
17000,2023-10-10 22:21:15,40.0688884054253,-88.2097552774809,21.653544,,,728.09324803652,0.328084,0.223694,30.6524288024,36.202100896,23,10,22.018,728.74941603652,22.309712,12.30317,31.1614839368,0,0.223694,0,178.5, -0.2, 3,0,0,1248,1024,1024,1024,34,0,0,0,0,0,0,62,,,,,,,8.091,85.82,728.09324803652,21.653544,6,P-GPS,
17100,2023-10-10 22:21:15,40.0688884162115,-88.2097550352452,21.653544,,,728.09324803652,0.328084,0.223694,30.5849091152,36.2696862,23,10,22.018,728.74941603652,22.309712,12.30317,31.1614839368,0,0.223694,0,178.4, 0, 3.3,0,0,1571,1024,1024,1024,83,0,0,0,0,0,0,62,,,,,,,8.091,85.82,728.09324803652,21.653544,6,P-GPS,
17200,2023-10-10 22:21:15,40.0688884338831,-88.209754789416,21.653544,,,728.09324803652,0.328084,0.223694,30.5164707928,36.33858384,23,10,22.018,728.74941603652,22.309712,12.30317,31.1614839368,0,0.223694,0,178.5, 0, 3.4,0,0,1684,983,1024,1024,100,-6,0,0,0,0,0,62,,,,,,,8.091,85.82,728.09324803652,21.653544,6,P-GPS,
17300,2023-10-10 22:21:15,40.0688885071938,-88.2097542793654,21.653544,,,728.09324803652,0.328084,0.223694,30.3747713132,36.483596968,23,10,22.018,728.74941603652,22.309712,12.30317,31.1614839368,0,0.223694,0,178.3, -3.7, 3.1,0,0,1684,983,1024,1024,100,-6,0,0,0,0,0,62,,,,,,,8.091,85.82,728.09324803652,21.653544,6,P-GPS,
17400,2023-10-10 22:21:15,40.0688884828428,-88.2097540401857,21.653544,,,728.09324803652,0.328084,0.3131716,30.3077765604,36.550854188,23,10,22.018,728.74941603652,22.309712,12.30317,31.1614839368,-0.223694,0.223694,0,178, -13, 2.9,0,0,1684,973,1024,1024,100,-8,0,0,0,0,0,62,,,,,,,8.091,85.82,728.09324803652,21.653544,6,P-GPS,
17500,2023-10-10 22:21:15,40.0688882656402,-88.2097537905505,21.653544,,,728.09324803652,0.328084,0.7158208,30.2361886316,36.656497236,23,10,22.018,728.74941603652,22.309712,12.30317,31.1614839368,-0.671082,0.223694,0,177.7, -20.4, 2.2,0,0,1684,1024,1024,1024,100,0,0,0,0,0,0,62,,,,,,,8.091,85.82,728.09324803652,21.653544,6,P-GPS,
17600,2023-10-10 22:21:15,40.0688878415202,-88.209753227651,21.653544,,,728.09324803652,0.328084,1.5882274,30.0758867892,36.876969684,23,10,22.018,728.74941603652,22.309712,12.30317,31.1614839368,-1.565858,0.223694,0,177.7, -23.1, 1.4,0,0,1684,1024,1024,1024,100,0,0,0,0,0,0,62,,,,,,,8.091,85.82,728.09324803652,21.653544,6,P-GPS,
17700,2023-10-10 22:21:15,40.0688869330867,-88.2097528484294,21.653544,,,728.09324803652,0.328084,2.5053728,29.965880224,37.225066808,23,10,22.018,728.74941603652,22.309712,12.30317,31.1614839368,-2.460634,0.447388,0,177.8, -24, 1.4,0,0,1531,1024,1024,1024,77,0,0,0,0,0,0,62,,,,,,,8.091,85.82,728.09324803652,21.653544,6,P-GPS,
17800,2023-10-10 22:21:16,40.0688857079141,-88.2097524003398,21.653544,,,728.09324803652,0.328084,3.3777794,29.8409786452,37.689305668,23,10,22.018,728.74941603652,22.309712,12.30317,31.1614839368,-3.35541,0.447388,0,177.9, -24, 2,0,0,1024,1024,1024,1024,0,0,0,0,0,0,0,62,,,,,,,8.091,85.82,728.09324803652,21.653544,6,P-GPS,
17900,2023-10-10 22:21:16,40.0688840469966,-88.2097518850838,21.653544,,,728.09324803652,0.328084,4.2949248,29.708170242,38.3120091,23,10,22.0125,728.74941603652,22.309712,12.30317,31.1614839368,-4.250186,0.671082,0,177.8, -23.5, 3,0,0,1024,1024,1024,1024,0,0,0,0,0,0,0,62,,,,,,,8.689,85.82,728.09324803652,21.653544,6,P-GPS,
18000,2023-10-10 22:21:16,40.0688821216483,-88.209751168418,21.653544,,,728.09324803652,0.328084,5.1897008,29.53658231,39.042324084,23,10,22.0125,728.74941603652,22.309712,12.30317,31.1614839368,-5.144962,0.671082,0,178.1, -17.3, 3.5,0,0,1024,1024,1024,1024,0,0,0,0,0,0,0,62,,,,,,,8.689,85.82,728.09324803652,21.653544,6,P-GPS,
18100,2023-10-10 22:21:16,40.0688798020857,-88.2097506213138,21.653544,,,728.09324803652,0.328084,5.8607828,29.4407161652,39.902560332,23,10,22.0125,728.74941603652,22.309712,12.30317,31.1614839368,-5.816044,0.671082,-0.223694,178.8, -1.7, 3.4,0,0,1024,1024,1024,1024,0,0,0,0,0,0,0,62,,,,,,,8.689,85.82,728.09324803652,21.653544,6,P-GPS,
18200,2023-10-10 22:21:16,40.0688776527996,-88.2097501027442,21.653544,,,728.09324803652,0.328084,5.4133948,29.3708670816,40.699804452,23,10,22.0125,728.74941603652,22.309712,12.30317,31.1614839368,-5.368656,0.671082,0,179.8, 15.9, 4,0,0,1024,1024,1024,1024,0,0,0,0,0,0,0,62,,,,,,,8.689,85.82,728.09324803652,21.653544,6,P-GPS,
18300,2023-10-10 22:21:16,40.0688757607484,-88.2097492703395,21.653544,,,728.09324803652,0.328084,4.5186188,29.2231636648,41.428150932,23,10,22.0125,728.74941603652,22.309712,12.30317,31.1614839368,-4.47388,0.671082,0,180.3, 23.3, 4.2,0,0,1024,1024,1024,1024,0,0,0,0,0,0,0,62,,,,,,,8.689,85.82,728.09324803652,21.653544,6,P-GPS,
18400,2023-10-10 22:21:16,40.0688743355275,-88.2097488381795,21.653544,,,728.09324803652,0.328084,3.3777794,29.1771990964,41.9619436,23,10,22.0125,728.74941603652,22.309712,12.30317,31.1614839368,-3.35541,0.447388,0,179.8, 23, 3.6,0,0,1024,1024,1024,1024,0,0,0,0,0,0,0,62,,,,,,,8.689,85.82,728.09324803652,21.653544,6,P-GPS,
18500,2023-10-10 22:21:16,40.0688732571658,-88.2097484408565,21.653544,,,728.09324803652,0.328084,2.5053728,29.1295284912,42.370736264,23,10,22.0125,728.74941603652,22.309712,12.30317,31.1614839368,-2.460634,0.447388,0,179.2, 17.6, 2.7,0,0,1024,1024,1024,1024,0,0,0,0,0,0,0,62,,,,,,,8.689,85.82,728.09324803652,21.653544,6,P-GPS,
18600,2023-10-10 22:21:16,40.0688725961711,-88.2097480999197,21.653544,,,728.09324803652,0.328084,1.6329662,29.0763132664,42.629922624,23,10,22.0125,728.74941603652,22.309712,12.30317,31.1614839368,-1.565858,0.447388,0,178.5, 10.2, 2.3,0,0,1024,1024,1024,1024,0,0,0,0,0,0,0,62,,,,,,,8.689,85.82,728.09324803652,21.653544,6,P-GPS,
