time(millisecond),datetime(utc),latitude,longitude,height_above_takeoff(feet),height_above_ground_at_drone_location(feet),ground_elevation_at_drone_location(feet),altitude_above_seaLevel(feet),height_sonar(feet),speed(mph),distance(feet),mileage(feet),satellites,gpslevel,voltage(v),max_altitude(feet),max_ascent(feet),max_speed(mph),max_distance(feet), xSpeed(mph), ySpeed(mph), zSpeed(mph), compass_heading(degrees), pitch(degrees), roll(degrees),isPhoto,isVideo,rc_elevator,rc_aileron,rc_throttle,rc_rudder,rc_elevator(percent),rc_aileron(percent),rc_throttle(percent),rc_rudder(percent),gimbal_heading(degrees),gimbal_pitch(degrees),gimbal_roll(degrees),battery_percent,voltageCell1,voltageCell2,voltageCell3,voltageCell4,voltageCell5,voltageCell6,current(A),battery_temperature(f),altitude(feet),ascent(feet),flycStateRaw,flycState,message
106800,2023-10-12 22:24:30,40.0689009220004,-88.209683097332,0,Available with any HD 360 subscription,Available with any HD 360 subscription,706.43900324909,0.656168,0,0,0,26,10,0,706.43900324909,0,0,0,0,0,0,5.6, -1.5, -2,0,0,1024,1024,1024,1024,0,0,0,0,0,0,0,88,,,,,,,0,96.62,706.43900324909,0,41,Motors_Started,"GEO: You are in a Warning Zone (Airport). Fly with caution."
106900,2023-10-12 22:24:30,40.0689009281274,-88.20968309251,0,,,706.43900324909,0.656168,0,0.0026095473276,0.0026095473276,26,10,0,706.43900324909,0,0,0.0026095473276,0,0,0,5.6, -1.5, -2,0,0,1024,1024,1024,1024,0,0,0,0,0,0,0,88,,,,,,,0,96.62,706.43900324909,0,41,Motors_Started,
107000,2023-10-12 22:24:30,40.0689009280858,-88.2096830930596,0,,,706.43900324909,0.656168,0,0.00252039706228,0.0027637468076,26,10,0,706.43900324909,0,0,0.0026095473276,0,0,0,5.6, -1.5, -2,0,0,1024,1024,1024,1024,0,0,0,0,0,0,0,88,,,,,,,0,96.62,706.43900324909,0,41,Motors_Started,"Setting new Return-To-Home altitude to 100m (328 ft). Data Recorder File Index is 48. Setting new Maximum Flight Altitude to 120m (394 ft)"
107100,2023-10-12 22:24:30,40.0689009358303,-88.209683102451,0,,,706.43900324909,0.656168,0,0.0056849411268,0.0066185697656,26,10,0,706.43900324909,0,0,0.0056849411268,0,0,0,5.6, -1.4, -2,0,0,1024,1024,1024,1024,0,0,0,0,0,0,0,88,,,,,,,0,96.62,706.43900324909,0,41,Motors_Started,
107200,2023-10-12 22:24:30,40.0689009357277,-88.2096830917584,0,,,706.43900324909,0.656168,0,0.005852362392,0.0096042653992,26,10,0,706.43900324909,0,0,0.005852362392,0,0,0,5.5, -1.5, -2,0,0,1024,1024,1024,1024,0,0,0,0,0,0,0,88,,,,,,,0,96.62,706.43900324909,0,41,Motors_Started,
107300,2023-10-12 22:24:31,40.0689009313868,-88.2096830825218,0,,,706.43900324909,0.656168,0,0.0059655185636,0.0126306762572,26,10,0,706.43900324909,0,0,0.0059655185636,0,0,0,5.5, -1.5, -2,0,0,1024,1024,1024,1024,0,0,0,0,0,0,0,88,,,,,,,0,96.62,706.43900324909,0,41,Motors_Started,
107400,2023-10-12 22:24:31,40.0689008951838,-88.2096830882028,0,,,706.43900324909,0.656168,0,0.0096896984728,0.02593421999,26,10,0,706.43900324909,0,0,0.0096896984728,0,0,0,5.6, -1.5, -2,0,0,1024,1024,1024,1024,0,0,0,0,0,0,0,88,,,,,,,0,96.62,706.43900324909,0,41,Motors_Started,
107500,2023-10-12 22:24:31,40.0689008670008,-88.2096830863557,0,,,706.43900324909,0.656168,0,0.0198274940728,0.036229659952,26,10,0,706.43900324909,0,0,0.0198274940728,0,0,0,5.6, -1.4, -2,0,0,1024,1024,1024,1024,0,0,0,0,0,0,0,88,,,,,,,0,96.62,706.43900324909,0,41,Motors_Started,
107600,2023-10-12 22:24:31,40.0689008411322,-88.2096830900853,0,,,706.43900324909,0.656168,0,0.0290683408252,0.04572506708,26,10,0,706.43900324909,0,0,0.0290683408252,0,0,0,5.6, -1.4, -2,0,0,1024,1024,1024,1024,0,0,0,0,0,0,0,88,,,,,,,0,96.62,706.43900324909,0,41,Motors_Started,
107700,2023-10-12 22:24:31,40.0689008172205,-88.209683091874,0,,,706.43900324909,0.656168,0,0.03774278336,0.05446358442,26,10,0,706.43900324909,0,0,0.03774278336,0,0,0,5.6, -1.5, -2,0,0,1024,1024,1024,1024,0,0,0,0,0,0,0,88,,,,,,,0,96.62,706.43900324909,0,41,Motors_Started,
107800,2023-10-12 22:24:31,40.0689008064499,-88.2096831060655,0,,,706.43900324909,0.656168,0,0.041680119444,0.06004429326,26,10,0,706.43900324909,0,0,0.041680119444,0,0,0,5.6, -1.5, -2,0,0,1024,1024,1024,1024,0,0,0,0,0,0,0,88,,,,,,,0,96.62,706.43900324909,0,41,Motors_Started,
107900,2023-10-12 22:24:31,40.0689007950058,-88.209683100596,0,,,706.43900324909,0.656168,0,0.045805775744,0.064490159544,26,10,0,706.43900324909,0,0,0.045805775744,0,0,0,5.5, -1.5, -2,0,0,1024,1024,1024,1024,0,0,0,0,0,0,0,88,,,,,,,0,96.62,706.43900324909,0,41,Motors_Started,
108000,2023-10-12 22:24:31,40.0689007883679,-88.2096830916912,0,,,706.43900324909,0.656168,0,0.048261484484,0.06796096018,26,10,0,706.43900324909,0,0,0.048261484484,0,0,0,5.6, -1.4, -2,0,0,1024,1024,1024,1024,0,0,0,0,0,0,0,88,,,,,,,0,96.62,706.43900324909,0,41,Motors_Started,
108100,2023-10-12 22:24:31,40.0689008103056,-88.2096830907878,0,,,706.43900324909,0.656168,0,0.040277888428,0.075968834452,26,10,0,706.43900324909,0,0,0.048261484484,0,0,0,5.6, -1.5, -2,0,0,1024,1024,1024,1024,0,0,0,0,0,0,0,88,,,,,,,0,96.62,706.43900324909,0,41,Motors_Started,
108200,2023-10-12 22:24:32,40.0689008082674,-88.2096830811552,0,,,706.43900324909,0.656168,0,0.041249345152,0.078759188872,26,10,0,706.43900324909,0,0,0.048261484484,0,0,0,5.5, -1.5, -2,0,0,1024,1024,1024,1024,0,0,0,0,0,0,0,88,,,,,,,0,96.62,706.43900324909,0,41,Motors_Started,
108300,2023-10-12 22:24:32,40.0689008093804,-88.2096830703118,0,,,706.43900324909,0.656168,0,0.041314961952,0.081813978996,26,10,0,706.43900324909,0,0,0.048261484484,0,0,0,5.5, -1.4, -2,0,0,1024,1024,1024,1024,0,0,0,0,0,0,0,88,,,,,,,0,96.62,706.43900324909,0,41,Motors_Started,
108400,2023-10-12 22:24:32,40.0689008290411,-88.2096830632275,0,,,706.43900324909,0.656168,0,0.034807743896,0.089254924116,26,10,0,706.43900324909,0,0,0.048261484484,0,0,0,5.5, -1.4, -2,0,0,1024,1024,1024,1024,0,0,0,0,0,0,0,88,,,,,,,0,96.62,706.43900324909,0,41,Motors_Started,
108500,2023-10-12 22:24:32,40.0689008799361,-88.2096830501593,0,,,706.43900324909,0.656168,0,0.0200440295128,0.108178809236,26,10,0,706.43900324909,0,0,0.048261484484,0,0,0,5.5, -1.5, -2,0,0,1024,1024,1024,1024,0,0,0,0,0,0,0,88,,,,,,,0,96.62,706.43900324909,0,41,Motors_Started,
108600,2023-10-12 22:24:32,40.0689008854766,-88.2096830526952,0,,,706.43900324909,0.656168,0,0.0180924218388,0.110320869672,26,10,0,706.43900324909,0,0,0.048261484484,0,0,0,5.5, -1.5, -2,0,0,1024,1024,1024,1024,0,0,0,0,0,0,0,88,,,,,,,0,96.62,706.43900324909,0,41,Motors_Started,
108700,2023-10-12 22:24:32,40.0689008885355,-88.2096830540937,0,,,706.43900324909,0.656168,0,0.0170348430648,0.111503284408,26,10,0,706.43900324909,0,0,0.048261484484,0,0,0,5.5, -1.5, -2,0,0,1024,1024,1024,1024,0,0,0,0,0,0,0,88,,,,,,,0,96.62,706.43900324909,0,41,Motors_Started,
108800,2023-10-12 22:24:32,40.0689008957119,-88.2096830853713,0,,,706.43900324909,0.656168,0,0.0097744097616,0.1206200826,26,10,0,706.43900324909,0,0,0.048261484484,0,0,0,5.5, -1.5, -2,0,0,1024,1024,1024,1024,0,0,0,0,0,0,0,88,,,,,,,0,96.62,706.43900324909,0,11,AutoTakeoff,
108900,2023-10-12 22:24:32,40.0689008877499,-88.2096830863718,0,,,706.43900324909,0.656168,0,0.0124354334688,0.12353838978,26,10,0,706.43900324909,0,0,0.048261484484,0,0,0,5.5, -1.5, -2,0,0,1024,1024,1024,1024,0,0,0,0,0,0,0,88,,,,,,,0,96.62,706.43900324909,0,11,AutoTakeoff,
109000,2023-10-12 22:24:32,40.0689008752913,-88.2096830765151,0,,,706.43900324909,0.656168,0,0.0176154533196,0.128852366328,26,10,0,706.43900324909,0,0,0.048261484484,0,0,0,5.5, -1.5, -2,0,0,1024,1024,1024,1024,0,0,0,0,0,0,0,88,,,,,,,0,96.62,706.43900324909,0,11,AutoTakeoff,
109100,2023-10-12 22:24:32,40.0689008619383,-88.2096830650213,0,,,706.43900324909,0.656168,0,0.0233372382796,0.134686027932,26,10,0,706.43900324909,0,0,0.048261484484,0,0,0,5.5, -1.5, -2,0,0,1024,1024,1024,1024,0,0,0,0,0,0,0,88,,,,,,,0,96.62,706.43900324909,0,11,AutoTakeoff,
109200,2023-10-12 22:24:33,40.0689008726604,-88.2096830675162,0,,,706.43900324909,0.656168,0,0.0194960964244,0.138659453256,26,10,0,706.43900324909,0,0,0.048261484484,0,0,0,5.5, -1.4, -2,0,0,1024,1024,1024,1024,0,0,0,0,0,0,0,88,,,,,,,0,96.62,706.43900324909,0,11,AutoTakeoff,
109300,2023-10-12 22:24:33,40.0689008720445,-88.2096830543642,0,,,706.43900324909,0.656168,0,0.0215648957032,0.142338587232,26,10,0,706.43900324909,0,0,0.048261484484,0,0,0,5.6, -1.4, -2,0,0,1024,1024,1024,1024,0,0,0,0,0,0,0,88,,,,,,,0,96.62,706.43900324909,0,11,AutoTakeoff,
109400,2023-10-12 22:24:33,40.0689008673744,-88.2096830277064,0,,,706.43900324909,0.656168,0,0.027697343406,0.149974086164,26,10,0,706.43900324909,0,0,0.048261484484,0,0,0,5.5, -1.5, -2,0,0,1024,1024,1024,1024,0,0,0,0,0,0,0,88,,,,,,,0,96.62,706.43900324909,0,11,AutoTakeoff,
109500,2023-10-12 22:24:33,40.0689008754032,-88.2096830099675,0,,,706.43900324909,0.656168,0,0.029705873654,0.15572835144,26,10,0,706.43900324909,0,0,0.048261484484,0,0,0,5.4, -1.2, -1.9,0,0,1024,1024,1024,1024,0,0,0,0,0,0,0,88,,,,,,,0,96.62,706.43900324909,0,11,AutoTakeoff,
109600,2023-10-12 22:24:33,40.0689008575362,-88.2096829979694,0,,,706.43900324909,0.656168,0,0.036283793812,0.163057748,26,10,0,706.43900324909,0,0,0.048261484484,0,0,0,5.1, 0.2, -1.6,0,0,1024,1024,1024,1024,0,0,0,0,0,0,0,88,,,,,,,0,96.62,706.43900324909,0,11,AutoTakeoff,
109700,2023-10-12 22:24:33,40.0689008349894,-88.209683010091,0,,,706.43900324909,0.656168,0,0.039797245368,0.171952761408,26,10,0,706.43900324909,0,0,0.048261484484,0,0,-0.447388,4.9, 1.8, -0.7,0,0,1024,1024,1024,1024,0,0,0,0,0,0,0,88,,,,,,,0,96.62,706.43900324909,0,11,AutoTakeoff,
109800,2023-10-12 22:24:33,40.0689007912291,-88.2096830403785,0,,,706.43900324909,0.656168,0,0.049894030468,0.190020019204,26,10,0,706.43900324909,0,0,0.049894030468,0,0,-0.671082,4.8, 1.7, -0.2,0,0,1024,1024,1024,1024,0,0,0,0,0,0,0,88,,,,,,,0,96.62,706.43900324909,0,11,AutoTakeoff,
109900,2023-10-12 22:24:33,40.0689007399543,-88.2096830800597,0.328084,,,706.76708724909,0.656168,0,0.066088912876,0.211762145884,26,10,0,706.76708724909,0.328084,0,0.066088912876,0,0,-1.11847,4.8, 0.9, 0,0,0,1024,1024,1024,1024,0,0,0,0,0,0,0,88,,,,,,,0,96.62,706.76708724909,0.328084,11,AutoTakeoff,
110000,2023-10-12 22:24:33,40.0689006585437,-88.209683118072,0.328084,,,706.76708724909,1.312336,0.223694,0.095746066056,0.243304141644,26,10,0,706.76708724909,0.328084,0.223694,0.095746066056,-0.223694,0,-1.342164,4.8, 0.1, -0.4,0,0,1024,1024,1024,1024,0,0,0,0,0,0,0,88,,,,,,,0,96.62,706.76708724909,0.328084,11,AutoTakeoff,
110100,2023-10-12 22:24:33,40.0689005771836,-88.2096831616244,0.656168,,,707.09517124909,1.312336,0.223694,0.12650754998,0.275382554744,26,10,0,707.09517124909,0.656168,0.223694,0.12650754998,-0.223694,0,-1.342164,4.8, -0.9, -0.3,0,0,1024,1024,1024,1024,0,0,0,0,0,0,0,88,,,,,,,0,96.62,707.09517124909,0.656168,11,AutoTakeoff,
110200,2023-10-12 22:24:34,40.0689005253784,-88.2096832689789,0.656168,,,707.09517124909,1.312336,0,0.151828745016,0.3108185795,26,10,23.8785,707.09517124909,0.656168,0.223694,0.151828745016,0,0,-1.342164,4.8, -1.4, -0.2,0,0,1024,1024,1024,1024,0,0,0,0,0,0,0,87,,,,,,,3.378,96.62,707.09517124909,0.656168,11,AutoTakeoff,
110300,2023-10-12 22:24:34,40.0689004622309,-88.2096833265264,0.984252,,,707.42325524909,1.64042,0,0.178924218324,0.33890749116,26,10,23.8785,707.42325524909,0.984252,0.223694,0.178924218324,0,0,-1.342164,4.8, -1.2, -0.2,0,0,1024,1024,1024,1024,0,0,0,0,0,0,0,87,,,,,,,3.378,96.62,707.42325524909,0.984252,11,AutoTakeoff,
110400,2023-10-12 22:24:34,40.0689004228767,-88.2096834331007,1.312336,,,707.75133924909,1.968504,0,0.20419620076,0.37194554996,26,10,23.8785,707.75133924909,1.312336,0.223694,0.20419620076,0,0,-1.342164,4.7, -1, 0,0,0,1024,1024,1024,1024,0,0,0,0,0,0,0,87,,,,,,,3.378,96.62,707.75133924909,1.312336,11,AutoTakeoff,
110500,2023-10-12 22:24:34,40.0689003897699,-88.2096835365525,1.312336,,,707.75133924909,1.968504,0,0.229040689744,0.40325460608,26,10,23.8785,707.75133924909,1.312336,0.223694,0.229040689744,0,0,-1.342164,4.6, -0.6, 0.3,0,0,1024,1024,1024,1024,0,0,0,0,0,0,0,87,,,,,,,3.378,96.62,707.75133924909,1.312336,11,AutoTakeoff,
110600,2023-10-12 22:24:34,40.0689003480548,-88.2096837295789,1.64042,,,708.07942324909,2.296588,0,0.273264772524,0.45925854488,26,10,23.8785,708.07942324909,1.64042,0.223694,0.273264772524,0,0,-1.342164,4.6, -0.6, 0.5,0,0,1024,1024,1024,1024,0,0,0,0,0,0,0,87,,,,,,,3.378,96.62,708.07942324909,1.64042,11,AutoTakeoff,
110700,2023-10-12 22:24:34,40.0689002984706,-88.2096838084655,1.968504,,,708.40750724909,2.296588,0,0.301338920404,0.48775920196,26,10,23.8785,708.40750724909,1.968504,0.223694,0.301338920404,0,0,-1.11847,4.6, -1, 0.5,0,0,1024,1024,1024,1024,0,0,0,0,0,0,0,87,,,,,,,3.378,96.62,708.40750724909,1.968504,11,AutoTakeoff,
110800,2023-10-12 22:24:34,40.0689002386084,-88.209683876876,1.968504,,,708.40750724909,2.624672,0,0.33035434128,0.51677495092,26,10,23.8785,708.40750724909,1.968504,0.223694,0.33035434128,0,0,-1.11847,4.7, -1.4, 0.6,0,0,1024,1024,1024,1024,0,0,0,0,0,0,0,87,,,,,,,3.378,96.62,708.40750724909,1.968504,11,AutoTakeoff,
110900,2023-10-12 22:24:34,40.06890018804,-88.209683975268,2.296588,,,708.73559124909,2.624672,0,0.36242127144,0.549868784,26,10,23.8785,708.73559124909,2.296588,0.223694,0.36242127144,0,0,-1.11847,4.7, -1.4, 0.8,0,0,1024,1024,1024,1024,0,0,0,0,0,0,0,87,,,,,,,3.378,96.62,708.73559124909,2.296588,11,AutoTakeoff,
111000,2023-10-12 22:24:34,40.0689001595909,-88.2096840193766,2.296588,,,708.73559124909,2.952756,0,0.37840224308,0.56597442756,26,10,23.8785,708.73559124909,2.296588,0.223694,0.37840224308,0,0,-1.11847,4.7, -1.3, 0.8,0,0,1024,1024,1024,1024,0,0,0,0,0,0,0,88,,,,,,,3.378,96.62,708.73559124909,2.296588,11,AutoTakeoff,
111100,2023-10-12 22:24:34,40.0689001363654,-88.2096840459971,2.624672,,,709.06367524909,2.952756,0,0.38966864764,0.57724411296,26,10,23.8785,709.06367524909,2.624672,0.223694,0.38966864764,0,0,-1.11847,4.7, -1.3, 0.8,0,0,1024,1024,1024,1024,0,0,0,0,0,0,0,88,,,,,,,3.378,96.62,709.06367524909,2.624672,11,AutoTakeoff,
111200,2023-10-12 22:24:34,40.0689001388788,-88.2096840361178,2.624672,,,709.06367524909,2.952756,0,0.38712599664,0.5801509372,25,10,23.766,709.06367524909,2.624672,0.223694,0.38966864764,0,0,-0.894776,4.6, -1.2, 0.6,0,0,1024,1024,1024,1024,0,0,0,0,0,0,0,87,,,,,,,8.166,96.62,709.06367524909,2.624672,11,AutoTakeoff,
111300,2023-10-12 22:24:35,40.0689001687872,-88.2096840117783,2.952756,,,709.39175924909,3.28084,0,0.37449804348,0.59300854916,25,10,23.766,709.39175924909,2.952756,0.223694,0.38966864764,0,0,-0.894776,4.6, -1.1, 0.6,0,0,1024,1024,1024,1024,0,0,0,0,0,0,0,87,,,,,,,8.166,96.62,709.39175924909,2.952756,11,AutoTakeoff,
111400,2023-10-12 22:24:35,40.068900174311,-88.2096840083081,2.952756,,,709.39175924909,3.28084,0,0.37236221664,0.5952428012,26,10,23.766,709.39175924909,2.952756,0.223694,0.38966864764,0,0,-0.894776,4.5, -0.7, 0.4,0,0,1024,1024,1024,1024,0,0,0,0,0,0,0,87,,,,,,,8.166,96.62,709.39175924909,2.952756,11,AutoTakeoff,
111500,2023-10-12 22:24:35,40.0689001832322,-88.2096839947753,2.952756,,,709.39175924909,3.608924,0,0.3674048674,0.600229678,26,10,23.766,709.39175924909,2.952756,0.223694,0.38966864764,0,0,-0.894776,4.5, -0.4, 0.3,0,0,1024,1024,1024,1024,0,0,0,0,0,0,0,87,,,,,,,8.166,96.62,709.39175924909,2.952756,14,Waypoint,
111600,2023-10-12 22:24:35,40.068900193177,-88.209683968803,3.28084,,,709.71984324909,3.608924,0,0.35982284616,0.60833991448,26,10,23.766,709.71984324909,3.28084,0.223694,0.38966864764,0,0,-0.894776,4.4, 0, -0.2,0,0,1024,1024,1024,1024,0,0,0,0,0,0,0,87,,,,,,,8.166,96.62,709.71984324909,3.28084,14,Waypoint,
111700,2023-10-12 22:24:35,40.0689001971833,-88.2096839421003,3.28084,,,709.71984324909,3.937008,0,0.35373688796,0.61593833992,26,10,23.766,709.71984324909,3.28084,0.223694,0.38966864764,0,0,-0.671082,4.3, -0.1, -0.4,0,0,1024,1024,1024,1024,0,0,0,0,0,0,0,87,,,,,,,8.166,96.62,709.71984324909,3.28084,14,Waypoint,
111800,2023-10-12 22:24:35,40.0689002078826,-88.2096839169831,3.28084,,,709.71984324909,3.937008,0,0.34616470924,0.62396327456,26,10,23.766,709.71984324909,3.28084,0.223694,0.38966864764,0,0,-0.447388,4.2, -0.3, -0.2,0,0,1024,1024,1024,1024,0,0,0,0,0,0,0,87,,,,,,,8.166,96.62,709.71984324909,3.28084,14,Waypoint,
111900,2023-10-12 22:24:35,40.0689002156283,-88.2096838984484,3.608924,,,710.04792724909,3.937008,0,0.340633213,0.62985894404,26,10,23.766,710.04792724909,3.608924,0.223694,0.38966864764,0,0,-0.447388,4.2, -0.3, -0.1,0,0,1024,1024,1024,1024,0,0,0,0,0,0,0,87,,,,,,,8.166,96.62,710.04792724909,3.608924,14,Waypoint,
112000,2023-10-12 22:24:35,40.0689001928221,-88.209683860587,3.608924,,,710.04792724909,3.937008,0,0.34024935472,0.64331366888,26,10,23.766,710.04792724909,3.608924,0.223694,0.38966864764,0,0,-0.447388,4.2, -0.3, 0,0,0,1024,1024,1024,1024,0,0,0,0,0,0,0,88,,,,,,,8.166,96.62,710.04792724909,3.608924,14,Waypoint,
112100,2023-10-12 22:24:35,40.0689001811451,-88.2096838445489,3.608924,,,710.04792724909,3.937008,0,0.3408300634,0.64949477144,26,10,23.766,710.04792724909,3.608924,0.223694,0.38966864764,0,0,-0.447388,4.3, -0.3, -0.2,0,0,1024,1024,1024,1024,0,0,0,0,0,0,0,88,,,,,,,8.166,96.62,710.04792724909,3.608924,14,Waypoint,
112200,2023-10-12 22:24:36,40.0689001822921,-88.2096838335753,3.608924,,,710.04792724909,3.937008,0,0.3386319006,0.65258532272,26,10,23.756,710.04792724909,3.608924,0.223694,0.38966864764,0,0,-0.671082,4.3, -0.1, -0.2,0,0,1024,1024,1024,1024,0,0,0,0,0,0,0,87,,,,,,,8.076,96.62,710.04792724909,3.608924,14,Waypoint,
112300,2023-10-12 22:24:36,40.0689002346659,-88.2096837980772,3.937008,,,710.37601124909,3.937008,0,0.317447188636,0.67411091396,26,10,23.756,710.37601124909,3.937008,0.223694,0.38966864764,0,0,-1.11847,4.2, 0, -0.3,0,0,1024,1024,1024,1024,0,0,0,0,0,0,0,87,,,,,,,8.076,96.62,710.37601124909,3.937008,14,Waypoint,
112400,2023-10-12 22:24:36,40.0689002817314,-88.209683790124,3.937008,,,710.37601124909,4.265092,0,0.302672581864,0.69142718748,26,10,23.756,710.37601124909,3.937008,0.223694,0.38966864764,0,0,-1.342164,4.2, 0.1, -0.2,0,0,1024,1024,1024,1024,0,0,0,0,0,0,0,87,,,,,,,8.076,96.62,710.37601124909,3.937008,14,Waypoint,
112500,2023-10-12 22:24:36,40.068900315785,-88.2096838022796,4.265092,,,710.70409524909,4.92126,0,0.295458670872,0.70430776532,26,10,23.756,710.70409524909,4.265092,0.223694,0.38966864764,0,0,-1.789552,4.2, 0, 0,0,0,1024,1024,1024,1024,0,0,0,0,0,0,0,87,,,,,,,8.076,96.62,710.70409524909,4.265092,14,Waypoint,
112600,2023-10-12 22:24:36,40.0689003155376,-88.2096838511975,4.593176,,,711.03217924909,5.249344,0,0.30477855306,0.71796590224,26,10,23.756,711.03217924909,4.593176,0.223694,0.38966864764,0,0,-2.460634,4.2, -0.4, 0.4,0,0,1024,1024,1024,1024,0,0,0,0,0,0,0,87,,,,,,,8.076,96.62,711.03217924909,4.593176,14,Waypoint,
112700,2023-10-12 22:24:36,40.0689003284053,-88.2096838968615,4.92126,,,711.36026324909,5.577428,0,0.310420285524,0.73155186068,26,10,23.756,711.36026324909,4.92126,0.223694,0.38966864764,0,0,-2.908022,4.2, -0.6, 0.5,0,0,1024,1024,1024,1024,0,0,0,0,0,0,0,87,,,,,,,8.076,96.62,711.36026324909,4.92126,14,Waypoint,
112800,2023-10-12 22:24:36,40.0689003542054,-88.2096838881258,5.577428,,,712.01643124909,5.577428,0,0.302160114656,0.74127627044,26,10,23.756,712.01643124909,5.577428,0.223694,0.38966864764,0,0,-3.35541,4.2, -0.4, 0.3,0,0,1024,1024,1024,1024,0,0,0,0,0,0,0,87,,,,,,,8.076,96.62,712.01643124909,5.577428,14,Waypoint,
112900,2023-10-12 22:24:36,40.0689003873292,-88.2096838822729,5.905512,,,712.34451524909,6.56168,0,0.292804799396,0.75347115272,26,10,23.756,712.34451524909,5.905512,0.223694,0.38966864764,0,0,-4.026492,4.2, -0.1, 0.2,0,0,1024,1024,1024,1024,0,0,0,0,0,0,0,87,,,,,,,8.076,96.62,712.34451524909,5.905512,14,Waypoint,
113000,2023-10-12 22:24:36,40.0689004341726,-88.2096838857447,6.56168,,,713.00068324909,7.217848,0,0.282492791192,0.77059057584,26,10,23.756,713.00068324909,6.56168,0.223694,0.38966864764,0,0,-4.47388,4.2, 0, 0.1,0,0,1024,1024,1024,1024,0,0,0,0,0,0,0,87,,,,,,,8.076,96.62,713.00068324909,6.56168,14,Waypoint,
113100,2023-10-12 22:24:36,40.0689004754468,-88.2096839172569,7.217848,,,713.65685124909,7.874016,0,0.280409785876,0.78803152128,26,10,23.756,713.65685124909,7.217848,0.223694,0.38966864764,0,0,-4.921268,4.2, 0.2, 0.1,0,0,1024,1024,1024,1024,0,0,0,0,0,0,0,87,,,,,,,8.076,96.62,713.65685124909,7.217848,14,Waypoint,
113200,2023-10-12 22:24:36,40.0689005285055,-88.2096839519844,8.2021,,,714.64110324909,8.530184,0,0.277928486584,0.80968178444,26,10,23.6475,714.64110324909,8.2021,0.223694,0.38966864764,0,0,-5.144962,4.2, 0.3, 0.5,0,0,1024,1024,1024,1024,0,0,0,0,0,0,0,87,,,,,,,10.332,96.62,714.64110324909,8.2021,14,Waypoint,
113300,2023-10-12 22:24:37,40.0689005851329,-88.2096839910831,8.858268,,,715.29727124909,9.186352,0,0.27763780416,0.83304792692,26,10,23.6475,715.29727124909,8.858268,0.223694,0.38966864764,0,0,-5.59235,4.2, 0.4, 0.7,0,0,1024,1024,1024,1024,0,0,0,0,0,0,0,87,,,,,,,10.332,96.62,715.29727124909,8.858268,14,Waypoint,
113400,2023-10-12 22:24:37,40.0689006553506,-88.2096840603113,9.84252,,,716.28152324909,10.170604,0,0.2854412821,0.8651411038,26,10,23.6475,716.28152324909,9.84252,0.223694,0.38966864764,0,0,-5.816044,4.2, 0.6, 0.9,0,0,1024,1024,1024,1024,0,0,0,0,0,0,0,87,,,,,,,10.332,96.62,716.28152324909,9.84252,14,Waypoint,
113500,2023-10-12 22:24:37,40.0689007166603,-88.2096841141074,10.498688,,,716.93769124909,10.826772,0,0.293157489696,0.89208664272,26,10,23.6475,716.93769124909,10.498688,0.223694,0.38966864764,0,0,-6.039738,4.3, 0.7, 1,0,0,1024,1024,1024,1024,0,0,0,0,0,0,0,87,,,,,,,10.332,96.62,716.93769124909,10.498688,14,Waypoint,
113600,2023-10-12 22:24:37,40.0689007623839,-88.2096841553296,11.48294,,,717.92194324909,11.48294,0,0.300661755028,0.9123523914,26,10,23.6475,717.92194324909,11.48294,0.223694,0.38966864764,0,0,-6.039738,4.3, 0.8, 1,0,0,1024,1024,1024,1024,0,0,0,0,0,0,0,87,,,,,,,10.332,96.62,717.92194324909,11.48294,14,Waypoint,
113700,2023-10-12 22:24:37,40.0689007765499,-88.2096842041566,12.467192,,,718.90619524909,12.139108,0,0.313143710808,0.92693244436,26,10,23.6475,718.90619524909,12.467192,0.223694,0.38966864764,0,0,-6.263432,4.4, 0.9, 0.8,0,0,1024,1024,1024,1024,0,0,0,0,0,0,0,87,,,,,,,10.332,96.62,718.90619524909,12.467192,14,Waypoint,
113800,2023-10-12 22:24:37,40.0689008176307,-88.2096842566434,13.451444,,,719.89044724909,13.12336,0,0.325532818816,0.94789373112,26,10,23.6475,719.89044724909,13.451444,0.223694,0.38966864764,0,0,-6.263432,4.4, 0.8, 1,0,0,1024,1024,1024,1024,0,0,0,0,0,0,0,87,,,,,,,10.332,96.62,719.89044724909,13.451444,14,Waypoint,
113900,2023-10-12 22:24:37,40.0689008609971,-88.2096843000545,14.107612,,,720.54661524909,13.779528,0,0.33618439396,0.96782483412,26,10,23.6475,720.54661524909,14.107612,0.223694,0.38966864764,0,0,-6.263432,4.3, 0.7, 1.1,0,0,1024,1024,1024,1024,0,0,0,0,0,0,0,87,,,,,,,10.332,96.62,720.54661524909,14.107612,14,Waypoint,
114000,2023-10-12 22:24:37,40.0689009271339,-88.2096843283478,15.091864,,,721.53086724909,14.435696,0,0.3433891186,0.99321525488,26,10,23.6475,721.53086724909,15.091864,0.223694,0.38966864764,0,0,-6.263432,4.3, 0.6, 1.2,0,0,1024,1024,1024,1024,0,0,0,0,0,0,0,87,,,,,,,10.332,96.62,721.53086724909,15.091864,14,Waypoint,
114100,2023-10-12 22:24:37,40.0689010091948,-88.2096843425397,16.076116,,,722.51511924909,15.091864,0,0.34884515552,1.02341538708,26,10,23.6475,722.51511924909,16.076116,0.223694,0.38966864764,0,0,-6.263432,4.3, 0.6, 1.1,0,0,1024,1024,1024,1024,0,0,0,0,0,0,0,87,,,,,,,10.332,96.62,722.51511924909,16.076116,14,Waypoint,
114200,2023-10-12 22:24:38,40.0689010992825,-88.2096843280166,17.060368,,,723.49937124909,16.076116,0,0.3494258642,1.05653546688,26,10,23.647,723.49937124909,17.060368,0.223694,0.38966864764,0,0,-6.039738,4.3, 1, 0.8,0,0,1024,1024,1024,1024,0,0,0,0,0,0,0,87,,,,,,,11.06,96.62,723.49937124909,17.060368,14,Waypoint,
114300,2023-10-12 22:24:38,40.0689011923385,-88.2096842999774,17.716536,,,724.15553924909,16.732284,0.223694,0.34980972248,1.09137798768,26,10,23.647,724.15553924909,17.716536,0.223694,0.38966864764,0.223694,0,-5.816044,4.4, 1.4, 0.6,0,0,1024,1024,1024,1024,0,0,0,0,0,0,0,87,,,,,,,11.06,96.62,724.15553924909,17.716536,14,Waypoint,
114400,2023-10-12 22:24:38,40.0689013185907,-88.2096842016853,18.700788,,,725.13979124909,17.388452,0.223694,0.3405347878,1.1449967558,26,10,23.647,725.13979124909,18.700788,0.223694,0.38966864764,0.223694,0,-5.368656,4.6, 1.6, 0.4,0,0,1024,1024,1024,1024,0,0,0,0,0,0,0,87,,,,,,,11.06,96.62,725.13979124909,18.700788,14,Waypoint,
114500,2023-10-12 22:24:38,40.0689014150008,-88.209684153337,19.356956,,,725.79595924909,18.04462,0,0.34537730764,1.18267064152,26,10,23.647,725.79595924909,19.356956,0.223694,0.38966864764,0,0,-5.144962,4.5, 1.9, 0.3,0,0,1024,1024,1024,1024,0,0,0,0,0,0,0,87,,,,,,,11.06,96.62,725.79595924909,19.356956,14,Waypoint,
114600,2023-10-12 22:24:38,40.0689015112883,-88.2096841483715,20.341208,,,726.78021124909,18.700788,0,0.36383859432,1.2178314038,26,10,23.647,726.78021124909,20.341208,0.223694,0.38966864764,0,0,-4.697574,4.6, 1.9, 0.4,0,0,1024,1024,1024,1024,0,0,0,0,0,0,0,87,,,,,,,11.06,96.62,726.78021124909,20.341208,14,Waypoint,
114700,2023-10-12 22:24:38,40.0689015979918,-88.2096841482408,20.997376,,,727.43637924909,19.356956,0,0.3833989624,1.24946526308,26,10,23.647,727.43637924909,20.997376,0.223694,0.38966864764,0,0,-4.47388,4.5, 2.1, 0.5,0,0,1024,1024,1024,1024,0,0,0,0,0,0,0,87,,,,,,,11.06,96.62,727.43637924909,20.997376,14,Waypoint,
114800,2023-10-12 22:24:38,40.0689016960121,-88.2096841697851,21.653544,,,728.09254724909,20.013124,0,0.41172245412,1.2857283876,26,10,23.647,728.09254724909,21.653544,0.223694,0.41172245412,0,0,-4.026492,4.6, 2.1, 0.6,0,0,1024,1024,1024,1024,0,0,0,0,0,0,0,87,,,,,,,11.06,96.62,728.09254724909,21.653544,14,Waypoint,
114900,2023-10-12 22:24:38,40.0689017679843,-88.2096841728988,21.981628,,,728.42063124909,20.341208,0,0.43079397704,1.31200135432,26,10,23.647,728.42063124909,21.981628,0.223694,0.43079397704,0,0,-3.35541,4.6, 2, 0.7,0,0,1024,1024,1024,1024,0,0,0,0,0,0,0,87,,,,,,,11.06,96.62,728.42063124909,21.981628,14,Waypoint,
115000,2023-10-12 22:24:38,40.0689018397805,-88.209684162969,22.637796,,,729.07679924909,20.669292,0,0.44812009308,1.33834321868,26,10,23.647,729.07679924909,22.637796,0.223694,0.44812009308,0,0,-2.908022,4.6, 1.9, 0.9,0,0,1024,1024,1024,1024,0,0,0,0,0,0,0,87,,,,,,,11.06,96.62,729.07679924909,22.637796,14,Waypoint,
115100,2023-10-12 22:24:38,40.068901922205,-88.2096841433799,22.96588,,,729.40488324909,20.997376,0,0.4676181252,1.36890752412,26,10,23.647,729.40488324909,22.96588,0.223694,0.4676181252,0,0,-2.460634,4.6, 2, 0.8,0,0,1024,1024,1024,1024,0,0,0,0,0,0,0,87,,,,,,,11.06,96.62,729.40488324909,22.96588,14,Waypoint,
115200,2023-10-12 22:24:39,40.0689020021708,-88.2096841286751,23.293964,,,729.73296724909,20.997376,0,0.48833006812,1.39837274816,26,10,23.743,729.73296724909,23.293964,0.223694,0.48833006812,0,0,-1.789552,4.6, 2.2, 0.6,0,0,1024,1024,1024,1024,0,0,0,0,0,0,0,87,,,,,,,7.076,96.62,729.73296724909,23.293964,14,Waypoint,
115300,2023-10-12 22:24:39,40.0689020785999,-88.2096841142904,23.622048,,,730.06105124909,20.997376,0,0.50887796904,1.42654532124,26,10,23.743,730.06105124909,23.622048,0.223694,0.50887796904,0,0,-1.342164,4.5, 2.4, 0.4,0,0,1024,1024,1024,1024,0,0,0,0,0,0,0,87,,,,,,,7.076,96.62,730.06105124909,23.622048,14,Waypoint,
115400,2023-10-12 22:24:39,40.0689021563737,-88.2096840988642,23.622048,,,730.06105124909,20.997376,0,0.53039371776,1.45524610956,26,10,23.743,730.06105124909,23.622048,0.223694,0.53039371776,0,0,-0.894776,4.5, 2.5, 0.4,0,0,1024,1024,1024,1024,0,0,0,0,0,0,0,87,,,,,,,7.076,96.62,730.06105124909,23.622048,14,Waypoint,
115500,2023-10-12 22:24:39,40.0689022350941,-88.2096840857116,23.950132,,,730.38913524909,20.997376,0,0.55317587072,1.48419952256,26,10,23.743,730.38913524909,23.950132,0.223694,0.55317587072,0,0,-0.447388,4.5, 2.5, 0.3,0,0,1024,1024,1024,1024,0,0,0,0,0,0,0,87,,,,,,,7.076,96.62,730.38913524909,23.950132,14,Waypoint,
115600,2023-10-12 22:24:39,40.0689022990613,-88.2096840795653,23.950132,,,730.38913524909,20.997376,0,0.57270671124,1.50760175428,26,10,23.743,730.38913524909,23.950132,0.223694,0.57270671124,0,0,-0.223694,4.4, 2.4, 0.3,0,0,1024,1024,1024,1024,0,0,0,0,0,0,0,87,,,,,,,7.076,96.62,730.38913524909,23.950132,14,Waypoint,
115700,2023-10-12 22:24:39,40.0689023554214,-88.2096841043932,23.950132,,,730.38913524909,20.997376,0,0.59409122636,1.52930123004,26,10,23.743,730.38913524909,23.950132,0.223694,0.59409122636,0,0,0,359.4, 3.6, 1.5,0,0,1024,1024,1024,1024,0,0,0,0,0,0,0,87,,,,,,,7.076,96.62,730.38913524909,23.950132,14,Waypoint,
115800,2023-10-12 22:24:39,40.0689023878687,-88.2096841780807,23.950132,,,730.38913524909,20.997376,0,0.61437666008,1.55303810744,26,10,23.743,730.38913524909,23.950132,0.223694,0.61437666008,0,0,0.223694,351.8, 3.9, 2.3,0,0,1024,1024,1024,1024,0,0,0,0,0,0,0,87,,,,,,,7.076,96.62,730.38913524909,23.950132,14,Waypoint,
115900,2023-10-12 22:24:39,40.06890238384,-88.2096841753031,23.950132,,,730.38913524909,20.997376,0,0.61271655504,1.55470149332,26,10,23.743,730.38913524909,23.950132,0.223694,0.61437666008,0,0,0.223694,345.7, 3.9, 1,0,0,1024,1024,1024,1024,0,0,0,0,0,0,0,87,,,,,,,7.076,96.62,730.38913524909,23.950132,14,Waypoint,
116000,2023-10-12 22:24:39,40.0689023707084,-88.2096840963631,23.950132,,,730.38913524909,20.997376,0,0.59796261756,1.57725726832,26,10,23.743,730.38913524909,23.950132,0.223694,0.61437666008,0,0,0.223694,341.7, 3.1, -0.8,0,0,1024,1024,1024,1024,0,0,0,0,0,0,0,87,,,,,,,7.076,96.62,730.38913524909,23.950132,14,Waypoint,
116100,2023-10-12 22:24:39,40.0689023463793,-88.2096840078217,23.622048,,,730.06105124909,20.997376,0,0.57886484792,1.60352367336,26,10,23.743,730.38913524909,23.950132,0.223694,0.61437666008,0,0,0.223694,339.4, 2.5, -1.8,0,0,1024,1024,1024,1024,0,0,0,0,0,0,0,87,,,,,,,7.076,96.62,730.06105124909,23.622048,14,Waypoint,
116200,2023-10-12 22:24:40,40.0689021661239,-88.2096841067049,23.622048,,,730.06105124909,20.997376,0,0.53457022708,1.67484913496,26,10,23.6915,730.38913524909,23.950132,0.223694,0.61437666008,0,0,0.223694,338, 1.9, -1.8,0,0,1024,1024,1024,1024,0,0,0,0,0,0,0,87,,,,,,,6.348,96.62,730.06105124909,23.622048,14,Waypoint,
116300,2023-10-12 22:24:40,40.068902047774,-88.2096841448718,23.622048,,,730.06105124909,20.997376,0,0.50447508176,1.719324202,26,10,23.6915,730.38913524909,23.950132,0.223694,0.61437666008,0,0,0.223694,337.2, 1.6, -1.3,0,0,1024,1024,1024,1024,0,0,0,0,0,0,0,87,,,,,,,6.348,96.62,730.06105124909,23.622048,14,Waypoint,
116400,2023-10-12 22:24:40,40.0689020537473,-88.209684088926,23.622048,,,730.06105124909,20.997376,0,0.49740159072,1.73509519988,26,10,23.6915,730.38913524909,23.950132,0.223694,0.61437666008,0,0,0.223694,336.9, 1.6, -0.8,0,0,1024,1024,1024,1024,0,0,0,0,0,0,0,87,,,,,,,6.348,96.62,730.06105124909,23.622048,14,Waypoint,
116500,2023-10-12 22:24:40,40.0689021537175,-88.2096839784337,23.622048,,,730.06105124909,20.997376,0,0.51263125,1.78286751112,26,10,23.6915,730.38913524909,23.950132,0.223694,0.61437666008,0,0,0.223694,336.7, 1.6, -0.7,0,0,1024,1024,1024,1024,0,0,0,0,0,0,0,87,,,,,,,6.348,96.62,730.06105124909,23.622048,14,Waypoint,
116600,2023-10-12 22:24:40,40.0689021702319,-88.2096839414111,23.622048,,,730.06105124909,20.997376,0,0.51310369096,1.7948327346,26,10,23.6915,730.38913524909,23.950132,0.223694,0.61437666008,0,0,0.223694,336.5, 1.3, -0.8,0,0,1024,1024,1024,1024,0,0,0,0,0,0,0,87,,,,,,,6.348,96.62,730.06105124909,23.622048,14,Waypoint,
116700,2023-10-12 22:24:40,40.0689021993697,-88.2096839133244,23.622048,,,730.06105124909,20.997376,0,0.51908794312,1.80804467728,26,10,23.6915,730.38913524909,23.950132,0.223694,0.61437666008,0,0,0.223694,336.4, 0.5, -0.9,0,0,1024,1024,1024,1024,0,0,0,0,0,0,0,87,,,,,,,6.348,96.62,730.06105124909,23.622048,14,Waypoint,
116800,2023-10-12 22:24:40,40.0689022583022,-88.2096839004033,23.293964,,,729.73296724909,20.997376,0,0.53698492532,1.82984585908,26,10,23.6915,730.38913524909,23.950132,0.223694,0.61437666008,0,0,0.223694,336.4, -0.4, -0.9,0,0,1024,1024,1024,1024,0,0,0,0,0,0,0,87,,,,,,,6.348,96.62,729.73296724909,23.293964,14,Waypoint,
116900,2023-10-12 22:24:40,40.0689023698405,-88.2096839109421,23.293964,,,729.73296724909,20.997376,0,0.575377315,1.87064638532,26,10,23.6915,730.38913524909,23.950132,0.223694,0.61437666008,0,0,0,336.4, -1, -0.8,0,0,1024,1024,1024,1024,0,0,0,0,0,0,0,87,,,,,,,6.348,96.62,729.73296724909,23.293964,14,Waypoint,
117000,2023-10-12 22:24:40,40.0689024999921,-88.2096839361574,23.293964,,,729.73296724909,20.997376,0.223694,0.62191274956,1.9186516362,26,10,23.6915,730.38913524909,23.950132,0.223694,0.62191274956,0.223694,0,0,336.5, -1.8, -0.7,0,0,1024,1024,1024,1024,0,0,0,0,0,0,0,87,,,,,,,6.348,96.62,729.73296724909,23.293964,14,Waypoint,
117100,2023-10-12 22:24:40,40.0689026730409,-88.2096839944356,23.293964,,,729.73296724909,20.997376,0.223694,0.68658794848,1.98385176952,26,10,23.6915,730.38913524909,23.950132,0.223694,0.68658794848,0.223694,0,0,336.5, -2.8, -0.5,0,0,1024,1024,1024,1024,0,0,0,0,0,0,0,87,,,,,,,6.348,96.62,729.73296724909,23.293964,14,Waypoint,
117200,2023-10-12 22:24:40,40.0689029132565,-88.2096841197391,23.293964,,,729.73296724909,20.997376,0.223694,0.7809547494,2.07821857044,26,10,23.693,730.38913524909,23.950132,0.223694,0.7809547494,0.447388,-0.223694,0,336.5, -4.2, -0.6,0,0,1024,1024,1024,1024,0,0,0,0,0,0,0,87,,,,,,,7.984,96.8,729.73296724909,23.293964,14,Waypoint,
117300,2023-10-12 22:24:41,40.0689032195894,-88.2096842928,23.293964,,,729.73296724909,20.997376,0.7158208,0.90265422836,2.19998038536,26,10,23.693,730.38913524909,23.950132,0.7158208,0.90265422836,0.671082,-0.223694,0,336.5, -5.8, -0.6,0,0,1024,1024,1024,1024,0,0,0,0,0,0,0,87,,,,,,,7.984,96.8,729.73296724909,23.293964,14,Waypoint,
117400,2023-10-12 22:24:41,40.0689036452856,-88.2096845718354,23.293964,,,729.73296724909,20.997376,1.2079476,1.075869457,2.37374351428,26,10,23.693,730.38913524909,23.950132,1.2079476,1.075869457,1.11847,-0.447388,0,336.6, -7.7, -0.6,0,0,1024,1024,1024,1024,0,0,0,0,0,0,0,87,,,,,,,7.984,96.8,729.73296724909,23.293964,14,Waypoint,
117500,2023-10-12 22:24:41,40.0689041718098,-88.2096849123521,23.293964,,,729.73296724909,20.997376,1.4987498,1.28980975256,2.58808407232,26,10,23.693,730.38913524909,23.950132,1.4987498,1.28980975256,1.342164,-0.671082,0,336.5, -9.7, -0.5,0,0,1024,1024,1024,1024,0,0,0,0,0,0,0,87,,,,,,,7.984,96.8,729.73296724909,23.293964,14,Waypoint,
117600,2023-10-12 22:24:41,40.0689048218785,-88.2096854646693,23.293964,,,729.73296724909,20.997376,1.4987498,1.56924545704,2.87098762468,26,10,23.693,730.38913524909,23.950132,1.4987498,1.56924545704,1.789552,-0.671082,0,336.5, -11.8, -0.3,0,0,1024,1024,1024,1024,0,0,0,0,0,0,0,87,,,,,,,7.984,96.8,729.73296724909,23.293964,14,Waypoint,
117700,2023-10-12 22:24:41,40.0689056620648,-88.2096860043222,23.293964,,,729.73296724909,20.997376,2.4158952,1.9107448118,3.21255915792,26,10,23.693,730.38913524909,23.950132,2.4158952,1.9107448118,2.23694,-0.894776,0,336.4, -13.4, 0,0,0,1024,1024,1024,1024,0,0,0,0,0,0,0,87,,,,,,,7.984,96.8,729.73296724909,23.293964,14,Waypoint,
117800,2023-10-12 22:24:41,40.068906771619,-88.2096866886025,23.293964,,,729.73296724909,20.997376,2.908022,2.35838590224,3.6602035292,26,10,23.693,730.38913524909,23.950132,2.908022,2.35838590224,2.684328,-1.11847,0,336.4, -14.6, 0.1,0,0,1024,1024,1024,1024,0,0,0,0,0,0,0,87,,,,,,,7.984,96.8,729.73296724909,23.293964,14,Waypoint,
117900,2023-10-12 22:24:41,40.0689079800022,-88.2096875034039,23.293964,,,729.73296724909,20.997376,3.6238428,2.85421268976,4.1562993456,26,10,23.693,730.38913524909,23.950132,3.6238428,2.85421268976,3.35541,-1.342164,0,336.3, -15.3, 0.1,0,0,1024,1024,1024,1024,0,0,0,0,0,0,0,87,,,,,,,7.984,96.8,729.73296724909,23.293964,14,Waypoint,
118000,2023-10-12 22:24:41,40.0689095413313,-88.2096884164721,22.96588,,,729.40488324909,20.997376,4.3172942,3.4781497176,4.7804135388,26,10,23.693,730.38913524909,23.950132,4.3172942,3.4781497176,4.026492,-1.565858,0,336.4, -15.7, 0.2,0,0,1024,1024,1024,1024,0,0,0,0,0,0,0,87,,,,,,,7.984,96.8,729.40488324909,22.96588,14,Waypoint,
118100,2023-10-12 22:24:41,40.0689112485705,-88.2096893993992,22.96588,,,729.40488324909,20.997376,4.809421,4.158628742,5.4610566052,26,10,23.693,730.38913524909,23.950132,4.809421,4.158628742,4.47388,-1.789552,0,336.5, -15.6, 0.2,0,0,1024,1024,1024,1024,0,0,0,0,0,0,0,87,,,,,,,7.984,96.8,729.40488324909,22.96588,14,Waypoint,
118200,2023-10-12 22:24:41,40.0689132811299,-88.2096905555373,22.96588,,,729.40488324909,20.997376,5.6147194,4.96719176,6.269849282,26,10,23.6765,730.38913524909,23.950132,5.6147194,4.96719176,5.144962,-2.23694,0,336.6, -15.3, 0.2,0,0,1024,1024,1024,1024,0,0,0,0,0,0,0,87,,,,,,,8.242,96.8,729.40488324909,22.96588,14,Waypoint,
118300,2023-10-12 22:24:42,40.0689153966155,-88.2096917916899,22.96588,,,729.40488324909,20.997376,6.3081708,5.8126314196,7.1153545584,26,10,23.6765,730.38913524909,23.950132,6.3081708,5.8126314196,5.816044,-2.460634,0,336.6, -15, 0.2,0,0,1024,1024,1024,1024,0,0,0,0,0,0,0,87,,,,,,,8.242,96.8,729.40488324909,22.96588,14,Waypoint,
118400,2023-10-12 22:24:42,40.0689178782313,-88.2096931726618,22.96588,,,729.40488324909,20.997376,6.822667,6.7963912936,8.0994425164,26,10,23.6765,730.38913524909,23.950132,6.822667,6.7963912936,6.263432,-2.684328,0,336.7, -14.8, 0.1,0,0,1024,1024,1024,1024,0,0,0,0,0,0,0,87,,,,,,,8.242,96.8,729.40488324909,22.96588,14,Waypoint,
118500,2023-10-12 22:24:42,40.0689204360816,-88.2096945859033,22.96588,,,729.40488324909,20.997376,7.3147938,7.8092850268,9.1126643336,26,10,23.6765,730.38913524909,23.950132,7.3147938,7.8092850268,6.71082,-2.908022,0,336.7, -14.4, 0.1,0,0,1024,1024,1024,1024,0,0,0,0,0,0,0,87,,,,,,,8.242,96.8,729.40488324909,22.96588,14,Waypoint,
118600,2023-10-12 22:24:42,40.0689233145768,-88.2096962008816,22.96588,,,729.40488324909,20.997376,7.3147938,8.9520672156,10.2556105644,26,10,23.6765,730.38913524909,23.950132,7.3147938,8.9520672156,7.381902,-3.131716,0,336.8, -13.9, 0.1,0,0,1024,1024,1024,1024,0,0,0,0,0,0,0,87,,,,,,,8.242,96.8,729.40488324909,22.96588,14,Waypoint,
118700,2023-10-12 22:24:42,40.068926248092,-88.2096978077201,22.96588,,,729.40488324909,20.997376,8.5227414,10.1122706648,11.4161092892,26,10,23.6765,730.38913524909,23.950132,8.5227414,10.1122706648,7.82929,-3.35541,0,336.8, -13.1, 0.2,0,0,1024,1024,1024,1024,0,0,0,0,0,0,0,87,,,,,,,8.242,96.8,729.40488324909,22.96588,14,Waypoint,
118800,2023-10-12 22:24:42,40.0689295210756,-88.2096995916059,22.96588,,,729.40488324909,20.997376,8.5227414,11.40584026,12.70997416,26,10,23.6765,730.38913524909,23.950132,8.5227414,11.40584026,8.276678,-3.35541,0,336.9, -12.2, 0.4,0,0,1024,1024,1024,1024,0,0,0,0,0,0,0,87,,,,,,,8.242,96.8,729.40488324909,22.96588,14,Waypoint,
118900,2023-10-12 22:24:42,40.0689327848991,-88.2097013617254,22.96588,,,729.40488324909,20.997376,9.2161928,12.6948494876,13.9992786632,26,10,23.6765,730.38913524909,23.950132,9.2161928,12.6948494876,8.500372,-3.579104,0,336.9, -11.2, 0.4,0,0,1024,1024,1024,1024,0,0,0,0,0,0,0,87,,,,,,,8.242,96.8,729.40488324909,22.96588,14,Waypoint,
119000,2023-10-12 22:24:42,40.0689364187357,-88.2097033383537,22.96588,,,729.40488324909,20.997376,9.730689,14.1307091136,15.435367948,26,10,23.6765,730.38913524909,23.950132,9.730689,14.1307091136,8.94776,-3.802798,0,337, -10.1, 0.6,0,0,1024,1024,1024,1024,0,0,0,0,0,0,0,87,,,,,,,8.242,96.8,729.40488324909,22.96588,14,Waypoint,
119100,2023-10-12 22:24:42,40.0689399665236,-88.209705236992,22.96588,,,729.40488324909,20.997376,9.9320136,15.5291343552,16.8341212736,26,10,23.6765,730.38913524909,23.950132,9.9320136,15.5291343552,9.171454,-3.802798,0,337, -8.9, 0.5,0,0,1024,1024,1024,1024,0,0,0,0,0,0,0,87,,,,,,,8.242,96.8,729.40488324909,22.96588,14,Waypoint,
119200,2023-10-12 22:24:43,40.0689438300177,-88.2097072654769,22.96588,,,729.40488324909,20.997376,10.3346628,17.047736766,18.3532158104,26,10,23.6765,730.38913524909,23.950132,10.3346628,17.047736766,9.618842,-3.802798,0,337, -7.5, 0.3,0,0,1024,1024,1024,1024,0,0,0,0,0,0,0,87,,,,,,,8.242,96.8,729.40488324909,22.96588,14,Waypoint,
119300,2023-10-12 22:24:43,40.0689476943557,-88.2097092504129,22.96588,,,729.40488324909,20.997376,10.4241404,18.5619100428,19.8681436804,26,10,23.6765,730.38913524909,23.950132,10.4241404,18.5619100428,9.618842,-4.026492,0,337, -5.3, 0.2,0,0,1024,1024,1024,1024,0,0,0,0,0,0,0,87,,,,,,,8.242,96.8,729.40488324909,22.96588,14,Waypoint,
119400,2023-10-12 22:24:43,40.0689517134392,-88.2097113465373,22.96588,,,729.40488324909,20.997376,10.625465,20.1403221668,21.4469823136,26,10,23.6765,730.38913524909,23.950132,10.625465,20.1403221668,9.842536,-4.026492,0,337, -3, 0.1,0,0,1024,1024,1024,1024,0,0,0,0,0,0,0,87,,,,,,,8.242,96.8,729.40488324909,22.96588,14,Waypoint,
119500,2023-10-12 22:24:43,40.0689555565617,-88.2097133428859,22.96588,,,729.40488324909,20.997376,10.625465,21.648786782,22.955873438,26,10,23.6765,730.38913524909,23.950132,10.625465,21.648786782,9.842536,-4.026492,0,337, -0.8, 0,0,0,1024,1024,1024,1024,0,0,0,0,0,0,0,87,,,,,,,8.242,96.8,729.40488324909,22.96588,14,Waypoint,
119600,2023-10-12 22:24:43,40.0689596090256,-88.2097154397576,22.96588,,,729.40488324909,20.997376,10.625465,23.2386162292,24.546096586,26,10,23.6765,730.38913524909,23.950132,10.625465,23.2386162292,9.842536,-4.026492,0,337, 0.5, 0,0,0,1024,1024,1024,1024,0,0,0,0,0,0,0,87,,,,,,,8.242,96.8,729.40488324909,22.96588,14,Waypoint,
119700,2023-10-12 22:24:43,40.0689635354383,-88.2097174546162,22.96588,,,729.40488324909,19.028872,10.4241404,24.777231764,26.0851714384,26,10,23.6765,730.38913524909,23.950132,10.625465,24.777231764,9.618842,-4.026492,0,337.1, 1.4, -0.1,0,0,1024,1024,1024,1024,0,0,0,0,0,0,0,87,,,,,,,8.242,96.8,729.40488324909,22.96588,14,Waypoint,
119800,2023-10-12 22:24:43,40.0689675132858,-88.209719509965,22.96588,,,729.40488324909,19.028872,10.3346628,26.3375664596,27.6458014096,26,10,23.6765,730.38913524909,23.950132,10.625465,26.3375664596,9.618842,-3.802798,0,337.1, 2.2, -0.1,0,0,1024,1024,1024,1024,0,0,0,0,0,0,0,87,,,,,,,8.242,96.8,729.40488324909,22.96588,14,Waypoint,
119900,2023-10-12 22:24:43,40.0689712389496,-88.2097214285238,22.96588,,,729.40488324909,19.028872,10.1333382,27.7982948528,29.1068578868,26,10,23.6765,730.38913524909,23.950132,10.625465,27.7982948528,9.395148,-3.802798,0,337.1, 3.5, -0.3,0,0,1024,1024,1024,1024,0,0,0,0,0,0,0,87,,,,,,,8.242,96.8,729.40488324909,22.96588,14,Waypoint,
120000,2023-10-12 22:24:43,40.068975220468,-88.2097234680717,22.96588,,,729.40488324909,19.028872,9.9320136,29.3582358476,30.667159774,26,10,23.6765,730.38913524909,23.950132,10.625465,29.3582358476,9.171454,-3.802798,0,337.1, 4.7, -0.3,0,0,1024,1024,1024,1024,0,0,0,0,0,0,0,87,,,,,,,8.242,96.8,729.40488324909,22.96588,14,Waypoint,
120100,2023-10-12 22:24:43,40.0689787926155,-88.2097252983234,22.96588,,,729.40488324909,19.028872,9.6412114,30.757875,32.0670613936,26,10,23.6765,730.38913524909,23.950132,10.625465,30.757875,8.94776,-3.579104,0,337.1, 6.4, -0.3,0,0,1024,1024,1024,1024,0,0,0,0,0,0,0,87,,,,,,,8.242,96.8,729.40488324909,22.96588,14,Waypoint,
120200,2023-10-12 22:24:44,40.0689824453591,-88.209727160023,22.96588,,,729.40488324909,19.356956,9.2161928,32.1880259644,33.4973764,26,10,23.6765,730.38913524909,23.950132,10.625465,32.1880259644,8.500372,-3.579104,0,337.1, 8, -0.3,0,0,1024,1024,1024,1024,0,0,0,0,0,0,0,87,,,,,,,8.166,96.8,729.40488324909,22.96588,14,Waypoint,
120300,2023-10-12 22:24:44,40.0689857882518,-88.2097288520574,22.637796,,,729.07679924909,19.356956,8.9253906,33.49573598,34.805447308,26,10,23.6765,730.38913524909,23.950132,10.625465,33.49573598,8.276678,-3.35541,0,337.1, 9.5, -0.4,0,0,1024,1024,1024,1024,0,0,0,0,0,0,0,87,,,,,,,8.166,96.8,729.07679924909,22.637796,14,Waypoint,
120400,2023-10-12 22:24:44,40.0689892876077,-88.2097306120502,22.637796,,,729.07679924909,19.356956,8.4332638,34.863190092,36.173557588,26,10,23.6765,730.38913524909,23.950132,10.625465,34.863190092,7.82929,-3.131716,0,337.1, 10.6, -0.5,0,0,1024,1024,1024,1024,0,0,0,0,0,0,0,87,,,,,,,8.166,96.8,729.07679924909,22.637796,14,Waypoint,
120500,2023-10-12 22:24:44,40.0689923090159,-88.2097321195084,22.637796,,,729.07679924909,19.356956,7.941137,36.042980156,37.353347652,26,10,23.6765,730.38913524909,23.950132,10.625465,36.042980156,7.381902,-2.908022,0,337.1, 12.1, -0.7,0,0,1024,1024,1024,1024,0,0,0,0,0,0,0,87,,,,,,,8.166,96.8,729.07679924909,22.637796,14,Waypoint,
120600,2023-10-12 22:24:44,40.0689952632351,-88.2097335979872,22.637796,,,729.07679924909,19.356956,7.2253162,37.196851584,38.507547164,26,10,23.6765,730.38913524909,23.950132,10.625465,37.196851584,6.71082,-2.684328,0,337.1, 13.4, -0.8,0,0,1024,1024,1024,1024,0,0,0,0,0,0,0,87,,,,,,,8.166,96.8,729.07679924909,22.637796,14,Waypoint,
120700,2023-10-12 22:24:44,40.0689979672622,-88.2097349789403,22.637796,,,729.07679924909,19.356956,6.7331894,38.255906736,39.5669304,26,10,23.6765,730.38913524909,23.950132,10.625465,38.255906736,6.263432,-2.460634,0,337.1, 14.8, -0.9,0,0,1024,1024,1024,1024,0,0,0,0,0,0,0,87,,,,,,,8.166,96.8,729.07679924909,22.637796,14,Waypoint,
120800,2023-10-12 22:24:44,40.0690004685315,-88.2097362291651,22.637796,,,729.07679924909,19.356956,6.0173686,39.232612804,40.543964552,26,10,23.6765,730.38913524909,23.950132,10.625465,39.232612804,5.59235,-2.23694,0,337.1, 16.1, -1,0,0,1024,1024,1024,1024,0,0,0,0,0,0,0,87,,,,,,,8.166,96.8,729.07679924909,22.637796,14,Waypoint,
120900,2023-10-12 22:24:44,40.0690026057309,-88.209737296395,22.637796,,,729.07679924909,19.68504,5.3239172,40.0672585,41.378610248,26,10,23.6765,730.38913524909,23.950132,10.625465,40.0672585,4.921268,-2.013246,0,337.1, 17.1, -1.2,0,0,1024,1024,1024,1024,0,0,0,0,0,0,0,87,,,,,,,8.166,96.8,729.07679924909,22.637796,14,Waypoint,
121000,2023-10-12 22:24:44,40.0690045588308,-88.2097382817826,22.637796,,,729.07679924909,19.68504,4.6080964,40.831038052,42.142717884,26,10,23.6765,730.38913524909,23.950132,10.625465,40.831038052,4.250186,-1.789552,0,337.1, 17.4, -1.1,0,0,1024,1024,1024,1024,0,0,0,0,0,0,0,87,,,,,,,8.166,96.8,729.07679924909,22.637796,14,Waypoint,
121100,2023-10-12 22:24:44,40.0690062392423,-88.2097391527466,22.637796,,,729.07679924909,19.68504,3.914645,41.490486892,42.802166724,26,10,23.6765,730.38913524909,23.950132,10.625465,41.490486892,3.579104,-1.565858,0,337, 17.4, -0.9,0,0,1024,1024,1024,1024,0,0,0,0,0,0,0,87,,,,,,,8.166,96.8,729.07679924909,22.637796,14,Waypoint,
121200,2023-10-12 22:24:45,40.0690074192356,-88.2097397580785,22.637796,,,729.07679924909,19.68504,3.1093466,41.953085332,43.264765164,26,10,23.6405,730.38913524909,23.950132,10.625465,41.953085332,2.908022,-1.11847,0,337, 17.1, -0.6,0,0,1024,1024,1024,1024,0,0,0,0,0,0,0,87,,,,,,,8.5,96.8,729.07679924909,22.637796,14,Waypoint,
121300,2023-10-12 22:24:45,40.0690083846232,-88.2097402524011,22.637796,,,729.07679924909,19.68504,2.4158952,42.331366184,43.643046016,26,10,23.6405,730.38913524909,23.950132,10.625465,42.331366184,2.23694,-0.894776,0,337.1, 16.3, -0.4,0,0,1024,1024,1024,1024,0,0,0,0,0,0,0,87,,,,,,,8.5,96.8,729.07679924909,22.637796,14,Waypoint,
121400,2023-10-12 22:24:45,40.0690092979591,-88.2097407190959,22.637796,,,729.07679924909,19.68504,1.7000744,42.688977744,44.000657576,26,10,23.6405,730.38913524909,23.950132,10.625465,42.688977744,1.565858,-0.671082,0,337, 15.4, -0.3,0,0,1024,1024,1024,1024,0,0,0,0,0,0,0,87,,,,,,,8.5,96.8,729.07679924909,22.637796,14,Waypoint,
121500,2023-10-12 22:24:45,40.0690100131974,-88.2097410518721,22.637796,,,729.07679924909,20.013124,1.2079476,42.96588064,44.277888556,26,10,23.6405,730.38913524909,23.950132,10.625465,42.96588064,1.11847,-0.447388,0,337, 13.6, -0.4,0,0,1024,1024,1024,1024,0,0,0,0,0,0,0,87,,,,,,,8.5,96.8,729.07679924909,22.637796,14,Waypoint,
121600,2023-10-12 22:24:45,40.0690105594908,-88.2097413060187,22.637796,,,729.07679924909,20.013124,0.7158208,43.177166736,44.489502736,26,10,23.6405,730.38913524909,23.950132,10.625465,43.177166736,0.671082,-0.223694,0,336.9, 12.2, -0.6,0,0,1024,1024,1024,1024,0,0,0,0,0,0,0,87,,,,,,,8.5,96.8,729.07679924909,22.637796,14,Waypoint,
121700,2023-10-12 22:24:45,40.0690109275186,-88.2097414691436,22.637796,,,729.07679924909,20.013124,0.3131716,43.31857094,44.631235024,26,10,23.6405,730.38913524909,23.950132,10.625465,43.31857094,0.223694,-0.223694,0,336.8, 11.1, -0.7,0,0,1024,1024,1024,1024,0,0,0,0,0,0,0,87,,,,,,,8.5,96.8,729.07679924909,22.637796,14,Waypoint,
121800,2023-10-12 22:24:45,40.0690111827137,-88.2097416538401,22.637796,,,729.07679924909,20.013124,0,43.424213988,44.73753424,26,10,23.6405,730.38913524909,23.950132,10.625465,43.424213988,0,0,0,336.8, 10.2, -0.6,0,0,1024,1024,1024,1024,0,0,0,0,0,0,0,87,,,,,,,8.5,96.8,729.07679924909,22.637796,14,Waypoint,
121900,2023-10-12 22:24:45,40.0690112680643,-88.2097416875857,22.637796,,,729.07679924909,20.013124,0.223694,43.456694304,44.770014556,26,10,23.6405,730.38913524909,23.950132,10.625465,43.456694304,-0.223694,0,0.223694,336.8, 9.1, -0.4,0,0,1024,1024,1024,1024,0,0,0,0,0,0,0,87,,,,,,,8.5,96.8,729.07679924909,22.637796,14,Waypoint,
122000,2023-10-12 22:24:45,40.0690112301393,-88.2097416648219,22.637796,,,729.07679924909,20.013124,0.447388,43.44160244,44.785434504,26,10,23.6405,730.38913524909,23.950132,10.625465,43.456694304,-0.447388,0,0.447388,336.8, 8.1, -0.5,0,0,1024,1024,1024,1024,0,0,0,0,0,0,0,87,,,,,,,8.5,96.8,729.07679924909,22.637796,14,Waypoint,
122100,2023-10-12 22:24:45,40.0690110186605,-88.2097416444201,22.309712,,,728.74871524909,19.68504,0.7158208,43.36778354,44.862862328,26,10,23.6405,730.38913524909,23.950132,10.625465,43.456694304,-0.671082,0.223694,0.671082,336.8, 7.2, -0.6,0,0,1024,1024,1024,1024,0,0,0,0,0,0,0,87,,,,,,,8.5,96.8,728.74871524909,22.309712,14,Waypoint,
122200,2023-10-12 22:24:46,40.0690107791341,-88.2097415374016,22.309712,,,728.74871524909,19.68504,0.9171454,43.275591936,44.955053932,26,10,23.6405,730.38913524909,23.950132,10.625465,43.456694304,-0.894776,0.223694,0.894776,336.8, 6.4, -0.5,0,0,1024,1024,1024,1024,0,0,0,0,0,0,0,87,,,,,,,8.5,96.8,728.74871524909,22.309712,14,Waypoint,
122300,2023-10-12 22:24:46,40.0690104897835,-88.2097414130598,21.981628,,,728.42063124909,19.356956,0.9171454,43.164699544,45.066274408,26,10,23.703,730.38913524909,23.950132,10.625465,43.456694304,-0.894776,0.223694,1.342164,336.7, 5.5, -0.4,0,0,1024,1024,1024,1024,0,0,0,0,0,0,0,87,,,,,,,6.408,96.8,728.42063124909,21.981628,14,Waypoint,
122400,2023-10-12 22:24:46,40.0690101073722,-88.2097412682882,21.981628,,,728.42063124909,19.356956,1.1408394,43.020342584,45.21161562,26,10,23.703,730.38913524909,23.950132,10.625465,43.456694304,-1.11847,0.223694,1.565858,336.6, 4.7, -0.2,0,0,1024,1024,1024,1024,0,0,0,0,0,0,0,87,,,,,,,6.408,96.8,728.42063124909,21.981628,14,Waypoint,
122500,2023-10-12 22:24:46,40.0690096141843,-88.2097411245408,21.653544,,,728.09254724909,19.028872,1.1408394,42.838584048,45.395670744,26,10,23.703,730.38913524909,23.950132,10.625465,43.456694304,-1.11847,0.223694,1.565858,336.6, 3.8, -0.2,0,0,1024,1024,1024,1024,0,0,0,0,0,0,0,87,,,,,,,6.408,96.8,728.09254724909,21.653544,14,Waypoint,
122600,2023-10-12 22:24:46,40.0690091431414,-88.209740919269,21.32546,,,727.76446324909,19.028872,1.1408394,42.657809764,45.577101196,26,10,23.703,730.38913524909,23.950132,10.625465,43.456694304,-1.11847,0.447388,1.789552,336.4, 3.1, -0.3,0,0,1024,1024,1024,1024,0,0,0,0,0,0,0,87,,,,,,,6.408,96.8,727.76446324909,21.32546,14,Waypoint,
122700,2023-10-12 22:24:46,40.069008670625,-88.2097407207978,20.997376,,,727.43637924909,18.700788,1.2079476,42.477363564,45.758203564,26,10,23.703,730.38913524909,23.950132,10.625465,43.456694304,-1.11847,0.447388,1.789552,336.4, 2.8, -0.4,0,0,1024,1024,1024,1024,0,0,0,0,0,0,0,87,,,,,,,6.408,96.8,727.43637924909,20.997376,14,Waypoint,
122800,2023-10-12 22:24:46,40.0690079957191,-88.2097404923592,20.669292,,,727.10829524909,18.372704,1.2079476,42.225395052,46.012468664,26,10,23.703,730.38913524909,23.950132,10.625465,43.456694304,-1.342164,0.447388,1.789552,336.2, 2.4, -0.3,0,0,1024,1024,1024,1024,0,0,0,0,0,0,0,87,,,,,,,6.408,96.8,727.10829524909,20.669292,14,Waypoint,
122900,2023-10-12 22:24:46,40.0690074758714,-88.2097402756243,20.341208,,,726.78021124909,18.04462,1.4092722,42.026904232,46.211615652,26,10,23.703,730.38913524909,23.950132,10.625465,43.456694304,-1.342164,0.447388,1.789552,336.1, 1.8, -0.2,0,0,1024,1024,1024,1024,0,0,0,0,0,0,0,87,,,,,,,6.408,96.8,726.78021124909,20.341208,14,Waypoint,
123000,2023-10-12 22:24:46,40.0690069339129,-88.2097400406929,20.341208,,,726.78021124909,17.716536,1.4092722,41.818898976,46.419948992,26,10,23.703,730.38913524909,23.950132,10.625465,43.456694304,-1.342164,0.447388,1.789552,336, 1.5, 0,0,0,1024,1024,1024,1024,0,0,0,0,0,0,0,87,,,,,,,6.408,96.8,726.78021124909,20.341208,14,Waypoint,
123100,2023-10-12 22:24:46,40.0690064177832,-88.209739811549,20.013124,,,726.45212724909,17.388452,1.2079476,41.620408156,46.618767896,26,10,23.703,730.38913524909,23.950132,10.625465,43.456694304,-1.11847,0.447388,1.565858,336, 1.5, 0.1,0,0,1024,1024,1024,1024,0,0,0,0,0,0,0,87,,,,,,,6.408,96.8,726.45212724909,20.013124,14,Waypoint,
123200,2023-10-12 22:24:46,40.0690057446763,-88.2097394969638,19.68504,,,726.12404324909,17.060368,1.2079476,41.35990946,46.879594676,26,10,23.703,730.38913524909,23.950132,10.625465,43.456694304,-1.11847,0.447388,1.342164,335.9, 1.4, 0,0,0,1024,1024,1024,1024,0,0,0,0,0,0,0,87,,,,,,,6.408,96.8,726.12404324909,19.68504,14,Waypoint,
123300,2023-10-12 22:24:47,40.069005221102,-88.2097392493436,19.356956,,,725.79595924909,17.060368,1.2079476,41.157153548,47.082678672,26,10,23.703,730.38913524909,23.950132,10.625465,43.456694304,-1.11847,0.447388,1.11847,335.9, 1.2, 0,0,0,1024,1024,1024,1024,0,0,0,0,0,0,0,87,,,,,,,6.408,96.8,725.79595924909,19.356956,14,Waypoint,
123400,2023-10-12 22:24:47,40.0690046913083,-88.2097390159011,19.356956,,,725.79595924909,16.732284,1.2079476,40.953413384,47.28674692,26,10,23.703,730.38913524909,23.950132,10.625465,43.456694304,-1.11847,0.447388,0.671082,336, 1.2, 0.2,0,0,1024,1024,1024,1024,0,0,0,0,0,0,0,87,,,,,,,6.408,96.8,725.79595924909,19.356956,14,Waypoint,
123500,2023-10-12 22:24:47,40.069004146617,-88.209738794,19.356956,,,725.79595924909,16.732284,1.2079476,40.746064296,47.494752176,26,10,23.703,730.38913524909,23.950132,10.625465,43.456694304,-1.11847,0.447388,0.447388,336, 1.3, 0.1,0,0,1024,1024,1024,1024,0,0,0,0,0,0,0,87,,,,,,,6.408,96.8,725.79595924909,19.356956,14,Waypoint,
123600,2023-10-12 22:24:47,40.0690036552366,-88.2097385444767,19.028872,,,725.46787524909,16.732284,1.2079476,40.553807072,47.687337484,26,10,23.703,730.38913524909,23.950132,10.625465,43.456694304,-1.11847,0.447388,0.223694,336.2, 1.1, -0.1,0,0,1024,1024,1024,1024,0,0,0,0,0,0,0,87,,,,,,,6.408,96.8,725.46787524909,19.028872,14,Waypoint,
123700,2023-10-12 22:24:47,40.0690031922122,-88.2097383123103,19.028872,,,725.46787524909,17.060368,1.1408394,40.373032788,47.868111768,26,10,23.703,730.38913524909,23.950132,10.625465,43.456694304,-1.11847,0.223694,0,333.1, 1.7, 0.4,0,0,1024,1024,1024,1024,0,0,0,0,0,0,0,87,,,,,,,6.408,96.8,725.46787524909,19.028872,14,Waypoint,
123800,2023-10-12 22:24:47,40.0690026841181,-88.2097380770879,19.028872,,,725.46787524909,17.060368,1.2079476,40.176510472,48.064962168,26,10,23.703,730.38913524909,23.950132,10.625465,43.456694304,-1.11847,0.447388,0,325.5, 1.4, 1.7,0,0,1024,1024,1024,1024,0,0,0,0,0,0,0,87,,,,,,,6.408,96.8,725.46787524909,19.028872,14,Waypoint,
123900,2023-10-12 22:24:47,40.069002213315,-88.2097377989237,19.028872,,,725.46787524909,17.388452,1.006623,39.988190256,48.253282384,26,10,23.703,730.38913524909,23.950132,10.625465,43.456694304,-0.894776,0.447388,0,317.3, 0.9, 1.6,0,0,1024,1024,1024,1024,0,0,0,0,0,0,0,87,,,,,,,6.408,96.8,725.46787524909,19.028872,14,Waypoint,
124000,2023-10-12 22:24:47,40.0690017876587,-88.2097374804429,19.028872,,,725.46787524909,17.388452,1.006623,39.810696812,48.432416248,26,10,23.703,730.38913524909,23.950132,10.625465,43.456694304,-0.894776,0.447388,0,308.8, 0.1, 0.5,0,0,1024,1024,1024,1024,0,0,0,0,0,0,0,87,,,,,,,6.408,96.8,725.46787524909,19.028872,14,Waypoint,
124100,2023-10-12 22:24:47,40.0690014137971,-88.2097371739625,19.028872,,,725.46787524909,17.716536,1.006623,39.651904156,48.593177408,26,10,23.703,730.38913524909,23.950132,10.625465,43.456694304,-0.671082,0.447388,0,300.5, 0, -0.3,0,0,1024,1024,1024,1024,0,0,0,0,0,0,0,87,,,,,,,6.408,96.8,725.46787524909,19.028872,14,Waypoint,
124200,2023-10-12 22:24:48,40.0690009184074,-88.2097369318107,19.028872,,,725.46787524909,17.716536,0.8052984,39.458990764,48.786418884,26,10,23.652,730.38913524909,23.950132,10.625465,43.456694304,-0.671082,0.447388,0,291.9, 0, -0.9,0,0,1024,1024,1024,1024,0,0,0,0,0,0,0,87,,,,,,,8.576,96.8,725.46787524909,19.028872,14,Waypoint,
124300,2023-10-12 22:24:48,40.0690005537207,-88.2097366762592,19.356956,,,725.79595924909,17.716536,0.8052984,39.308728292,48.937337524,26,10,23.652,730.38913524909,23.950132,10.625465,43.456694304,-0.447388,0.447388,0,283.3, 0.1, -1,0,0,1024,1024,1024,1024,0,0,0,0,0,0,0,87,,,,,,,8.576,96.8,725.79595924909,19.356956,14,Waypoint,
124400,2023-10-12 22:24:48,40.0690002689875,-88.2097363796523,19.356956,,,725.79595924909,17.716536,0.6263432,39.1814317,49.070211544,26,10,23.652,730.38913524909,23.950132,10.625465,43.456694304,-0.447388,0.447388,0,274.5, 0.3, -1,0,0,1024,1024,1024,1024,0,0,0,0,0,0,0,87,,,,,,,8.576,96.8,725.79595924909,19.356956,14,Waypoint,
124500,2023-10-12 22:24:48,40.0690000441959,-88.2097360944076,19.356956,,,725.79595924909,17.716536,0.4921268,39.075132484,49.184384776,26,10,23.652,730.38913524909,23.950132,10.625465,43.456694304,-0.223694,0.447388,0,265.6, 0.4, -1.3,0,0,1024,1024,1024,1024,0,0,0,0,0,0,0,87,,,,,,,8.576,96.8,725.79595924909,19.356956,14,Waypoint,
124600,2023-10-12 22:24:48,40.0689998865591,-88.2097357377315,19.356956,,,725.79595924909,17.716536,0.4921268,38.984253216,49.29954226,26,10,23.652,730.38913524909,23.950132,10.625465,43.456694304,-0.223694,0.447388,0,256.8, 0, -1.9,0,0,1024,1024,1024,1024,0,0,0,0,0,0,0,87,,,,,,,8.576,96.8,725.79595924909,19.356956,14,Waypoint,
124700,2023-10-12 22:24:48,40.0689997622298,-88.2097354367867,19.356956,,,725.79595924909,17.716536,0.447388,38.9107624,49.395014704,26,10,23.652,730.38913524909,23.950132,10.625465,43.456694304,0,0.447388,0,248, -0.6, -2.5,0,0,1024,1024,1024,1024,0,0,0,0,0,0,0,87,,,,,,,8.576,96.8,725.79595924909,19.356956,14,Waypoint,
124800,2023-10-12 22:24:48,40.0689996783184,-88.2097351134754,19.356956,,,725.79595924909,18.04462,0.447388,38.84842644,49.490159064,26,10,23.652,730.38913524909,23.950132,10.625465,43.456694304,0,0.447388,0,239.2, -1.3, -2.4,0,0,1024,1024,1024,1024,0,0,0,0,0,0,0,87,,,,,,,8.576,96.8,725.79595924909,19.356956,14,Waypoint,
124900,2023-10-12 22:24:48,40.0689997023224,-88.2097347740499,19.356956,,,725.79595924909,18.04462,0.447388,38.821195468,49.585303424,26,10,23.652,730.38913524909,23.950132,10.625465,43.456694304,0,0.447388,0,230.3, -1.7, -1.6,0,0,1024,1024,1024,1024,0,0,0,0,0,0,0,87,,,,,,,8.576,96.8,725.79595924909,19.356956,14,Waypoint,
125000,2023-10-12 22:24:48,40.0689996852318,-88.2097344981749,19.356956,,,725.79595924909,18.04462,0.223694,38.786746648,49.662731248,26,10,23.652,730.38913524909,23.950132,10.625465,43.456694304,0,0.223694,0,221.4, -2, -1.3,0,0,1024,1024,1024,1024,0,0,0,0,0,0,0,87,,,,,,,8.576,96.8,725.79595924909,19.356956,14,Waypoint,
125100,2023-10-12 22:24:48,40.0689996927962,-88.2097342712307,19.356956,,,725.79595924909,18.04462,0.223694,38.766077356,49.72605146,26,10,23.652,730.38913524909,23.950132,10.625465,43.456694304,0,0.223694,0,212.6, -2.3, -1.2,0,0,1024,1024,1024,1024,0,0,0,0,0,0,0,87,,,,,,,8.576,96.8,725.79595924909,19.356956,14,Waypoint,
125200,2023-10-12 22:24:48,40.0689997261551,-88.2097340770302,19.356956,,,725.79595924909,18.04462,0.223694,38.757547172,49.78182574,26,10,23.652,730.38913524909,23.950132,10.625465,43.456694304,0,0.223694,0,203.7, -2.6, -1.1,0,0,1024,1024,1024,1024,0,0,0,0,0,0,0,87,,,,,,,8.576,96.8,725.79595924909,19.356956,14,Waypoint,
