time(millisecond),datetime(utc),latitude,longitude,height_above_takeoff(feet),height_above_ground_at_drone_location(feet),ground_elevation_at_drone_location(feet),altitude_above_seaLevel(feet),height_sonar(feet),speed(mph),distance(feet),mileage(feet),satellites,gpslevel,voltage(v),max_altitude(feet),max_ascent(feet),max_speed(mph),max_distance(feet), xSpeed(mph), ySpeed(mph), zSpeed(mph), compass_heading(degrees), pitch(degrees), roll(degrees),isPhoto,isVideo,rc_elevator,rc_aileron,rc_throttle,rc_rudder,rc_elevator(percent),rc_aileron(percent),rc_throttle(percent),rc_rudder(percent),gimbal_heading(degrees),gimbal_pitch(degrees),gimbal_roll(degrees),battery_percent,voltageCell1,voltageCell2,voltageCell3,voltageCell4,voltageCell5,voltageCell6,current(A),battery_temperature(f),altitude(feet),ascent(feet),flycStateRaw,flycState,message
415300,2023-10-12 21:49:28,40.068894154754,-88.2096942916114,0,Available with any HD 360 subscription,Available with any HD 360 subscription,706.38288415281,0.656168,0,0,0,26,10,21.2345,706.38288415281,0,0,0,0,0,0,3.6, -1.1, -1.3,0,0,1024,1024,1024,1024,0,0,0,0,0,0,0,40,,,,,,,0.225,109.76,706.38288415281,0,41,Motors_Started,"GEO: You are in a Warning Zone (Airport). Fly with caution."
415400,2023-10-12 21:49:29,40.0688941465371,-88.2096942884238,0,,,706.38288415281,0.656168,0,0.00312726059876,0.00312726059876,26,10,21.2345,706.38288415281,0,0,0.00312726059876,0,0,0,3.6, -1.1, -1.3,0,0,1024,1024,1024,1024,0,0,0,0,0,0,0,40,,,,,,,0.225,109.76,706.38288415281,0,41,Motors_Started,
415500,2023-10-12 21:49:29,40.0688941420006,-88.2096942849171,0,,,706.38288415281,0.656168,0,0.005014435856,0.0050502954372,26,10,21.2345,706.38288415281,0,0,0.005014435856,0,0,0,3.6, -1.1, -1.3,0,0,1024,1024,1024,1024,0,0,0,0,0,0,0,40,,,,,,,0.225,109.76,706.38288415281,0,41,Motors_Started,
415600,2023-10-12 21:49:29,40.0688941442836,-88.2096942818359,0,,,706.38288415281,0.656168,0,0.0046950132736,0.0062477692288,26,10,21.2345,706.38288415281,0,0,0.005014435856,0,0,0,3.6, -1.1, -1.3,0,0,1024,1024,1024,1024,0,0,0,0,0,0,0,40,,,,,,,0.225,109.76,706.38288415281,0,41,Motors_Started,
415700,2023-10-12 21:49:29,40.0688941442846,-88.2096942821018,0,,,706.38288415281,0.656168,0,0.0046519358444,0.006322014638,26,10,21.2345,706.38288415281,0,0,0.005014435856,0,0,0,3.6, -1.1, -1.3,0,0,1024,1024,1024,1024,0,0,0,0,0,0,0,40,,,,,,,0.225,109.76,706.38288415281,0,41,Motors_Started,
415800,2023-10-12 21:49:29,40.0688941439874,-88.20969428321,0,,,706.38288415281,0.656168,0,0.0045752626136,0.0066499017876,26,10,21.2345,706.38288415281,0,0,0.005014435856,0,0,0,3.6, -1.1, -1.3,0,0,1024,1024,1024,1024,0,0,0,0,0,0,0,40,,,,,,,0.225,109.76,706.38288415281,0,41,Motors_Started,
415900,2023-10-12 21:49:29,40.0688941713945,-88.2096942809375,0,,,706.38288415281,0.656168,0,0.006763287618,0.016669455914,26,10,21.2345,706.38288415281,0,0,0.006763287618,0,0,0,3.6, -1.1, -1.3,0,0,1024,1024,1024,1024,0,0,0,0,0,0,0,40,,,,,,,0.225,109.76,706.38288415281,0,41,Motors_Started,
416000,2023-10-12 21:49:29,40.06889417486,-88.2096942803023,0,,,706.38288415281,0.656168,0,0.00798638477,0.0179462276084,26,10,21.2345,706.38288415281,0,0,0.00798638477,0,0,0,3.6, -1.2, -1.3,0,0,1024,1024,1024,1024,0,0,0,0,0,0,0,40,,,,,,,0.225,109.76,706.38288415281,0,41,Motors_Started,
416100,2023-10-12 21:49:29,40.0688941725453,-88.2096942750605,0,,,706.38288415281,0.656168,0,0.0079680448744,0.019635991442,26,10,21.2345,706.38288415281,0,0,0.00798638477,0,0,0,3.7, -1.1, -1.3,0,0,1024,1024,1024,1024,0,0,0,0,0,0,0,40,,,,,,,0.225,109.76,706.38288415281,0,41,Motors_Started,
416200,2023-10-12 21:49:29,40.0688941718024,-88.2096942691974,0,,,706.38288415281,0.656168,0,0.0088235239044,0.021295276272,26,10,21.2345,706.38288415281,0,0,0.0088235239044,0,0,0,3.7, -1.1, -1.3,0,0,1024,1024,1024,1024,0,0,0,0,0,0,0,40,,,,,,,0.225,109.76,706.38288415281,0,41,Motors_Started,"Setting new Return-To-Home altitude to 100m (328 ft). Data Recorder File Index is 46. Setting new Maximum Flight Altitude to 120m (394 ft)"
416300,2023-10-12 21:49:30,40.0688941858207,-88.2096942723039,0,,,706.38288415281,0.656168,0,0.0113841539076,0.0264828748632,26,10,21.173,706.38288415281,0,0,0.0113841539076,0,0,0,3.8, -1, -1.3,0,0,1024,1024,1024,1024,0,0,0,0,0,0,0,40,,,,,,,3.379,109.76,706.38288415281,0,41,Motors_Started,
416400,2023-10-12 21:49:30,40.0688941895758,-88.2096942748618,0,,,706.38288415281,0.656168,0,0.01225229698,0.028027888036,26,10,21.173,706.38288415281,0,0,0.01225229698,0,0,0,3.7, -1.1, -1.4,0,0,1024,1024,1024,1024,0,0,0,0,0,0,0,40,,,,,,,3.379,109.76,706.38288415281,0,41,Motors_Started,
416500,2023-10-12 21:49:30,40.0688941731104,-88.2096942739606,0,,,706.38288415281,0.656168,0,0.007465879504,0.034040683504,26,10,21.173,706.38288415281,0,0,0.01225229698,0,0,0,3.6, -1.1, -1.3,0,0,1024,1024,1024,1024,0,0,0,0,0,0,0,40,,,,,,,3.379,109.76,706.38288415281,0,41,Motors_Started,
416600,2023-10-12 21:49:30,40.0688941605799,-88.209694274081,0,,,706.38288415281,0.656168,0,0.005464895188,0.038612534044,26,10,21.173,706.38288415281,0,0,0.01225229698,0,0,0,3.7, -1.2, -1.3,0,0,1024,1024,1024,1024,0,0,0,0,0,0,0,40,,,,,,,3.379,109.76,706.38288415281,0,41,Motors_Started,
416700,2023-10-12 21:49:30,40.0688941410441,-88.2096942709605,0,,,706.38288415281,0.656168,0,0.00915026276,0.045792980468,26,10,21.173,706.38288415281,0,0,0.01225229698,0,0,0,3.7, -1.1, -1.3,0,0,1024,1024,1024,1024,0,0,0,0,0,0,0,40,,,,,,,3.379,109.76,706.38288415281,0,41,Motors_Started,
416800,2023-10-12 21:49:30,40.0688941233482,-88.2096942695976,0,,,706.38288415281,0.656168,0,0.01469324194,0.05226050036,26,10,21.173,706.38288415281,0,0,0.01469324194,0,0,0,3.7, -1.2, -1.3,0,0,1024,1024,1024,1024,0,0,0,0,0,0,0,40,,,,,,,3.379,109.76,706.38288415281,0,41,Motors_Started,
416900,2023-10-12 21:49:30,40.0688941138015,-88.209694267994,0,,,706.38288415281,0.656168,0,0.0180371068764,0.055772311496,26,10,21.173,706.38288415281,0,0,0.0180371068764,0,0,0,3.7, -1.1, -1.3,0,0,1024,1024,1024,1024,0,0,0,0,0,0,0,40,,,,,,,3.379,109.76,706.38288415281,0,41,Motors_Started,
417000,2023-10-12 21:49:30,40.0688941050004,-88.2096942700958,0,,,706.38288415281,0.656168,0,0.0208322185144,0.059036747296,26,10,21.173,706.38288415281,0,0,0.0208322185144,0,0,0,3.7, -1.2, -1.3,0,0,1024,1024,1024,1024,0,0,0,0,0,0,0,40,,,,,,,3.379,109.76,706.38288415281,0,41,Motors_Started,
417100,2023-10-12 21:49:30,40.0688941079913,-88.2096942633651,0,,,706.38288415281,0.656168,0,0.020498360236,0.061209647628,26,10,21.173,706.38288415281,0,0,0.0208322185144,0,0,0,3.7, -1.2, -1.3,0,0,1024,1024,1024,1024,0,0,0,0,0,0,0,40,,,,,,,3.379,109.76,706.38288415281,0,41,Motors_Started,
417200,2023-10-12 21:49:30,40.0688941076812,-88.2096942543341,0,,,706.38288415281,0.656168,0,0.021755742166,0.063733925924,26,10,21.173,706.38288415281,0,0,0.021755742166,0,0,0,3.7, -1.1, -1.3,0,0,1024,1024,1024,1024,0,0,0,0,0,0,0,40,,,,,,,3.379,109.76,706.38288415281,0,41,Motors_Started,
417300,2023-10-12 21:49:31,40.0688941274049,-88.209694232866,0,,,706.38288415281,0.656168,0,0.0205386489512,0.073099411788,26,10,21.173,706.38288415281,0,0,0.021755742166,0,0,0,3.7, -1, -1.3,0,0,1024,1024,1024,1024,0,0,0,0,0,0,0,40,,,,,,,3.379,109.76,706.38288415281,0,11,AutoTakeoff,
417400,2023-10-12 21:49:31,40.0688941243279,-88.2096942138047,0,,,706.38288415281,0.656168,0,0.025649114994,0.078538716424,26,10,21.173,706.38288415281,0,0,0.025649114994,0,0,0,3.7, -1.1, -1.2,0,0,1024,1024,1024,1024,0,0,0,0,0,0,0,40,,,,,,,3.379,109.76,706.38288415281,0,11,AutoTakeoff,
417500,2023-10-12 21:49:31,40.0688941247669,-88.2096942005393,0,,,706.38288415281,0.656168,0,0.0288534458052,0.08224573754,26,10,21.173,706.38288415281,0,0,0.0288534458052,0,0,0,3.6, -0.9, -1.1,0,0,1024,1024,1024,1024,0,0,0,0,0,0,0,40,,,,,,,3.379,109.76,706.38288415281,0,11,AutoTakeoff,
417600,2023-10-12 21:49:31,40.0688941239828,-88.2096941869102,0,,,706.38288415281,0.656168,0,0.0324339905392,0.086062010628,26,10,21.173,706.38288415281,0,0,0.0324339905392,0,0,0,3.6, -0.8, -1.1,0,0,1024,1024,1024,1024,0,0,0,0,0,0,0,40,,,,,,,3.379,109.76,706.38288415281,0,11,AutoTakeoff,
417700,2023-10-12 21:49:31,40.0688941516814,-88.2096941797345,0,,,706.38288415281,0.656168,0,0.0319021007584,0.096364504396,26,10,21.173,706.38288415281,0,0,0.0324339905392,0,0,0,3.6, -0.9, -1.1,0,0,1024,1024,1024,1024,0,0,0,0,0,0,0,40,,,,,,,3.379,109.76,706.38288415281,0,11,AutoTakeoff,
417800,2023-10-12 21:49:31,40.0688941520031,-88.2096941649216,0,,,706.38288415281,0.656168,0,0.036015749184,0.10050197172,26,10,21.173,706.38288415281,0,0,0.036015749184,0,0,0,3.6, -0.8, -1,0,0,1024,1024,1024,1024,0,0,0,0,0,0,0,40,,,,,,,3.379,109.76,706.38288415281,0,11,AutoTakeoff,
417900,2023-10-12 21:49:31,40.0688941485137,-88.2096941686521,0,,,706.38288415281,0.656168,0,0.035095473564,0.102146984896,26,10,21.173,706.38288415281,0,0,0.036015749184,0,0,0,3.6, -0.7, -0.9,0,0,1024,1024,1024,1024,0,0,0,0,0,0,0,40,,,,,,,3.379,109.76,706.38288415281,0,11,AutoTakeoff,
418000,2023-10-12 21:49:31,40.0688941590844,-88.2096942018407,0,,,706.38288415281,0.656168,0,0.0256117790348,0.112184058708,26,10,21.173,706.38288415281,0,0,0.036015749184,0,0,0,3.6, -0.6, -0.9,0,0,1024,1024,1024,1024,0,0,0,0,0,0,0,40,,,,,,,3.379,109.76,706.38288415281,0,11,AutoTakeoff,
418100,2023-10-12 21:49:31,40.0688941521304,-88.2096942065563,0,,,706.38288415281,0.656168,0,0.02443159527,0.1150426546,26,10,21.173,706.38288415281,0,0,0.036015749184,0,0,0,3.5, -0.6, -0.8,0,0,1024,1024,1024,1024,0,0,0,0,0,0,0,40,,,,,,,3.379,109.76,706.38288415281,0,11,AutoTakeoff,
418200,2023-10-12 21:49:31,40.0688941436512,-88.2096942163178,0,,,706.38288415281,0.656168,0,0.0223030518948,0.119165358144,26,10,21.173,706.38288415281,0,0,0.036015749184,0,0,0,3.4, -0.3, -0.7,0,0,1024,1024,1024,1024,0,0,0,0,0,0,0,40,,,,,,,3.379,109.76,706.38288415281,0,11,AutoTakeoff,
418300,2023-10-12 21:49:31,40.068894135165,-88.2096942416116,0,,,706.38288415281,0.656168,0,0.0169515425372,0.12687664448,26,10,21.203,706.38288415281,0,0,0.036015749184,0,0,0,3.2, 0.8, -0.6,0,0,1024,1024,1024,1024,0,0,0,0,0,0,0,40,,,,,,,0.898,109.76,706.38288415281,0,11,AutoTakeoff,
418400,2023-10-12 21:49:32,40.0688941240843,-88.2096943117361,0,,,706.38288415281,0.656168,0,0.0137790030656,0.146869099188,26,10,21.203,706.38288415281,0,0,0.036015749184,0,0,-0.223694,3, 1.7, -0.5,0,0,1024,1024,1024,1024,0,0,0,0,0,0,0,40,,,,,,,0.898,109.76,706.38288415281,0,11,AutoTakeoff,
418500,2023-10-12 21:49:32,40.0688940738639,-88.2096943574961,0,,,706.38288415281,0.656168,0,0.035887796424,0.169206698328,26,10,21.203,706.38288415281,0,0,0.036015749184,0,0,-0.671082,3, 1.9, -0.1,0,0,1024,1024,1024,1024,0,0,0,0,0,0,0,40,,,,,,,0.898,109.76,706.38288415281,0,11,AutoTakeoff,
418600,2023-10-12 21:49:32,40.0688939874598,-88.2096944042411,0,,,706.38288415281,0.656168,0.223694,0.06986384738,0.203326121992,26,10,21.203,706.38288415281,0,0.223694,0.06986384738,-0.223694,0,-0.894776,3, 1.8, 0.7,0,0,1024,1024,1024,1024,0,0,0,0,0,0,0,40,,,,,,,0.898,109.76,706.38288415281,0,11,AutoTakeoff,
418700,2023-10-12 21:49:32,40.0688938786304,-88.2096944295013,0.328084,,,706.71096815281,0.984252,0.223694,0.109174544176,0.243653879188,26,10,21.203,706.71096815281,0.328084,0.223694,0.109174544176,-0.223694,0,-1.11847,3, 0.8, 0.8,0,0,1024,1024,1024,1024,0,0,0,0,0,0,0,40,,,,,,,0.898,109.76,706.71096815281,0.328084,11,AutoTakeoff,
418800,2023-10-12 21:49:32,40.0688937366425,-88.209694438496,0.328084,,,706.71096815281,1.312336,0.223694,0.1593914093,0.295519038328,26,10,21.203,706.71096815281,0.328084,0.223694,0.1593914093,-0.223694,0,-1.342164,3, -0.2, 0.5,0,0,1024,1024,1024,1024,0,0,0,0,0,0,0,40,,,,,,,0.898,109.76,706.71096815281,0.328084,11,AutoTakeoff,
418900,2023-10-12 21:49:32,40.068893609064,-88.2096944290983,0.656168,,,707.03905215281,1.312336,0.223694,0.204252303124,0.34213911856,26,10,21.203,707.03905215281,0.656168,0.223694,0.204252303124,-0.223694,0,-1.342164,2.9, -1.6, -0.1,0,0,1024,1024,1024,1024,0,0,0,0,0,0,0,40,,,,,,,0.898,109.76,707.03905215281,0.656168,11,AutoTakeoff,
419000,2023-10-12 21:49:32,40.0688934962681,-88.2096944221494,0.984252,,,707.36713615281,1.64042,0.223694,0.244519692864,0.38333990728,26,10,21.203,707.36713615281,0.984252,0.223694,0.244519692864,-0.223694,0,-1.342164,2.9, -2.1, -0.7,0,0,1024,1024,1024,1024,0,0,0,0,0,0,0,40,,,,,,,0.898,109.76,707.36713615281,0.984252,11,AutoTakeoff,
419100,2023-10-12 21:49:32,40.0688934322715,-88.2096944629194,0.984252,,,707.36713615281,1.968504,0,0.269400927256,0.40931431756,26,10,21.203,707.36713615281,0.984252,0.223694,0.269400927256,0,0,-1.342164,2.7, -2, -1.2,0,0,1024,1024,1024,1024,0,0,0,0,0,0,0,40,,,,,,,0.898,109.76,707.36713615281,0.984252,11,AutoTakeoff,
419200,2023-10-12 21:49:32,40.0688933792711,-88.2096945201535,1.312336,,,707.69522015281,1.968504,0,0.291503946336,0.4343996202,26,10,21.203,707.69522015281,1.312336,0.223694,0.291503946336,0,0,-1.342164,2.7, -1.7, -0.7,0,0,1024,1024,1024,1024,0,0,0,0,0,0,0,40,,,,,,,0.898,109.76,707.69522015281,1.312336,11,AutoTakeoff,
419300,2023-10-12 21:49:32,40.0688933625155,-88.2096946022841,1.64042,,,708.02330415281,2.296588,0,0.303180455896,0.45813321676,26,10,21.017,708.02330415281,1.64042,0.223694,0.303180455896,0,0,-1.342164,2.6, -1, 0,0,0,1024,1024,1024,1024,0,0,0,0,0,0,0,40,,,,,,,8.703,109.76,708.02330415281,1.64042,11,AutoTakeoff,
419400,2023-10-12 21:49:33,40.0688933486556,-88.2096946943133,1.64042,,,708.02330415281,2.624672,0,0.31618603374,0.48432088164,26,10,21.017,708.02330415281,1.64042,0.223694,0.31618603374,0,0,-1.342164,2.7, -0.6, 0.8,0,0,1024,1024,1024,1024,0,0,0,0,0,0,0,40,,,,,,,8.703,109.76,708.02330415281,1.64042,11,AutoTakeoff,
419500,2023-10-12 21:49:33,40.0688933475195,-88.2096947049256,1.968504,,,708.35138815281,2.624672,0,0.317633212264,0.48731300772,26,10,21.017,708.35138815281,1.968504,0.223694,0.317633212264,0,0,-1.11847,2.8, -0.5, 1,0,0,1024,1024,1024,1024,0,0,0,0,0,0,0,40,,,,,,,8.703,109.76,708.35138815281,1.968504,11,AutoTakeoff,
419600,2023-10-12 21:49:33,40.0688933519053,-88.2096946889372,1.968504,,,708.35138815281,2.952756,0,0.314547582244,0.49205710236,26,10,21.017,708.35138815281,1.968504,0.223694,0.317633212264,0,0,-1.11847,3, -0.5, 0.7,0,0,1024,1024,1024,1024,0,0,0,0,0,0,0,40,,,,,,,8.703,109.76,708.35138815281,1.968504,11,AutoTakeoff,
419700,2023-10-12 21:49:33,40.0688933614928,-88.2096946524575,2.296588,,,708.67947215281,2.952756,0,0.307809393052,0.50282481924,26,10,21.017,708.67947215281,2.296588,0.223694,0.317633212264,0,0,-1.11847,3, -0.5, 0,0,0,1024,1024,1024,1024,0,0,0,0,0,0,0,40,,,,,,,8.703,109.76,708.67947215281,2.296588,11,AutoTakeoff,
419800,2023-10-12 21:49:33,40.068893399768,-88.2096945639321,2.624672,,,709.00755615281,3.28084,0,0.28717684646,0.53121392776,26,10,21.017,709.00755615281,2.624672,0.223694,0.317633212264,0,0,-1.11847,3.1, -0.5, -0.6,0,0,1024,1024,1024,1024,0,0,0,0,0,0,0,40,,,,,,,8.703,109.76,709.00755615281,2.624672,11,AutoTakeoff,
419900,2023-10-12 21:49:33,40.0688934266166,-88.2096945071877,2.624672,,,709.00755615281,3.28084,0,0.273855979892,0.54984253728,26,10,21.017,709.00755615281,2.624672,0.223694,0.317633212264,0,0,-1.11847,3.1, -0.4, -0.6,0,0,1024,1024,1024,1024,0,0,0,0,0,0,0,40,,,,,,,8.703,109.76,709.00755615281,2.624672,11,AutoTakeoff,
420000,2023-10-12 21:49:33,40.0688934653055,-88.2096944525646,2.952756,,,709.33564015281,3.608924,0,0.2570292077,0.57062337784,26,10,21.017,709.33564015281,2.952756,0.223694,0.317633212264,0,0,-1.11847,3, -0.1, 0,0,0,1024,1024,1024,1024,0,0,0,0,0,0,0,40,,,,,,,8.703,109.76,709.33564015281,2.952756,14,Waypoint,
420100,2023-10-12 21:49:33,40.0688935299972,-88.2096943996094,2.952756,,,709.33564015281,3.608924,0,0.231465230504,0.5984744286,26,10,21.017,709.33564015281,2.952756,0.223694,0.317633212264,0,0,-0.894776,2.9, 0.3, 0,0,0,1024,1024,1024,1024,0,0,0,0,0,0,0,40,,,,,,,8.703,109.76,709.33564015281,2.952756,14,Waypoint,
420200,2023-10-12 21:49:33,40.0688935837361,-88.2096943526769,3.28084,,,709.66372415281,3.608924,0,0.210604993616,0.62205710652,26,10,21.017,709.66372415281,3.28084,0.223694,0.317633212264,0,0,-0.671082,2.8, 0.3, 0,0,0,1024,1024,1024,1024,0,0,0,0,0,0,0,40,,,,,,,8.703,109.76,709.66372415281,3.28084,14,Waypoint,
420300,2023-10-12 21:49:33,40.0688936208059,-88.209694300914,3.28084,,,709.66372415281,3.937008,0,0.196443247756,0.64185041424,26,10,21.0285,709.66372415281,3.28084,0.223694,0.317633212264,0,0,-0.671082,2.8, 0.3, -0.3,0,0,1024,1024,1024,1024,0,0,0,0,0,0,0,40,,,,,,,9.66,109.76,709.66372415281,3.28084,14,Waypoint,
420400,2023-10-12 21:49:34,40.0688936560978,-88.2096942367281,3.28084,,,709.66372415281,3.937008,0,0.184241147628,0.66391734408,26,10,21.0285,709.66372415281,3.28084,0.223694,0.317633212264,0,0,-0.447388,2.8, 0.7, -0.4,0,0,1024,1024,1024,1024,0,0,0,0,0,0,0,40,,,,,,,9.66,109.76,709.66372415281,3.28084,14,Waypoint,
420500,2023-10-12 21:49:34,40.0688936470527,-88.2096942689008,3.608924,,,709.99180815281,3.937008,0,0.1869832737,0.67348755436,26,10,21.0285,709.99180815281,3.608924,0.223694,0.317633212264,0,0,-0.447388,2.8, 1.1, -0.6,0,0,1024,1024,1024,1024,0,0,0,0,0,0,0,40,,,,,,,9.66,109.76,709.99180815281,3.608924,14,Waypoint,
420600,2023-10-12 21:49:34,40.0688936409712,-88.209694240397,3.608924,,,709.99180815281,4.265092,0,0.1896571583,0.68174870948,26,10,21.0285,709.99180815281,3.608924,0.223694,0.317633212264,0,0,-0.447388,3, 0.9, -1,0,0,1024,1024,1024,1024,0,0,0,0,0,0,0,40,,,,,,,9.66,109.76,709.99180815281,3.608924,14,Waypoint,
420700,2023-10-12 21:49:34,40.0688936382882,-88.2096941826675,3.608924,,,709.99180815281,4.265092,0,0.192560045532,0.69789700396,26,10,21.0285,709.99180815281,3.608924,0.223694,0.317633212264,0,0,-0.671082,3.1, 0.1, -1.6,0,0,1024,1024,1024,1024,0,0,0,0,0,0,0,40,,,,,,,9.66,109.76,709.99180815281,3.608924,14,Waypoint,
420800,2023-10-12 21:49:34,40.0688936383794,-88.2096941372966,3.608924,,,709.99180815281,4.265092,0,0.194965885504,0.71056760804,26,10,21.0285,709.99180815281,3.608924,0.223694,0.317633212264,0,0,-0.894776,3.1, 0, -1.8,0,0,1024,1024,1024,1024,0,0,0,0,0,0,0,40,,,,,,,9.66,109.76,709.99180815281,3.608924,14,Waypoint,
420900,2023-10-12 21:49:34,40.068893634855,-88.2096941271096,3.937008,,,710.31989215281,4.593176,0,0.196871397376,0.71368768688,26,10,21.0285,710.31989215281,3.937008,0.223694,0.317633212264,0,0,-1.11847,3.2, 0, -1.6,0,0,1024,1024,1024,1024,0,0,0,0,0,0,0,40,,,,,,,9.66,109.76,710.31989215281,3.937008,14,Waypoint,
421000,2023-10-12 21:49:34,40.0688936307072,-88.2096941494984,4.265092,,,710.64797615281,4.92126,0,0.196971134912,0.72011813328,26,10,21.0285,710.64797615281,4.265092,0.223694,0.317633212264,0,0,-1.565858,3.4, 0.1, -1.1,0,0,1024,1024,1024,1024,0,0,0,0,0,0,0,40,,,,,,,9.66,109.76,710.64797615281,4.265092,14,Waypoint,
421100,2023-10-12 21:49:34,40.068893637859,-88.2096942020813,4.593176,,,710.97606015281,5.249344,0,0.191918313228,0.73502955108,26,10,21.0285,710.97606015281,4.593176,0.223694,0.317633212264,0,0,-2.23694,3.5, 0.1, -0.7,0,0,1024,1024,1024,1024,0,0,0,0,0,0,0,40,,,,,,,9.66,109.76,710.97606015281,4.593176,14,Waypoint,
421200,2023-10-12 21:49:34,40.0688936529429,-88.2096942625311,4.92126,,,711.30414415281,5.577428,0,0.184910438988,0.75278217632,26,10,21.0285,711.30414415281,4.92126,0.223694,0.317633212264,0,0,-2.684328,3.4, 0.1, -0.1,0,0,1024,1024,1024,1024,0,0,0,0,0,0,0,40,,,,,,,9.66,109.76,711.30414415281,4.92126,14,Waypoint,
421300,2023-10-12 21:49:34,40.0688936573357,-88.2096943400608,5.249344,,,711.63222815281,5.905512,0,0.183563982252,0.77448821376,26,10,21.0145,711.63222815281,5.249344,0.223694,0.317633212264,0,0,-3.35541,3.1, 0.2, 0.5,0,0,1024,1024,1024,1024,0,0,0,0,0,0,0,39,,,,,,,9.151,109.76,711.63222815281,5.249344,14,Waypoint,
421400,2023-10-12 21:49:35,40.068893659125,-88.2096944090939,5.905512,,,712.28839615281,6.56168,0,0.185280845824,0.79377627212,26,10,21.0145,712.28839615281,5.905512,0.223694,0.317633212264,0,0,-3.802798,2.8, 0.2, 1,0,0,1024,1024,1024,1024,0,0,0,0,0,0,0,39,,,,,,,9.151,109.76,712.28839615281,5.905512,14,Waypoint,
421500,2023-10-12 21:49:35,40.0688937046462,-88.2096944017196,6.56168,,,712.94456415281,6.889764,0,0.168569887284,0.81051183696,26,10,21.0145,712.94456415281,6.56168,0.223694,0.317633212264,0,0,-4.250186,2.6, 0, 0.8,0,0,1024,1024,1024,1024,0,0,0,0,0,0,0,39,,,,,,,9.151,109.76,712.94456415281,6.56168,14,Waypoint,
421600,2023-10-12 21:49:35,40.0688937198511,-88.2096943842423,7.217848,,,713.60073215281,7.874016,0,0.162282813592,0.81790028864,26,10,21.0145,713.60073215281,7.217848,0.223694,0.317633212264,0,0,-4.697574,2.6, 0, 0,0,0,1024,1024,1024,1024,0,0,0,0,0,0,0,39,,,,,,,9.151,109.76,713.60073215281,7.217848,14,Waypoint,
421700,2023-10-12 21:49:35,40.0688937394561,-88.2096943846117,7.874016,,,714.25690015281,8.530184,0,0.155238193944,0.82505251984,26,10,21.0145,714.25690015281,7.874016,0.223694,0.317633212264,0,0,-5.144962,2.6, -0.3, -0.3,0,0,1024,1024,1024,1024,0,0,0,0,0,0,0,39,,,,,,,9.151,109.76,714.25690015281,7.874016,14,Waypoint,
421800,2023-10-12 21:49:35,40.0688937742587,-88.2096943916586,8.530184,,,714.91306815281,9.186352,0,0.14309055576,0.83790357012,26,10,21.0145,714.91306815281,8.530184,0.223694,0.317633212264,0,0,-5.59235,2.8, -0.7, -0.6,0,0,1024,1024,1024,1024,0,0,0,0,0,0,0,39,,,,,,,9.151,109.76,714.91306815281,8.530184,14,Waypoint,
421900,2023-10-12 21:49:35,40.0688938392727,-88.2096944405305,9.514436,,,715.89732015281,9.84252,0,0.12372703808,0.86526577572,26,10,21.0145,715.89732015281,9.514436,0.223694,0.317633212264,0,0,-6.039738,2.8, -0.8, -0.1,0,0,1024,1024,1024,1024,0,0,0,0,0,0,0,39,,,,,,,9.151,109.76,715.89732015281,9.514436,14,Waypoint,
422000,2023-10-12 21:49:35,40.0688939293026,-88.2096944710493,10.498688,,,716.88157215281,10.498688,0,0.097421919128,0.89920278468,26,10,21.0145,716.88157215281,10.498688,0.223694,0.317633212264,0,0,-6.263432,2.7, -0.3, 0.9,0,0,1024,1024,1024,1024,0,0,0,0,0,0,0,39,,,,,,,9.151,109.76,716.88157215281,10.498688,14,Waypoint,
422100,2023-10-12 21:49:35,40.0688940535237,-88.2096944927553,11.48294,,,717.86582415281,11.48294,0.223694,0.067671590092,0.94492785176,26,10,21.0145,717.86582415281,11.48294,0.223694,0.317633212264,0.223694,0,-6.487126,2.6, 0.2, 0.9,0,0,1024,1024,1024,1024,0,0,0,0,0,0,0,39,,,,,,,9.151,109.76,717.86582415281,11.48294,14,Waypoint,
422200,2023-10-12 21:49:35,40.0688942112912,-88.2096945011203,12.467192,,,718.85007615281,12.139108,0.223694,0.060986878592,1.00253612132,26,10,21.0145,718.85007615281,12.467192,0.223694,0.317633212264,0.223694,0,-6.487126,2.4, 1, 0.7,0,0,1024,1024,1024,1024,0,0,0,0,0,0,0,40,,,,,,,9.151,109.76,718.85007615281,12.467192,14,Waypoint,
422300,2023-10-12 21:49:35,40.0688943545949,-88.2096944815245,13.451444,,,719.83432815281,12.795276,0.223694,0.088522640628,1.05510502064,26,10,20.907,719.83432815281,13.451444,0.223694,0.317633212264,0.223694,0,-6.487126,2.3, 1.8, 0.5,0,0,1024,1024,1024,1024,0,0,0,0,0,0,0,39,,,,,,,14.252,109.76,719.83432815281,13.451444,14,Waypoint,
422400,2023-10-12 21:49:35,40.0688945129238,-88.2096944533062,14.435696,,,720.81858015281,13.779528,0.223694,0.136545608044,1.11340554744,26,10,20.907,720.81858015281,14.435696,0.223694,0.317633212264,0.223694,0,-6.487126,2.4, 2, 0.3,0,0,1024,1024,1024,1024,0,0,0,0,0,0,0,39,,,,,,,14.252,109.76,720.81858015281,14.435696,14,Waypoint,
422500,2023-10-12 21:49:36,40.0688946696952,-88.2096944202155,15.091864,,,721.47474815281,14.435696,0.223694,0.189581042812,1.17134518184,26,10,20.907,721.47474815281,15.091864,0.223694,0.317633212264,0.223694,0,-6.487126,2.4, 2.1, 0.2,0,0,1024,1024,1024,1024,0,0,0,0,0,0,0,39,,,,,,,14.252,109.76,721.47474815281,15.091864,14,Waypoint,
422600,2023-10-12 21:49:36,40.0688948349586,-88.2096944029594,16.076116,,,722.45900015281,15.091864,0.223694,0.24843504732,1.23183402892,26,10,20.907,722.45900015281,16.076116,0.223694,0.317633212264,0.447388,0,-6.263432,2.5, 2.6, 0,0,0,1024,1024,1024,1024,0,0,0,0,0,0,0,39,,,,,,,14.252,109.76,722.45900015281,16.076116,14,Waypoint,
422700,2023-10-12 21:49:36,40.0688950301613,-88.2096943788326,17.060368,,,723.44325215281,15.748032,0.447388,0.318660443268,1.30337274512,26,10,20.907,723.44325215281,17.060368,0.447388,0.318660443268,0.447388,0,-6.039738,2.6, 3, -0.1,0,0,1024,1024,1024,1024,0,0,0,0,0,0,0,39,,,,,,,14.252,109.76,723.44325215281,17.060368,14,Waypoint,
422800,2023-10-12 21:49:36,40.0688952392032,-88.2096943703528,18.04462,,,724.42750415281,16.4042,0.447388,0.39462271604,1.37967852184,26,10,20.907,724.42750415281,18.04462,0.447388,0.39462271604,0.447388,0,-5.816044,2.8, 3.4, -0.1,0,0,1024,1024,1024,1024,0,0,0,0,0,0,0,39,,,,,,,14.252,109.76,724.42750415281,18.04462,14,Waypoint,
422900,2023-10-12 21:49:36,40.0688954372026,-88.2096943794679,18.700788,,,725.08367215281,17.060368,0.447388,0.4668963404,1.45196198872,26,10,20.907,725.08367215281,18.700788,0.447388,0.4668963404,0.447388,0,-5.368656,2.9, 3.7, -0.1,0,0,1024,1024,1024,1024,0,0,0,0,0,0,0,39,,,,,,,14.252,109.76,725.08367215281,18.700788,14,Waypoint,
423000,2023-10-12 21:49:36,40.0688956278317,-88.2096944121863,19.68504,,,726.06792415281,17.716536,0.447388,0.53685369172,1.52210962876,26,10,20.907,726.06792415281,19.68504,0.447388,0.53685369172,0.447388,0,-5.144962,3, 4.1, 0.3,0,0,1024,1024,1024,1024,0,0,0,0,0,0,0,39,,,,,,,14.252,109.76,726.06792415281,19.68504,14,Waypoint,
423100,2023-10-12 21:49:36,40.0688958017842,-88.2096944569723,20.341208,,,726.72409215281,18.372704,0.223694,0.60103020296,1.58679795104,26,10,20.907,726.72409215281,20.341208,0.447388,0.60103020296,0.223694,0,-4.697574,3, 4.2, 1,0,0,1024,1024,1024,1024,0,0,0,0,0,0,0,39,,,,,,,14.252,109.76,726.72409215281,20.341208,14,Waypoint,
423200,2023-10-12 21:49:36,40.0688959686216,-88.2096944933513,20.997376,,,727.38026015281,19.028872,0.223694,0.66251970624,1.64851055144,26,10,20.907,727.38026015281,20.997376,0.447388,0.66251970624,0.223694,0,-4.250186,3, 4.3, 1.3,0,0,1024,1024,1024,1024,0,0,0,0,0,0,0,40,,,,,,,14.252,109.76,727.38026015281,20.997376,14,Waypoint,
423300,2023-10-12 21:49:37,40.068896102282,-88.2096944900714,21.653544,,,728.03642815281,19.68504,0.223694,0.71105317236,1.69728351888,26,10,20.978,728.03642815281,21.653544,0.447388,0.71105317236,0.223694,0,-3.802798,3, 4.6, 1.3,0,0,1024,1024,1024,1024,0,0,0,0,0,0,0,39,,,,,,,10.722,109.76,728.03642815281,21.653544,14,Waypoint,
423400,2023-10-12 21:49:37,40.0688962227803,-88.2096944651107,22.309712,,,728.69259615281,20.013124,0.223694,0.75441931548,1.741797956,26,10,20.978,728.69259615281,22.309712,0.447388,0.75441931548,0.223694,0,-3.35541,3, 4.7, 0.9,0,0,1024,1024,1024,1024,0,0,0,0,0,0,0,39,,,,,,,10.722,109.76,728.69259615281,22.309712,14,Waypoint,
423500,2023-10-12 21:49:37,40.0688963510681,-88.2096944278977,22.637796,,,729.02068015281,20.341208,0.223694,0.80058073428,1.78974087092,26,10,20.978,729.02068015281,22.637796,0.447388,0.80058073428,0.223694,0,-2.908022,3, 4.5, 0.5,0,0,1024,1024,1024,1024,0,0,0,0,0,0,0,39,,,,,,,10.722,109.76,729.02068015281,22.637796,14,Waypoint,
423600,2023-10-12 21:49:37,40.068896496097,-88.2096943831397,23.293964,,,729.67684815281,20.669292,0.223694,0.85298231076,1.8441109514,26,10,20.978,729.67684815281,23.293964,0.447388,0.85298231076,0.223694,0,-2.23694,3, 4.4, 0.2,0,0,1024,1024,1024,1024,0,0,0,0,0,0,0,39,,,,,,,10.722,109.76,729.67684815281,23.293964,14,Waypoint,
423700,2023-10-12 21:49:37,40.0688965994515,-88.2096943525538,23.293964,,,729.67684815281,20.669292,0,0.89047575028,1.8827756508,26,10,20.978,729.67684815281,23.293964,0.447388,0.89047575028,0,0,-1.789552,3, 4.4, 0,0,0,1024,1024,1024,1024,0,0,0,0,0,0,0,39,,,,,,,10.722,109.76,729.67684815281,23.293964,14,Waypoint,
423800,2023-10-12 21:49:37,40.0688966890112,-88.209694313989,23.622048,,,730.00493215281,20.669292,0,0.92301840224,1.91717853904,26,10,20.978,730.00493215281,23.622048,0.447388,0.92301840224,0,0,-1.342164,3, 4.2, -0.1,0,0,1024,1024,1024,1024,0,0,0,0,0,0,0,39,,,,,,,10.722,109.76,730.00493215281,23.622048,14,Waypoint,
423900,2023-10-12 21:49:37,40.0688967483388,-88.2096942550673,23.950132,,,730.33301615281,20.669292,0,0.94470803548,1.94436686012,26,10,20.978,730.33301615281,23.950132,0.447388,0.94470803548,0,0,-0.894776,3, 4.1, -0.2,0,0,1024,1024,1024,1024,0,0,0,0,0,0,0,39,,,,,,,10.722,109.76,730.33301615281,23.950132,14,Waypoint,
424000,2023-10-12 21:49:37,40.0688968305922,-88.2096941745375,23.950132,,,730.33301615281,20.669292,0,0.97522312832,1.98186686132,26,10,20.978,730.33301615281,23.950132,0.447388,0.97522312832,0,0,-0.447388,3, 4.2, -0.3,0,0,1024,1024,1024,1024,0,0,0,0,0,0,0,39,,,,,,,10.722,109.76,730.33301615281,23.950132,14,Waypoint,
424100,2023-10-12 21:49:37,40.0688968612344,-88.2096941259539,23.950132,,,730.33301615281,20.669292,0,0.98694556964,1.99944560204,26,10,20.978,730.33301615281,23.950132,0.447388,0.98694556964,0,0,0,2.8, 4.1, -0.3,0,0,1024,1024,1024,1024,0,0,0,0,0,0,0,39,,,,,,,10.722,109.76,730.33301615281,23.950132,14,Waypoint,
424200,2023-10-12 21:49:37,40.0688968753375,-88.2096940976851,23.950132,,,730.33301615281,20.669292,0,0.99249018924,2.00886489368,26,10,20.978,730.33301615281,23.950132,0.447388,0.99249018924,0,0,0,358, 4.8, 0.3,0,0,1024,1024,1024,1024,0,0,0,0,0,0,0,40,,,,,,,10.722,109.76,730.33301615281,23.950132,14,Waypoint,
424300,2023-10-12 21:49:37,40.0688968588873,-88.2096940914191,23.950132,,,730.33301615281,20.669292,0,0.98659451976,2.01511817472,26,10,21.028,730.33301615281,23.950132,0.447388,0.99249018924,0,0,0.223694,352.2, 4.8, 1.2,0,0,1024,1024,1024,1024,0,0,0,0,0,0,0,39,,,,,,,6.984,109.76,730.33301615281,23.950132,14,Waypoint,
424400,2023-10-12 21:49:38,40.0688968024906,-88.2096939984692,23.950132,,,730.33301615281,20.669292,0.223694,0.96791669764,2.04823825452,26,10,21.028,730.33301615281,23.950132,0.447388,0.99249018924,0,0.223694,0.223694,347.9, 4.5, 0.3,0,0,1024,1024,1024,1024,0,0,0,0,0,0,0,39,,,,,,,6.984,109.76,730.33301615281,23.950132,14,Waypoint,
424500,2023-10-12 21:49:38,40.0688967181013,-88.2096938273012,23.950132,,,730.33301615281,20.669292,0.3131716,0.94264766796,2.10508865004,26,10,21.028,730.33301615281,23.950132,0.447388,0.99249018924,-0.223694,0.223694,0.223694,344.9, 3.7, -1.4,0,0,1024,1024,1024,1024,0,0,0,0,0,0,0,39,,,,,,,6.984,109.76,730.33301615281,23.950132,14,Waypoint,
424600,2023-10-12 21:49:38,40.0688966166558,-88.2096936243858,23.950132,,,730.33301615281,20.669292,0.3131716,0.9158628902,2.17276253672,26,10,21.028,730.33301615281,23.950132,0.447388,0.99249018924,-0.223694,0.223694,0.223694,343.3, 2.9, -2.9,0,0,1024,1024,1024,1024,0,0,0,0,0,0,0,39,,,,,,,6.984,109.76,730.33301615281,23.950132,14,Waypoint,
424700,2023-10-12 21:49:38,40.0688964555272,-88.209693485091,23.622048,,,730.00493215281,20.669292,0.3131716,0.86769031648,2.24325138412,26,10,21.028,730.33301615281,23.950132,0.447388,0.99249018924,-0.223694,0.223694,0.223694,342.5, 1.9, -3.5,0,0,1024,1024,1024,1024,0,0,0,0,0,0,0,39,,,,,,,6.984,109.76,730.00493215281,23.622048,14,Waypoint,
424800,2023-10-12 21:49:38,40.0688963303993,-88.2096933614376,23.622048,,,730.00493215281,20.669292,0.3131716,0.83381892432,2.30048891876,26,10,21.028,730.33301615281,23.950132,0.447388,0.99249018924,-0.223694,0.223694,0.223694,342.1, 1.5, -3.3,0,0,1024,1024,1024,1024,0,0,0,0,0,0,0,39,,,,,,,6.984,109.76,730.00493215281,23.622048,14,Waypoint,
424900,2023-10-12 21:49:38,40.0688962763293,-88.2096932545814,23.622048,,,730.00493215281,20.669292,0,0.82511157496,2.33625663644,26,10,21.028,730.33301615281,23.950132,0.447388,0.99249018924,0,0,0.223694,342, 1.7, -2.9,0,0,1024,1024,1024,1024,0,0,0,0,0,0,0,39,,,,,,,6.984,109.76,730.00493215281,23.622048,14,Waypoint,
425000,2023-10-12 21:49:38,40.0688962564614,-88.2096931305418,23.622048,,,730.00493215281,20.669292,0,0.83123690324,2.37164049584,26,10,21.028,730.33301615281,23.950132,0.447388,0.99249018924,0,0,0.223694,341.9, 1.9, -2.5,0,0,1024,1024,1024,1024,0,0,0,0,0,0,0,39,,,,,,,6.984,109.76,730.00493215281,23.622048,14,Waypoint,
425100,2023-10-12 21:49:38,40.0688962115525,-88.2096930793022,23.622048,,,730.00493215281,20.669292,0,0.82197509192,2.39339246504,26,10,21.028,730.33301615281,23.950132,0.447388,0.99249018924,0,0,0.223694,342, 1.4, -2.2,0,0,1024,1024,1024,1024,0,0,0,0,0,0,0,39,,,,,,,6.984,109.76,730.00493215281,23.622048,14,Waypoint,
425200,2023-10-12 21:49:38,40.0688961831949,-88.2096930488646,23.622048,,,730.00493215281,20.669292,0,0.81614503924,2.40678157308,26,10,21.028,730.33301615281,23.950132,0.447388,0.99249018924,0,0,0.223694,342.1, 0.2, -2,0,0,1024,1024,1024,1024,0,0,0,0,0,0,0,40,,,,,,,6.984,109.76,730.00493215281,23.622048,14,Waypoint,
425300,2023-10-12 21:49:38,40.0688961813125,-88.2096930401693,23.622048,,,730.00493215281,20.669292,0,0.81656170592,2.40930453904,26,10,20.9635,730.33301615281,23.950132,0.447388,0.99249018924,0,0,0,342.2, -0.6, -1.9,0,0,1024,1024,1024,1024,0,0,0,0,0,0,0,39,,,,,,,9.961,109.76,730.00493215281,23.622048,14,Waypoint,
425400,2023-10-12 21:49:39,40.0688962093285,-88.2096930540923,23.293964,,,729.67684815281,20.669292,0,0.82416669304,2.42023957876,26,10,20.9635,730.33301615281,23.950132,0.447388,0.99249018924,0,0,0,342.4, -1.6, -2,0,0,1024,1024,1024,1024,0,0,0,0,0,0,0,39,,,,,,,9.961,109.76,729.67684815281,23.293964,14,Waypoint,
425500,2023-10-12 21:49:39,40.068896332575,-88.2096931373647,23.293964,,,729.67684815281,20.669292,0.223694,0.85614832136,2.47085965912,26,10,20.9635,730.33301615281,23.950132,0.447388,0.99249018924,0.223694,0,0,342.3, -2.6, -2.2,0,0,1024,1024,1024,1024,0,0,0,0,0,0,0,39,,,,,,,9.961,109.76,729.67684815281,23.293964,14,Waypoint,
425600,2023-10-12 21:49:39,40.0688965319524,-88.2096932902046,23.293964,,,729.67684815281,20.669292,0.4921268,0.90989832308,2.55519693216,26,10,20.9635,730.33301615281,23.950132,0.4921268,0.99249018924,0.447388,-0.223694,0,342.2, -4, -1.9,0,0,1024,1024,1024,1024,0,0,0,0,0,0,0,39,,,,,,,9.961,109.76,729.67684815281,23.293964,14,Waypoint,
425700,2023-10-12 21:49:39,40.0688968139606,-88.2096935400525,23.293964,,,729.67684815281,20.669292,0.8052984,0.9911745724,2.67950795976,26,10,20.9635,730.33301615281,23.950132,0.8052984,0.99249018924,0.671082,-0.447388,0,342, -5.3, -1.1,0,0,1024,1024,1024,1024,0,0,0,0,0,0,0,39,,,,,,,9.961,109.76,729.67684815281,23.293964,14,Waypoint,
425800,2023-10-12 21:49:39,40.0688972069467,-88.2096938295342,23.293964,,,729.67684815281,20.669292,1.006623,1.11949150564,2.84410114088,26,10,20.9635,730.33301615281,23.950132,1.006623,1.11949150564,0.894776,-0.447388,0,341.7, -6.8, -0.3,0,0,1024,1024,1024,1024,0,0,0,0,0,0,0,39,,,,,,,9.961,109.76,729.67684815281,23.293964,14,Waypoint,
425900,2023-10-12 21:49:39,40.0688977105071,-88.2096941697601,23.293964,,,729.67684815281,20.669292,1.2079476,1.29615489712,3.05092857532,26,10,20.9635,730.33301615281,23.950132,1.2079476,1.29615489712,1.11847,-0.447388,0,341.5, -8.5, 0,0,0,1024,1024,1024,1024,0,0,0,0,0,0,0,39,,,,,,,9.961,109.76,729.67684815281,23.293964,14,Waypoint,
426000,2023-10-12 21:49:39,40.0688984032321,-88.2096945691904,23.293964,,,729.67684815281,20.669292,1.7000744,1.5503445378,3.3271654608,26,10,20.9635,730.33301615281,23.950132,1.7000744,1.5503445378,1.565858,-0.671082,0,341.5, -10.2, 0,0,0,1024,1024,1024,1024,0,0,0,0,0,0,0,39,,,,,,,9.961,109.76,729.67684815281,23.293964,14,Waypoint,
426100,2023-10-12 21:49:39,40.0688992144785,-88.2096950615819,23.293964,,,729.67684815281,20.669292,2.3264176,1.8568406106,3.653543424,26,10,20.9635,730.33301615281,23.950132,2.3264176,1.8568406106,2.23694,-0.671082,0,341.5, -12.1, -0.3,0,0,1024,1024,1024,1024,0,0,0,0,0,0,0,39,,,,,,,9.961,109.76,729.67684815281,23.293964,14,Waypoint,
426200,2023-10-12 21:49:39,40.0689003079793,-88.2096955900557,23.293964,,,729.67684815281,20.669292,2.8185444,2.27239508584,4.07890433,26,10,20.9635,730.33301615281,23.950132,2.8185444,2.27239508584,2.684328,-0.894776,0,341.7, -13.6, -0.6,0,0,1024,1024,1024,1024,0,0,0,0,0,0,0,40,,,,,,,9.961,109.76,729.67684815281,23.293964,14,Waypoint,
426300,2023-10-12 21:49:39,40.0689015829983,-88.2096961756097,23.293964,,,729.67684815281,20.669292,3.5343652,2.7590716106,4.5719817736,26,10,20.963,730.33301615281,23.950132,3.5343652,2.7590716106,3.35541,-1.11847,0,341.9, -14.6, -0.5,0,0,1024,1024,1024,1024,0,0,0,0,0,0,0,39,,,,,,,9.362,109.76,729.67684815281,23.293964,14,Waypoint,
426400,2023-10-12 21:49:40,40.0689031549004,-88.2096969048859,23.293964,,,729.67684815281,20.669292,4.250186,3.3620735984,5.1805775936,26,10,20.963,730.33301615281,23.950132,4.250186,3.3620735984,4.026492,-1.342164,0,342, -15, -0.1,0,0,1024,1024,1024,1024,0,0,0,0,0,0,0,39,,,,,,,9.362,109.76,729.67684815281,23.293964,14,Waypoint,
426500,2023-10-12 21:49:40,40.0689048829144,-88.2096976456952,23.293964,,,729.67684815281,20.669292,4.6752046,4.0229331996,5.8440946752,26,10,20.963,730.33301615281,23.950132,4.6752046,4.0229331996,4.47388,-1.342164,0,342.1, -15.1, 0,0,0,1024,1024,1024,1024,0,0,0,0,0,0,0,39,,,,,,,9.362,109.76,729.67684815281,23.293964,14,Waypoint,
426600,2023-10-12 21:49:40,40.0689069430979,-88.2096985011296,23.293964,,,729.67684815281,20.669292,5.368656,4.809875482,6.6328086112,26,10,20.963,730.33301615281,23.950132,5.368656,4.809875482,5.144962,-1.565858,0,342.2, -14.9, -0.2,0,0,1024,1024,1024,1024,0,0,0,0,0,0,0,39,,,,,,,9.362,109.76,729.67684815281,23.293964,14,Waypoint,
426700,2023-10-12 21:49:40,40.0689091603608,-88.2096993982995,23.293964,,,729.67684815281,20.669292,6.0844768,5.6557088424,7.479659032,26,10,20.963,730.33301615281,23.950132,6.0844768,5.6557088424,5.816044,-1.789552,0,342.3, -14.9, -0.4,0,0,1024,1024,1024,1024,0,0,0,0,0,0,0,39,,,,,,,9.362,109.76,729.67684815281,23.293964,14,Waypoint,
426800,2023-10-12 21:49:40,40.0689116901206,-88.2097004236453,23.293964,,,729.67684815281,20.669292,6.8002976,6.6211944376,8.446030454,26,10,20.963,730.33301615281,23.950132,6.8002976,6.6211944376,6.487126,-2.013246,0,342.3, -14.6, -0.5,0,0,1024,1024,1024,1024,0,0,0,0,0,0,0,39,,,,,,,9.362,109.76,729.67684815281,23.293964,14,Waypoint,
426900,2023-10-12 21:49:40,40.0689143706039,-88.2097014629618,23.293964,,,729.67684815281,20.669292,7.2253162,7.6409779348,9.4661420352,26,10,20.963,730.33301615281,23.950132,7.2253162,7.6409779348,6.934514,-2.013246,0,342.4, -14.1, -0.6,0,0,1024,1024,1024,1024,0,0,0,0,0,0,0,39,,,,,,,9.362,109.76,729.67684815281,23.293964,14,Waypoint,
427000,2023-10-12 21:49:40,40.068917405044,-88.2097026300288,22.96588,,,729.34876415281,20.669292,7.9187676,8.7948493628,10.6202103136,26,10,20.963,730.33301615281,23.950132,7.9187676,8.7948493628,7.605596,-2.23694,0,342.5, -13, -0.8,0,0,1024,1024,1024,1024,0,0,0,0,0,0,0,39,,,,,,,9.362,109.76,729.34876415281,22.96588,14,Waypoint,
427100,2023-10-12 21:49:40,40.0689205054075,-88.2097038097651,22.96588,,,729.34876415281,20.669292,8.4108944,9.9728677732,11.7983599576,26,10,20.963,730.33301615281,23.950132,8.4108944,9.9728677732,8.052984,-2.460634,0,342.5, -11.9, -1.2,0,0,1024,1024,1024,1024,0,0,0,0,0,0,0,39,,,,,,,9.362,109.76,729.34876415281,22.96588,14,Waypoint,
427200,2023-10-12 21:49:40,40.0689239149407,-88.2097051281608,22.96588,,,729.34876415281,20.669292,8.8582824,11.2699478672,13.095636902,26,10,20.963,730.33301615281,23.950132,8.8582824,11.2699478672,8.500372,-2.460634,0,342.5, -11, -1.2,0,0,1024,1024,1024,1024,0,0,0,0,0,0,0,40,,,,,,,9.362,109.76,729.34876415281,22.96588,14,Waypoint,
427300,2023-10-12 21:49:40,40.068927338183,-88.2097064504467,22.96588,,,729.34876415281,20.669292,9.3504092,12.5722116884,14.3980319568,26,10,20.95,730.33301615281,23.950132,9.3504092,12.5722116884,8.94776,-2.684328,0,342.4, -10.1, -1.2,0,0,1024,1024,1024,1024,0,0,0,0,0,0,0,39,,,,,,,9.84,109.76,729.34876415281,22.96588,14,Waypoint,
427400,2023-10-12 21:49:41,40.0689310804104,-88.2097078947068,22.96588,,,729.34876415281,20.669292,9.5517338,13.995735356,15.821686858,26,10,20.95,730.33301615281,23.950132,9.5517338,13.995735356,9.171454,-2.684328,0,342.2, -9.3, -1.3,0,0,1024,1024,1024,1024,0,0,0,0,0,0,0,39,,,,,,,9.84,109.76,729.34876415281,22.96588,14,Waypoint,
427500,2023-10-12 21:49:41,40.0689348698213,-88.2097093423252,22.96588,,,729.34876415281,20.669292,10.0438606,15.4361225412,17.26213966,26,10,20.95,730.33301615281,23.950132,10.0438606,15.4361225412,9.618842,-2.908022,0,342.1, -8.4, -1.6,0,0,1024,1024,1024,1024,0,0,0,0,0,0,0,39,,,,,,,9.84,109.76,729.34876415281,22.96588,14,Waypoint,
427600,2023-10-12 21:49:41,40.0689388890847,-88.2097109014874,22.96588,,,729.34876415281,20.669292,10.2675546,16.9656829576,18.7917985016,26,10,20.95,730.33301615281,23.950132,10.2675546,16.9656829576,9.842536,-2.908022,0,341.9, -7.1, -1.9,0,0,1024,1024,1024,1024,0,0,0,0,0,0,0,39,,,,,,,9.84,109.76,729.34876415281,22.96588,14,Waypoint,
427700,2023-10-12 21:49:41,40.0689428298424,-88.2097124266914,22.96588,,,729.34876415281,20.669292,10.5359874,18.4651252628,20.291339232,26,10,20.95,730.33301615281,23.950132,10.5359874,18.4651252628,10.06623,-3.131716,0,341.8, -5.5, -2,0,0,1024,1024,1024,1024,0,0,0,0,0,0,0,39,,,,,,,9.84,109.76,729.34876415281,22.96588,14,Waypoint,
427800,2023-10-12 21:49:41,40.0689471207276,-88.2097140816833,22.96588,,,729.34876415281,20.669292,10.7596814,20.0973431628,21.9236227488,26,10,20.95,730.33301615281,23.950132,10.7596814,20.0973431628,10.289924,-3.131716,0,341.7, -3.3, -2,0,0,1024,1024,1024,1024,0,0,0,0,0,0,0,39,,,,,,,9.84,109.76,729.34876415281,22.96588,14,Waypoint,
427900,2023-10-12 21:49:41,40.068951179004,-88.2097156720052,22.96588,,,729.34876415281,20.669292,10.7596814,21.643045312,23.4694233232,26,10,20.95,730.33301615281,23.950132,10.7596814,21.643045312,10.289924,-3.131716,0,341.7, -1.2, -1.9,0,0,1024,1024,1024,1024,0,0,0,0,0,0,0,39,,,,,,,9.84,109.76,729.34876415281,22.96588,14,Waypoint,
428000,2023-10-12 21:49:41,40.0689554387876,-88.2097173533992,22.96588,,,729.34876415281,20.669292,10.7596814,23.2664377524,25.0929798056,26,10,20.95,730.33301615281,23.950132,10.7596814,23.2664377524,10.289924,-3.131716,0,341.6, 0.6, -1.6,0,0,1024,1024,1024,1024,0,0,0,0,0,0,0,39,,,,,,,9.84,109.76,729.34876415281,22.96588,14,Waypoint,
428100,2023-10-12 21:49:41,40.0689594825263,-88.2097189533651,22.96588,,,729.34876415281,19.68504,10.7596814,24.8078091928,26.6344824796,26,10,20.95,730.33301615281,23.950132,10.7596814,24.8078091928,10.289924,-3.131716,0,341.6, 1.5, -1.4,0,0,1024,1024,1024,1024,0,0,0,0,0,0,0,39,,,,,,,9.84,109.76,729.34876415281,22.96588,14,Waypoint,
428200,2023-10-12 21:49:41,40.0689638362658,-88.2097206257979,22.96588,,,729.34876415281,19.68504,10.5359874,26.4634522904,28.2901583856,26,10,20.95,730.33301615281,23.950132,10.7596814,26.4634522904,10.06623,-3.131716,0,341.6, 2.2, -1.4,0,0,1024,1024,1024,1024,0,0,0,0,0,0,0,40,,,,,,,9.84,109.76,729.34876415281,22.96588,14,Waypoint,
428300,2023-10-12 21:49:41,40.0689675629618,-88.2097220811657,22.96588,,,729.34876415281,19.68504,10.5359874,27.8825140156,29.7092529192,26,10,20.95,730.33301615281,23.950132,10.7596814,27.8825140156,10.06623,-3.131716,0,341.6, 3.1, -1.6,0,0,1024,1024,1024,1024,0,0,0,0,0,0,0,40,,,,,,,9.84,109.76,729.34876415281,22.96588,14,Waypoint,
428400,2023-10-12 21:49:42,40.0689713853142,-88.209723568667,22.96588,,,729.34876415281,19.356956,10.3346628,29.3375665556,31.164371076,26,10,20.95,730.33301615281,23.950132,10.7596814,29.3375665556,9.842536,-3.131716,0,341.6, 4.1, -1.7,0,0,1024,1024,1024,1024,0,0,0,0,0,0,0,40,,,,,,,9.84,109.76,729.34876415281,22.96588,14,Waypoint,
428500,2023-10-12 21:49:42,40.0689753081589,-88.2097250220365,22.96588,,,729.34876415281,19.356956,10.1109688,30.8251978368,32.6520351656,26,10,20.95,730.33301615281,23.950132,10.7596814,30.8251978368,9.618842,-3.131716,0,341.5, 5.5, -1.5,0,0,1024,1024,1024,1024,0,0,0,0,0,0,0,40,,,,,,,9.84,109.76,729.34876415281,22.96588,14,Waypoint,
428600,2023-10-12 21:49:42,40.0689793329308,-88.2097266117427,22.96588,,,729.34876415281,19.028872,9.842536,32.3591545788,34.186024716,26,10,20.95,730.33301615281,23.950132,10.7596814,32.3591545788,9.395148,-2.908022,0,341.5, 7.4, -1.4,0,0,1024,1024,1024,1024,0,0,0,0,0,0,0,40,,,,,,,9.84,109.76,729.34876415281,22.96588,14,Waypoint,
428700,2023-10-12 21:49:42,40.0689830463698,-88.2097280767041,22.96588,,,729.34876415281,19.028872,9.4175174,33.774279296,35.601379092,26,10,20.95,730.33301615281,23.950132,10.7596814,33.774279296,8.94776,-2.908022,0,341.5, 9.4, -1.3,0,0,1024,1024,1024,1024,0,0,0,0,0,0,0,40,,,,,,,9.84,109.76,729.34876415281,22.96588,14,Waypoint,
428800,2023-10-12 21:49:42,40.068986792808,-88.2097295543096,22.96588,,,729.34876415281,19.028872,9.1938234,35.202100864,37.02920066,26,10,20.95,730.33301615281,23.950132,10.7596814,35.202100864,8.724066,-2.908022,0,341.4, 11.2, -1.2,0,0,1024,1024,1024,1024,0,0,0,0,0,0,0,40,,,,,,,9.84,109.76,729.34876415281,22.96588,14,Waypoint,
428900,2023-10-12 21:49:42,40.0689904019297,-88.2097309533863,22.96588,,,729.34876415281,19.356956,9.1938234,36.575460488,38.402560284,26,10,20.95,730.33301615281,23.950132,10.7596814,36.575460488,8.052984,-2.684328,0,341.4, 13, -1.1,0,0,1024,1024,1024,1024,0,0,0,0,0,0,0,40,,,,,,,9.84,109.76,729.34876415281,22.96588,14,Waypoint,
429000,2023-10-12 21:49:42,40.068993747401,-88.2097322753896,22.96588,,,729.34876415281,19.028872,7.9858758,37.850722996,39.677822792,26,10,20.95,730.33301615281,23.950132,10.7596814,37.850722996,7.605596,-2.460634,0,341.3, 14.6, -1.1,0,0,1024,1024,1024,1024,0,0,0,0,0,0,0,40,,,,,,,9.84,109.76,729.34876415281,22.96588,14,Waypoint,
429100,2023-10-12 21:49:42,40.0689966962146,-88.2097334438336,22.96588,,,729.34876415281,19.356956,7.493749,38.97473878,40.80216666,26,10,20.95,730.33301615281,23.950132,10.7596814,38.97473878,7.158208,-2.23694,0,341.2, 15.9, -0.9,0,0,1024,1024,1024,1024,0,0,0,0,0,0,0,40,,,,,,,9.84,109.76,729.34876415281,22.96588,14,Waypoint,
429200,2023-10-12 21:49:42,40.0689996150359,-88.2097345972267,22.96588,,,729.34876415281,19.356956,6.8002976,40.087271624,41.914699504,26,10,20.95,730.33301615281,23.950132,10.7596814,40.087271624,6.487126,-2.013246,0,341.2, 17.1, -0.9,0,0,1024,1024,1024,1024,0,0,0,0,0,0,0,40,,,,,,,9.84,109.76,729.34876415281,22.96588,14,Waypoint,
429300,2023-10-12 21:49:42,40.069002071047,-88.2097355392695,22.637796,,,729.02068015281,19.68504,6.8002976,41.021326772,42.848426568,26,10,20.927,730.33301615281,23.950132,10.7596814,41.021326772,5.816044,-1.789552,0,341.2, 17.8, -1,0,0,1024,1024,1024,1024,0,0,0,0,0,0,0,39,,,,,,,9.362,109.76,729.02068015281,22.637796,14,Waypoint,
429400,2023-10-12 21:49:43,40.0690043958669,-88.2097364071382,22.637796,,,729.02068015281,19.68504,5.368656,41.903216564,43.730644444,26,10,20.927,730.33301615281,23.950132,10.7596814,41.903216564,5.144962,-1.565858,0,341.2, 18.3, -1.2,0,0,1024,1024,1024,1024,0,0,0,0,0,0,0,39,,,,,,,9.362,109.76,729.02068015281,22.637796,14,Waypoint,
429500,2023-10-12 21:49:43,40.0690063384553,-88.2097371073482,22.637796,,,729.02068015281,19.68504,4.6752046,42.638452808,44.465880688,26,10,20.927,730.33301615281,23.950132,10.7596814,42.638452808,4.47388,-1.342164,0,341.2, 18.5, -1.4,0,0,1024,1024,1024,1024,0,0,0,0,0,0,0,39,,,,,,,9.362,109.76,729.02068015281,22.637796,14,Waypoint,
429600,2023-10-12 21:49:43,40.0690081441899,-88.2097377525154,22.637796,,,729.02068015281,19.68504,3.9593838,43.321523696,45.148951576,26,10,20.927,730.33301615281,23.950132,10.7596814,43.321523696,3.802798,-1.11847,0,341.3, 18.8, -1.9,0,0,1024,1024,1024,1024,0,0,0,0,0,0,0,39,,,,,,,9.362,109.76,729.02068015281,22.637796,14,Waypoint,
429700,2023-10-12 21:49:43,40.0690095535152,-88.2097382322293,22.637796,,,729.02068015281,19.68504,3.2659324,43.852691692,45.680119572,26,10,20.927,730.33301615281,23.950132,10.7596814,43.852691692,3.131716,-0.894776,0,341.3, 18.6, -2.1,0,0,1024,1024,1024,1024,0,0,0,0,0,0,0,39,,,,,,,9.362,109.76,729.02068015281,22.637796,14,Waypoint,
429800,2023-10-12 21:49:43,40.0690107724272,-88.2097386240503,22.637796,,,729.02068015281,19.68504,2.5501116,44.310040788,46.138124836,26,10,20.927,730.33301615281,23.950132,10.7596814,44.310040788,2.460634,-0.671082,0,341.5, 18.1, -2.3,0,0,1024,1024,1024,1024,0,0,0,0,0,0,0,39,,,,,,,9.362,109.76,729.02068015281,22.637796,14,Waypoint,
429900,2023-10-12 21:49:43,40.0690116280746,-88.209738923344,22.637796,,,729.02068015281,19.68504,2.5501116,44.633203528,46.461287576,26,10,20.927,730.33301615281,23.950132,10.7596814,44.633203528,1.789552,-0.447388,0,341.7, 17.2, -2.5,0,0,1024,1024,1024,1024,0,0,0,0,0,0,0,39,,,,,,,9.362,109.76,729.02068015281,22.637796,14,Waypoint,
430000,2023-10-12 21:49:43,40.0690123398863,-88.2097391223022,22.637796,,,729.02068015281,19.68504,1.1408394,44.897967316,46.727035616,26,10,20.927,730.33301615281,23.950132,10.7596814,44.897967316,1.11847,-0.223694,0,341.8, 15.4, -2.8,0,0,1024,1024,1024,1024,0,0,0,0,0,0,0,39,,,,,,,9.362,109.76,729.02068015281,22.637796,14,Waypoint,
430100,2023-10-12 21:49:43,40.0690127792666,-88.2097392749771,22.637796,,,729.02068015281,20.013124,0.7158208,45.06397782,46.892718036,26,10,20.927,730.33301615281,23.950132,10.7596814,45.06397782,0.671082,-0.223694,0,341.9, 13.8, -2.9,0,0,1024,1024,1024,1024,0,0,0,0,0,0,0,39,,,,,,,9.362,109.76,729.02068015281,22.637796,14,Waypoint,
430200,2023-10-12 21:49:43,40.0690130676664,-88.2097393885723,22.637796,,,729.02068015281,20.013124,0.223694,45.17388596,47.002626176,26,10,20.927,730.33301615281,23.950132,10.7596814,45.17388596,0.223694,0,0,341.8, 12.5, -1.9,0,0,1024,1024,1024,1024,0,0,0,0,0,0,0,40,,,,,,,9.362,109.76,729.02068015281,22.637796,14,Waypoint,
430300,2023-10-12 21:49:43,40.0690130736118,-88.2097394527611,22.637796,,,729.02068015281,20.013124,0,45.180775724,47.020670796,26,10,20.916,730.33301615281,23.950132,10.7596814,45.180775724,0,0,0,341.9, 11.1, -1.2,0,0,1024,1024,1024,1024,0,0,0,0,0,0,0,39,,,,,,,10.618,109.76,729.02068015281,22.637796,14,Waypoint,
430400,2023-10-12 21:49:44,40.0690130845945,-88.2097394211761,22.637796,,,729.02068015281,19.68504,0.223694,45.182416144,47.030513316,26,10,20.916,730.33301615281,23.950132,10.7596814,45.182416144,-0.223694,0,0.223694,341.9, 10, -1.3,0,0,1024,1024,1024,1024,0,0,0,0,0,0,0,39,,,,,,,10.618,109.76,729.02068015281,22.637796,14,Waypoint,
430500,2023-10-12 21:49:44,40.0690129738607,-88.2097393345594,22.637796,,,729.02068015281,19.68504,0.4921268,45.136812468,47.077429328,26,10,20.916,730.33301615281,23.950132,10.7596814,45.182416144,-0.447388,0.223694,0.447388,342, 8.8, -1.7,0,0,1024,1024,1024,1024,0,0,0,0,0,0,0,39,,,,,,,10.618,109.76,729.02068015281,22.637796,14,Waypoint,
430600,2023-10-12 21:49:44,40.0690126746583,-88.2097391943719,22.637796,,,729.02068015281,19.68504,0.7158208,45.020998816,47.193571064,26,10,20.916,730.33301615281,23.950132,10.7596814,45.182416144,-0.671082,0.223694,0.671082,342.1, 7.9, -2.2,0,0,1024,1024,1024,1024,0,0,0,0,0,0,0,39,,,,,,,10.618,109.76,729.02068015281,22.637796,14,Waypoint,
430700,2023-10-12 21:49:44,40.0690124040689,-88.2097390531265,22.309712,,,728.69259615281,19.356956,0.9171454,44.915355768,47.29987028,26,10,20.916,730.33301615281,23.950132,10.7596814,45.182416144,-0.894776,0.223694,0.894776,342.2, 6.9, -2.5,0,0,1024,1024,1024,1024,0,0,0,0,0,0,0,39,,,,,,,10.618,109.76,728.69259615281,22.309712,14,Waypoint,
430800,2023-10-12 21:49:44,40.069012076305,-88.2097388985934,22.309712,,,728.69259615281,19.356956,0.9171454,44.78838726,47.426838788,26,10,20.916,730.33301615281,23.950132,10.7596814,45.182416144,-0.894776,0.223694,1.342164,342.3, 6.2, -2.5,0,0,1024,1024,1024,1024,0,0,0,0,0,0,0,39,,,,,,,10.618,109.76,728.69259615281,22.309712,14,Waypoint,
430900,2023-10-12 21:49:44,40.0690117146681,-88.2097387539785,21.981628,,,728.36451215281,19.356956,1.1408394,44.650263896,47.564962152,26,10,20.916,730.33301615281,23.950132,10.7596814,45.182416144,-1.11847,0.223694,1.565858,342.4, 5.6, -2.4,0,0,1024,1024,1024,1024,0,0,0,0,0,0,0,39,,,,,,,10.618,109.76,728.36451215281,21.981628,14,Waypoint,
431000,2023-10-12 21:49:44,40.0690111596967,-88.209738607662,21.653544,,,728.03642815281,19.028872,1.1408394,44.444555228,47.771326988,26,10,20.916,730.33301615281,23.950132,10.7596814,45.182416144,-1.11847,0.223694,1.789552,342.5, 5.2, -2.2,0,0,1024,1024,1024,1024,0,0,0,0,0,0,0,39,,,,,,,10.618,109.76,728.03642815281,21.653544,14,Waypoint,
431100,2023-10-12 21:49:44,40.0690107042539,-88.209738475165,21.32546,,,727.70834415281,18.700788,1.1408394,44.274607716,47.941602584,26,10,20.916,730.33301615281,23.950132,10.7596814,45.182416144,-1.11847,0.223694,1.789552,342.6, 4.7, -1.9,0,0,1024,1024,1024,1024,0,0,0,0,0,0,0,39,,,,,,,10.618,109.76,727.70834415281,21.32546,14,Waypoint,
431200,2023-10-12 21:49:44,40.0690102119055,-88.2097383456457,20.997376,,,727.38026015281,18.700788,1.1408394,44.092193012,48.12500154,26,10,20.916,730.33301615281,23.950132,10.7596814,45.182416144,-1.11847,0.223694,2.013246,342.5, 4.2, -1.7,0,0,1024,1024,1024,1024,0,0,0,0,0,0,0,40,,,,,,,10.618,109.76,727.38026015281,20.997376,14,Waypoint,
431300,2023-10-12 21:49:44,40.0690095816923,-88.2097382348603,20.997376,,,727.38026015281,18.372704,1.1408394,43.862534212,48.356956928,26,10,20.9475,730.33301615281,23.950132,10.7596814,45.182416144,-1.11847,0.223694,2.013246,342.5, 3.9, -1.4,0,0,1024,1024,1024,1024,0,0,0,0,0,0,0,39,,,,,,,8.255,109.76,727.38026015281,20.997376,14,Waypoint,
431400,2023-10-12 21:49:45,40.0690090634551,-88.2097381182202,20.669292,,,727.05217615281,18.04462,1.1408394,43.671917408,48.548886068,26,10,20.9475,730.33301615281,23.950132,10.7596814,45.182416144,-1.11847,0.223694,2.013246,342.5, 3.6, -1.3,0,0,1024,1024,1024,1024,0,0,0,0,0,0,0,39,,,,,,,8.255,109.76,727.05217615281,20.669292,14,Waypoint,
431500,2023-10-12 21:49:45,40.0690085398552,-88.2097380028675,20.341208,,,726.72409215281,17.388452,1.1408394,43.479660184,48.742455628,26,10,20.9475,730.33301615281,23.950132,10.7596814,45.182416144,-1.11847,0.223694,1.789552,342.4, 3.6, -1.1,0,0,1024,1024,1024,1024,0,0,0,0,0,0,0,39,,,,,,,8.255,109.76,726.72409215281,20.341208,14,Waypoint,
431600,2023-10-12 21:49:45,40.0690079932621,-88.2097378715291,20.013124,,,726.39600815281,17.060368,1.1408394,43.277888524,48.94521154,26,10,20.9475,730.33301615281,23.950132,10.7596814,45.182416144,-1.11847,0.223694,1.789552,342.4, 3.8, -1.1,0,0,1024,1024,1024,1024,0,0,0,0,0,0,0,39,,,,,,,8.255,109.76,726.39600815281,20.013124,14,Waypoint,
431700,2023-10-12 21:49:45,40.0690073696796,-88.2097377301662,19.68504,,,726.06792415281,16.732284,1.1408394,43.048557808,49.176182676,26,10,20.9475,730.33301615281,23.950132,10.7596814,45.182416144,-1.11847,0.223694,1.565858,342.4, 3.8, -1.2,0,0,1024,1024,1024,1024,0,0,0,0,0,0,0,39,,,,,,,8.255,109.76,726.06792415281,19.68504,14,Waypoint,
431800,2023-10-12 21:49:45,40.0690068285349,-88.2097375655525,19.356956,,,725.73984015281,16.4042,1.1408394,42.84612998,49.378938588,26,10,20.9475,730.33301615281,23.950132,10.7596814,45.182416144,-1.11847,0.223694,1.342164,342.3, 3.5, -1.2,0,0,1024,1024,1024,1024,0,0,0,0,0,0,0,39,,,,,,,8.255,109.76,725.73984015281,19.356956,14,Waypoint,
431900,2023-10-12 21:49:45,40.0690063206293,-88.2097374011403,19.356956,,,725.73984015281,16.076116,1.1408394,42.655185092,49.569883476,26,10,20.9475,730.33301615281,23.950132,10.7596814,45.182416144,-1.11847,0.223694,0.894776,342.3, 3.1, -1.2,0,0,1024,1024,1024,1024,0,0,0,0,0,0,0,39,,,,,,,8.255,109.76,725.73984015281,19.356956,14,Waypoint,
432000,2023-10-12 21:49:45,40.0690057773772,-88.2097372239776,19.028872,,,725.41175615281,16.076116,1.1408394,42.451116844,49.774279808,26,10,20.9475,730.33301615281,23.950132,10.7596814,45.182416144,-1.11847,0.223694,0.671082,342.1, 2.8, -1.4,0,0,1024,1024,1024,1024,0,0,0,0,0,0,0,39,,,,,,,8.255,109.76,725.41175615281,19.028872,14,Waypoint,
432100,2023-10-12 21:49:45,40.069005296097,-88.2097370898071,19.028872,,,725.41175615281,15.748032,1.1408394,42.272311064,49.953741756,26,10,20.9475,730.33301615281,23.950132,10.7596814,45.182416144,-1.11847,0.223694,0.223694,342.1, 2.6, -1.5,0,0,1024,1024,1024,1024,0,0,0,0,0,0,0,39,,,,,,,8.255,109.76,725.41175615281,19.028872,14,Waypoint,
432200,2023-10-12 21:49:45,40.06900479597,-88.2097369673795,19.028872,,,725.41175615281,15.748032,1.1408394,42.087599772,50.1394373,26,10,20.9475,730.33301615281,23.950132,10.7596814,45.182416144,-1.11847,0.223694,0.223694,338.8, 2.8, -0.9,0,0,1024,1024,1024,1024,0,0,0,0,0,0,0,40,,,,,,,8.255,109.76,725.41175615281,19.028872,14,Waypoint,
432300,2023-10-12 21:49:45,40.0690043065171,-88.2097368592583,19.028872,,,725.41175615281,15.748032,1.1408394,41.90780974,50.320539668,26,10,20.8905,730.33301615281,23.950132,10.7596814,45.182416144,-1.11847,0.223694,0,332, 2.6, 0.1,0,0,1024,1024,1024,1024,0,0,0,0,0,0,0,39,,,,,,,11.425,109.76,725.41175615281,19.028872,14,Waypoint,
432400,2023-10-12 21:49:46,40.0690038026464,-88.2097367437153,19.028872,,,725.41175615281,15.748032,1.1408394,41.722114196,50.507219464,26,10,20.8905,730.33301615281,23.950132,10.7596814,45.182416144,-1.11847,0.223694,0,324.3, 2.3, 0.3,0,0,1024,1024,1024,1024,0,0,0,0,0,0,0,39,,,,,,,11.425,109.76,725.41175615281,19.028872,14,Waypoint,
432500,2023-10-12 21:49:46,40.0690033689974,-88.2097365445333,19.028872,,,725.41175615281,16.076116,0.9171454,41.554791356,50.674870388,26,10,20.8905,730.33301615281,23.950132,10.7596814,45.182416144,-0.894776,0.223694,0,316.2, 1.7, -0.3,0,0,1024,1024,1024,1024,0,0,0,0,0,0,0,39,,,,,,,11.425,109.76,725.41175615281,19.028872,14,Waypoint,
432600,2023-10-12 21:49:46,40.0690029483612,-88.2097363064898,19.028872,,,725.41175615281,16.4042,1.006623,41.388780852,50.842193228,26,10,20.8905,730.33301615281,23.950132,10.7596814,45.182416144,-0.894776,0.447388,-0.223694,308, 0.8, -1.7,0,0,1024,1024,1024,1024,0,0,0,0,0,0,0,39,,,,,,,11.425,109.76,725.41175615281,19.028872,14,Waypoint,
432700,2023-10-12 21:49:46,40.0690024674408,-88.209736090936,19.028872,,,725.41175615281,16.4042,1.006623,41.203413392,51.027560688,26,10,20.8905,730.33301615281,23.950132,10.7596814,45.182416144,-0.894776,0.447388,-0.223694,299.6, 0, -2.7,0,0,1024,1024,1024,1024,0,0,0,0,0,0,0,39,,,,,,,11.425,109.76,725.41175615281,19.028872,14,Waypoint,
432800,2023-10-12 21:49:46,40.0690020443974,-88.2097358843544,19.356956,,,725.73984015281,16.732284,0.7158208,41.039043308,51.192258856,26,10,20.8905,730.33301615281,23.950132,10.7596814,45.182416144,-0.671082,0.223694,-0.223694,291.2, -0.4, -3.1,0,0,1024,1024,1024,1024,0,0,0,0,0,0,0,39,,,,,,,11.425,109.76,725.73984015281,19.356956,14,Waypoint,
432900,2023-10-12 21:49:46,40.0690017164364,-88.2097356853235,19.356956,,,725.73984015281,16.732284,0.7158208,40.908465876,51.324148624,26,10,20.8905,730.33301615281,23.950132,10.7596814,45.182416144,-0.671082,0.223694,-0.223694,282.5, -0.3, -2.9,0,0,1024,1024,1024,1024,0,0,0,0,0,0,0,39,,,,,,,11.425,109.76,725.73984015281,19.356956,14,Waypoint,
433000,2023-10-12 21:49:46,40.0690014014968,-88.2097355013771,19.356956,,,725.73984015281,17.060368,0.7158208,40.783793956,51.45013288,26,10,20.8905,730.33301615281,23.950132,10.7596814,45.182416144,-0.671082,0.223694,0,273.9, 0, -2.7,0,0,1024,1024,1024,1024,0,0,0,0,0,0,0,39,,,,,,,11.425,109.76,725.73984015281,19.356956,14,Waypoint,
433100,2023-10-12 21:49:46,40.0690012241993,-88.2097352629586,19.356956,,,725.73984015281,17.060368,0.4921268,40.703085292,51.542980652,26,10,20.8905,730.33301615281,23.950132,10.7596814,45.182416144,-0.447388,0.223694,0,265.1, 0.2, -2.4,0,0,1024,1024,1024,1024,0,0,0,0,0,0,0,39,,,,,,,11.425,109.76,725.73984015281,19.356956,14,Waypoint,
433200,2023-10-12 21:49:46,40.069001019274,-88.2097350766222,19.356956,,,725.73984015281,17.388452,0.4921268,40.6167992,51.63385992,26,10,20.8905,730.33301615281,23.950132,10.7596814,45.182416144,-0.447388,0.223694,0,256.3, 0.2, -2.2,0,0,1024,1024,1024,1024,0,0,0,0,0,0,0,40,,,,,,,11.425,109.76,725.73984015281,19.356956,14,Waypoint,
433300,2023-10-12 21:49:46,40.0690008397919,-88.2097348590029,19.356956,,,725.73984015281,17.388452,0.3131716,40.536746704,51.723426852,26,10,20.8905,730.33301615281,23.950132,10.7596814,45.182416144,-0.223694,0.223694,0,247.4, 0.1, -2.2,0,0,1024,1024,1024,1024,0,0,0,0,0,0,0,40,,,,,,,11.425,109.76,725.73984015281,19.356956,14,Waypoint,
433400,2023-10-12 21:49:47,40.0690007076669,-88.2097345401527,19.356956,,,725.73984015281,17.388452,0.3131716,40.465552476,51.824476724,26,10,20.8905,730.33301615281,23.950132,10.7596814,45.182416144,-0.223694,0.223694,0,238.5, -0.4, -2.7,0,0,1024,1024,1024,1024,0,0,0,0,0,0,0,40,,,,,,,11.425,109.76,725.73984015281,19.356956,14,Waypoint,
