time(millisecond),datetime(utc),latitude,longitude,height_above_takeoff(feet),height_above_ground_at_drone_location(feet),ground_elevation_at_drone_location(feet),altitude_above_seaLevel(feet),height_sonar(feet),speed(mph),distance(feet),mileage(feet),satellites,gpslevel,voltage(v),max_altitude(feet),max_ascent(feet),max_speed(mph),max_distance(feet), xSpeed(mph), ySpeed(mph), zSpeed(mph), compass_heading(degrees), pitch(degrees), roll(degrees),isPhoto,isVideo,rc_elevator,rc_aileron,rc_throttle,rc_rudder,rc_elevator(percent),rc_aileron(percent),rc_throttle(percent),rc_rudder(percent),gimbal_heading(degrees),gimbal_pitch(degrees),gimbal_roll(degrees),battery_percent,voltageCell1,voltageCell2,voltageCell3,voltageCell4,voltageCell5,voltageCell6,current(A),battery_temperature(f),altitude(feet),ascent(feet),flycStateRaw,flycState,message
182100,2023-10-12 22:14:49,40.0689029303899,-88.2096895788756,0,Available with any HD 360 subscription,Available with any HD 360 subscription,706.4096170933,0.656168,0,0,0,28,10,0,706.4096170933,0,0,0,0,0,0,7.6, -0.6, -2,0,0,1024,1024,1024,1024,0,0,0,0,0,0,0,29,,,,,,,0,109.4,706.4096170933,0,41,Motors_Started,"GEO: You are in a Warning Zone (Airport). Fly with caution.. Setting new Return-To-Home altitude to 100m (328 ft). Data Recorder File Index is 47. Setting new Maximum Flight Altitude to 120m (394 ft)"
182200,2023-10-12 22:14:49,40.0689029278306,-88.2096895860396,0,,,706.4096170933,0.656168,0,0.00248805126072,0.00220746726224,28,10,0,706.4096170933,0,0,0.00248805126072,0,0,0,7.6, -0.6, -2,0,0,1024,1024,1024,1024,0,0,0,0,0,0,0,29,,,,,,,0,109.4,706.4096170933,0,41,Motors_Started,"Home Point recorded. Return-to-Home Altitude:100.0 m"
182300,2023-10-12 22:14:50,40.0689029220888,-88.209689585262,0,,,706.4096170933,0.656168,0,0.0042897967252,0.0043136156236,28,10,0,706.4096170933,0,0,0.0042897967252,0,0,0,7.7, -0.6, -2,0,0,1024,1024,1024,1024,0,0,0,0,0,0,0,29,,,,,,,0,109.4,706.4096170933,0,41,Motors_Started,
182400,2023-10-12 22:14:50,40.0689029216626,-88.2096895924598,0,,,706.4096170933,0.656168,0,0.0053640421664,0.0063292981028,28,10,0,706.4096170933,0,0,0.0053640421664,0,0,0,7.6, -0.6, -2,0,0,1024,1024,1024,1024,0,0,0,0,0,0,0,29,,,,,,,0,109.4,706.4096170933,0,41,Motors_Started,
182500,2023-10-12 22:14:50,40.0689029200135,-88.2096895965305,0,,,706.4096170933,0.656168,0,0.0065547574276,0.0076152889576,28,10,0,706.4096170933,0,0,0.0065547574276,0,0,0,7.6, -0.6, -2,0,0,1024,1024,1024,1024,0,0,0,0,0,0,0,29,,,,,,,0,109.4,706.4096170933,0,41,Motors_Started,
182600,2023-10-12 22:14:50,40.0689029324534,-88.2096896195457,0,,,706.4096170933,0.656168,0,0.0108288717376,0.0154825792356,28,10,0,706.4096170933,0,0,0.0108288717376,0,0,0,7.7, -0.6, -2,0,0,1024,1024,1024,1024,0,0,0,0,0,0,0,29,,,,,,,0,109.4,706.4096170933,0,41,Motors_Started,
182700,2023-10-12 22:14:50,40.0689029311738,-88.2096896161734,0,,,706.4096170933,0.656168,0,0.0099139110784,0.0165335635212,28,10,0,706.4096170933,0,0,0.0108288717376,0,0,0,7.7, -0.6, -2,0,0,1024,1024,1024,1024,0,0,0,0,0,0,0,29,,,,,,,0,109.4,706.4096170933,0,41,Motors_Started,
182800,2023-10-12 22:14:50,40.0689029267201,-88.2096896088774,0,,,706.4096170933,0.656168,0,0.0082082023624,0.0191393706912,28,10,0,706.4096170933,0,0,0.0108288717376,0,0,0,7.6, -0.6, -2,0,0,1024,1024,1024,1024,0,0,0,0,0,0,0,29,,,,,,,0,109.4,706.4096170933,0,41,Motors_Started,
182900,2023-10-12 22:14:50,40.0689029460018,-88.2096896061952,0,,,706.4096170933,0.656168,0,0.0084687010584,0.0262140100252,28,10,0,706.4096170933,0,0,0.0108288717376,0,0,0,7.7, -0.5, -2,0,0,1024,1024,1024,1024,0,0,0,0,0,0,0,29,,,,,,,0,109.4,706.4096170933,0,41,Motors_Started,
183000,2023-10-12 22:14:50,40.0689029465682,-88.2096895994186,0,,,706.4096170933,0.656168,0,0.0070991472088,0.0281173237344,28,10,0,706.4096170933,0,0,0.0108288717376,0,0,0,7.7, -0.7, -2,0,0,1024,1024,1024,1024,0,0,0,0,0,0,0,29,,,,,,,0,109.4,706.4096170933,0,41,Motors_Started,
183100,2023-10-12 22:14:50,40.0689029399558,-88.2096895924399,0,,,706.4096170933,0.656168,0,0.0040541667964,0.0312184721276,28,10,0,706.4096170933,0,0,0.0108288717376,0,0,0,7.9, -0.5, -2,0,0,1024,1024,1024,1024,0,0,0,0,0,0,0,29,,,,,,,0,109.4,706.4096170933,0,41,Motors_Started,
183200,2023-10-12 22:14:50,40.0689029349025,-88.209689580546,0,,,706.4096170933,0.656168,0,0.0005756561864,0.035016733404,28,10,0,706.4096170933,0,0,0.0108288717376,0,0,0,7.8, -0.7, -2,0,0,1024,1024,1024,1024,0,0,0,0,0,0,0,29,,,,,,,0,109.4,706.4096170933,0,41,Motors_Started,
183300,2023-10-12 22:14:51,40.0689029212289,-88.2096895778521,0,,,706.4096170933,0.656168,0,0.0044917652356,0.040062009156,28,10,0,706.4096170933,0,0,0.0108288717376,0,0,0,7.7, -0.7, -2,0,0,1024,1024,1024,1024,0,0,0,0,0,0,0,29,,,,,,,0,109.4,706.4096170933,0,41,Motors_Started,
183400,2023-10-12 22:14:51,40.0689029178814,-88.2096895842404,0,,,706.4096170933,0.656168,0,0.0057204070072,0.042223754632,28,10,0,706.4096170933,0,0,0.0108288717376,0,0,0,7.7, -0.6, -2,0,0,1024,1024,1024,1024,0,0,0,0,0,0,0,29,,,,,,,0,109.4,706.4096170933,0,41,Motors_Started,
183500,2023-10-12 22:14:51,40.068902907688,-88.2096895846568,0,,,706.4096170933,0.656168,0,0.009419619724,0.045944555276,28,10,0,706.4096170933,0,0,0.0108288717376,0,0,0,7.6, -0.6, -2,0,0,1024,1024,1024,1024,0,0,0,0,0,0,0,29,,,,,,,0,109.4,706.4096170933,0,41,Motors_Started,
183600,2023-10-12 22:14:51,40.0689029130369,-88.2096895879454,0,,,706.4096170933,0.656168,0,0.0076712272796,0.048101379492,28,10,0,706.4096170933,0,0,0.0108288717376,0,0,0,7.6, -0.6, -2,0,0,1024,1024,1024,1024,0,0,0,0,0,0,0,29,,,,,,,0,109.4,706.4096170933,0,41,Motors_Started,
183700,2023-10-12 22:14:51,40.0689029084826,-88.2096895819329,0,,,706.4096170933,0.656168,0,0.0090730317864,0.050463256208,28,10,0,706.4096170933,0,0,0.0108288717376,0,0,0,7.6, -0.7, -2,0,0,1024,1024,1024,1024,0,0,0,0,0,0,0,29,,,,,,,0,109.4,706.4096170933,0,41,Motors_Started,
183800,2023-10-12 22:14:51,40.0689029069984,-88.2096895798957,0,,,706.4096170933,0.656168,0,0.0096119753732,0.051248689304,28,10,20.8385,706.4096170933,0,0,0.0108288717376,0,0,0,7.6, -0.7, -2,0,0,1024,1024,1024,1024,0,0,0,0,0,0,0,28,,,,,,,5.414,109.4,706.4096170933,0,41,Motors_Started,
183900,2023-10-12 22:14:51,40.0689029049681,-88.209689575992,0,,,706.4096170933,0.656168,0,0.0104354990216,0.052566602732,28,10,20.8385,706.4096170933,0,0,0.0108288717376,0,0,0,7.6, -0.7, -2,0,0,1024,1024,1024,1024,0,0,0,0,0,0,0,28,,,,,,,5.414,109.4,706.4096170933,0,41,Motors_Started,
184000,2023-10-12 22:14:51,40.0689029145125,-88.2096895893175,0,,,706.4096170933,0.656168,0,0.007269357188,0.057662731504,28,10,20.8385,706.4096170933,0,0,0.0108288717376,0,0,0,7.6, -0.6, -2,0,0,1024,1024,1024,1024,0,0,0,0,0,0,0,28,,,,,,,5.414,109.4,706.4096170933,0,41,Motors_Started,
184100,2023-10-12 22:14:51,40.0689029078401,-88.2096895870606,0,,,706.4096170933,0.656168,0,0.0094656499092,0.06017716728,28,10,20.8385,706.4096170933,0,0,0.0108288717376,0,0,0,7.6, -0.7, -2,0,0,1024,1024,1024,1024,0,0,0,0,0,0,0,29,,,,,,,5.414,109.4,706.4096170933,0,11,AutoTakeoff,
184200,2023-10-12 22:14:51,40.0689028944171,-88.2096895839303,0,,,706.4096170933,0.656168,0,0.0142263455996,0.065151904972,28,10,20.8385,706.4096170933,0,0,0.0142263455996,0,0,0,7.6, -0.7, -2,0,0,1024,1024,1024,1024,0,0,0,0,0,0,0,29,,,,,,,5.414,109.4,706.4096170933,0,11,AutoTakeoff,
184300,2023-10-12 22:14:52,40.0689028931139,-88.2096895931868,0,,,706.4096170933,0.656168,0,0.0150779860468,0.067779857812,28,10,20.8385,706.4096170933,0,0,0.0150779860468,0,0,0,7.6, -0.7, -2,0,0,1024,1024,1024,1024,0,0,0,0,0,0,0,29,,,,,,,5.414,109.4,706.4096170933,0,11,AutoTakeoff,
184400,2023-10-12 22:14:52,40.068902885846,-88.209689581136,0,,,706.4096170933,0.656168,0,0.0173265097408,0.072063978684,28,10,20.8385,706.4096170933,0,0,0.0173265097408,0,0,0,7.6, -0.6, -2,0,0,1024,1024,1024,1024,0,0,0,0,0,0,0,29,,,,,,,5.414,109.4,706.4096170933,0,11,AutoTakeoff,
184500,2023-10-12 22:14:52,40.0689028850665,-88.2096895707328,0,,,706.4096170933,0.656168,0,0.0178326449276,0.074982285864,28,10,20.8385,706.4096170933,0,0,0.0178326449276,0,0,0,7.6, -0.6, -2,0,0,1024,1024,1024,1024,0,0,0,0,0,0,0,29,,,,,,,5.414,109.4,706.4096170933,0,11,AutoTakeoff,
184600,2023-10-12 22:14:52,40.0689028891839,-88.2096895616101,0,,,706.4096170933,0.656168,0,0.0169742787584,0.07793963504,28,10,20.8385,706.4096170933,0,0,0.0178326449276,0,0,0,7.6, -0.6, -2,0,0,1024,1024,1024,1024,0,0,0,0,0,0,0,29,,,,,,,5.414,109.4,706.4096170933,0,11,AutoTakeoff,
184700,2023-10-12 22:14:52,40.0689029078112,-88.2096895573514,0,,,706.4096170933,0.656168,0,0.0113799872408,0.084838913476,28,10,20.8385,706.4096170933,0,0,0.0178326449276,0,0,0,7.6, -0.6, -2,0,0,1024,1024,1024,1024,0,0,0,0,0,0,0,29,,,,,,,5.414,109.4,706.4096170933,0,11,AutoTakeoff,
184800,2023-10-12 22:14:52,40.0689029075852,-88.2096895471514,0,,,706.4096170933,0.656168,0,0.0132820870392,0.087687994932,28,10,20.893,706.4096170933,0,0,0.0178326449276,0,0,0,7.6, -0.5, -2,0,0,1024,1024,1024,1024,0,0,0,0,0,0,0,28,,,,,,,0.927,109.4,706.4096170933,0,11,AutoTakeoff,
184900,2023-10-12 22:14:52,40.0689029024634,-88.2096895405053,0,,,706.4096170933,0.656168,0,0.0159156173072,0.0903215252,28,10,20.893,706.4096170933,0,0,0.0178326449276,0,0,0,7.6, -0.4, -1.9,0,0,1024,1024,1024,1024,0,0,0,0,0,0,0,28,,,,,,,0.927,109.4,706.4096170933,0,11,AutoTakeoff,
185000,2023-10-12 22:14:52,40.0689028997338,-88.2096895584704,0,,,706.4096170933,0.656168,0,0.0137508534584,0.095435370508,28,10,20.893,706.4096170933,0,0,0.0178326449276,0,0,0,7.5, 0.1, -1.7,0,0,1024,1024,1024,1024,0,0,0,0,0,0,0,28,,,,,,,0.927,109.4,706.4096170933,0,11,AutoTakeoff,
185100,2023-10-12 22:14:52,40.0689028580384,-88.2096895666873,0,,,706.4096170933,0.656168,0,0.027752133434,0.11082021352,28,10,20.893,706.4096170933,0,0,0.027752133434,0,0,0,7.5, 1.2, -1.6,0,0,1024,1024,1024,1024,0,0,0,0,0,0,0,29,,,,,,,0.927,109.4,706.4096170933,0,11,AutoTakeoff,
185200,2023-10-12 22:14:53,40.0689027724223,-88.2096896018871,0,,,706.4096170933,0.656168,0.223694,0.059003938896,0.143566605644,28,10,20.893,706.4096170933,0,0.223694,0.059003938896,-0.223694,0,-0.223694,7.3, 3.3, -1,0,0,1024,1024,1024,1024,0,0,0,0,0,0,0,29,,,,,,,0.927,109.4,706.4096170933,0,11,AutoTakeoff,
185300,2023-10-12 22:14:53,40.068902639446,-88.2096896562084,0,,,706.4096170933,0.656168,0.223694,0.109273953628,0.194398628268,28,10,20.893,706.4096170933,0,0.223694,0.109273953628,-0.223694,0,-0.447388,7.1, 5, -0.4,0,0,1024,1024,1024,1024,0,0,0,0,0,0,0,29,,,,,,,0.927,109.4,706.4096170933,0,11,AutoTakeoff,
185400,2023-10-12 22:14:53,40.0689024346878,-88.2096897489057,0,,,706.4096170933,0.656168,0.447388,0.187889769792,0.273460638672,28,10,20.893,706.4096170933,0,0.447388,0.187889769792,-0.447388,0,-0.671082,7, 3.4, 0,0,0,1024,1024,1024,1024,0,0,0,0,0,0,0,29,,,,,,,0.927,109.4,706.4096170933,0,11,AutoTakeoff,
185500,2023-10-12 22:14:53,40.0689021745294,-88.2096898035498,0.328084,,,706.7377010933,0.656168,0.447388,0.283750993332,0.36959646852,28,10,20.893,706.7377010933,0.328084,0.447388,0.283750993332,-0.671082,0,-1.11847,6.7, 0.7, 0.1,0,0,1024,1024,1024,1024,0,0,0,0,0,0,0,29,,,,,,,0.927,109.4,706.7377010933,0.328084,11,AutoTakeoff,
185600,2023-10-12 22:14:53,40.0689018869885,-88.2096898373077,0.328084,,,706.7377010933,1.312336,0.671082,0.3884186476,0.47493111756,28,10,20.893,706.7377010933,0.328084,0.671082,0.3884186476,-0.671082,0,-1.342164,6.6, -1.7, 0.2,0,0,1024,1024,1024,1024,0,0,0,0,0,0,0,29,,,,,,,0.927,109.4,706.7377010933,0.328084,11,AutoTakeoff,
185700,2023-10-12 22:14:53,40.0689016676175,-88.209689838762,0.656168,,,707.0657850933,1.312336,0.447388,0.46737862388,0.55496720936,28,10,20.893,707.0657850933,0.656168,0.671082,0.46737862388,-0.447388,0,-1.342164,6.5, -4, -0.1,0,0,1024,1024,1024,1024,0,0,0,0,0,0,0,29,,,,,,,0.927,109.4,707.0657850933,0.656168,11,AutoTakeoff,
185800,2023-10-12 22:14:53,40.0689014642593,-88.209689800806,0.656168,,,707.0657850933,1.64042,0.447388,0.5395013296,0.62991471832,28,10,20.739,707.0657850933,0.656168,0.671082,0.5395013296,-0.447388,0,-1.565858,6.5, -5, -1.2,0,0,1024,1024,1024,1024,0,0,0,0,0,0,0,28,,,,,,,5.385,109.4,707.0657850933,0.656168,11,AutoTakeoff,
185900,2023-10-12 22:14:53,40.0689013516499,-88.2096897662229,0.984252,,,707.3938690933,1.968504,0.223694,0.579396344,0.67211944408,28,10,20.739,707.3938690933,0.984252,0.671082,0.579396344,-0.223694,0,-1.565858,6.6, -4.5, -2.1,0,0,1024,1024,1024,1024,0,0,0,0,0,0,0,28,,,,,,,5.385,109.4,707.3938690933,0.984252,11,AutoTakeoff,
186000,2023-10-12 22:14:53,40.068901324769,-88.2096897659897,1.312336,,,707.7219530933,2.296588,0,0.589156843,0.68192915568,28,10,20.739,707.7219530933,1.312336,0.671082,0.589156843,0,0,-1.565858,6.7, -3.1, -2.2,0,0,1024,1024,1024,1024,0,0,0,0,0,0,0,28,,,,,,,5.385,109.4,707.7219530933,1.312336,11,AutoTakeoff,
186100,2023-10-12 22:14:53,40.0689013335916,-88.2096898154375,1.64042,,,708.0500370933,2.296588,0,0.58733269596,0.69610566532,28,10,20.739,708.0500370933,1.64042,0.671082,0.589156843,0,0,-1.342164,6.7, -1.6, -1,0,0,1024,1024,1024,1024,0,0,0,0,0,0,0,29,,,,,,,5.385,109.4,708.0500370933,1.64042,11,AutoTakeoff,
186200,2023-10-12 22:14:53,40.0689013387001,-88.2096898330924,1.64042,,,708.0500370933,2.624672,0,0.58604988752,0.70137469436,28,10,20.739,708.0500370933,1.64042,0.671082,0.589156843,0,0,-1.342164,6.7, -0.6, 0,0,0,1024,1024,1024,1024,0,0,0,0,0,0,0,29,,,,,,,5.385,109.4,708.0500370933,1.64042,11,AutoTakeoff,
186300,2023-10-12 22:14:54,40.0689013379891,-88.2096898299394,1.968504,,,708.3781210933,2.952756,0,0.586204087,0.70229332956,28,10,20.739,708.3781210933,1.968504,0.671082,0.589156843,0,0,-1.342164,6.7, -0.2, 0.1,0,0,1024,1024,1024,1024,0,0,0,0,0,0,0,29,,,,,,,5.385,109.4,708.3781210933,1.968504,11,AutoTakeoff,
186400,2023-10-12 22:14:54,40.0689012926827,-88.2096898169492,2.296588,,,708.7062050933,2.952756,0,0.60221130536,0.71921590228,28,10,20.739,708.7062050933,2.296588,0.671082,0.60221130536,0,0,-1.342164,6.7, -0.3, -0.5,0,0,1024,1024,1024,1024,0,0,0,0,0,0,0,29,,,,,,,5.385,109.4,708.7062050933,2.296588,11,AutoTakeoff,
186500,2023-10-12 22:14:54,40.0689012712803,-88.2096897785947,2.296588,,,708.7062050933,3.28084,0,0.60891078064,0.73247049588,28,10,20.739,708.7062050933,2.296588,0.671082,0.60891078064,0,0,-1.342164,6.8, -0.7, -1.4,0,0,1024,1024,1024,1024,0,0,0,0,0,0,0,29,,,,,,,5.385,109.4,708.7062050933,2.296588,11,AutoTakeoff,
186600,2023-10-12 22:14:54,40.0689012590309,-88.2096897396541,2.624672,,,709.0342890933,3.28084,0,0.61247705372,0.7442257456,28,10,20.739,709.0342890933,2.624672,0.671082,0.61247705372,0,0,-1.11847,6.9, -0.9, -1.9,0,0,1024,1024,1024,1024,0,0,0,0,0,0,0,29,,,,,,,5.385,109.4,709.0342890933,2.624672,11,AutoTakeoff,
186700,2023-10-12 22:14:54,40.0689012633566,-88.2096897214743,2.624672,,,709.0342890933,3.608924,0,0.61055448148,0.7495407064,28,10,20.739,709.0342890933,2.624672,0.671082,0.61247705372,0,0,-1.11847,6.9, -0.7, -1.7,0,0,1024,1024,1024,1024,0,0,0,0,0,0,0,29,,,,,,,5.385,109.4,709.0342890933,2.624672,14,Waypoint,
186800,2023-10-12 22:14:54,40.0689012895114,-88.2096897352873,2.952756,,,709.3623730933,3.608924,0,0.601295951,0.75983270148,28,10,20.713,709.3623730933,2.952756,0.671082,0.61247705372,0,0,-1.11847,6.9, 0.3, -0.9,0,0,1024,1024,1024,1024,0,0,0,0,0,0,0,28,,,,,,,10.318,109.4,709.3623730933,2.952756,14,Waypoint,
186900,2023-10-12 22:14:54,40.0689013069603,-88.209689738416,2.952756,,,709.3623730933,3.937008,0,0.5950131424,0.76625986704,28,10,20.713,709.3623730933,2.952756,0.671082,0.61247705372,0,0,-0.894776,6.8, 0.6, -0.2,0,0,1024,1024,1024,1024,0,0,0,0,0,0,0,28,,,,,,,10.318,109.4,709.3623730933,2.952756,14,Waypoint,
187000,2023-10-12 22:14:54,40.0689013075958,-88.2096897328424,3.28084,,,709.6904570933,3.937008,0,0.5946686542,0.7678313894,28,10,20.713,709.6904570933,3.28084,0.671082,0.61247705372,0,0,-0.671082,6.7, 0.1, 0,0,0,1024,1024,1024,1024,0,0,0,0,0,0,0,28,,,,,,,10.318,109.4,709.6904570933,3.28084,14,Waypoint,
187100,2023-10-12 22:14:54,40.0689012809586,-88.2096896960721,3.28084,,,709.6904570933,3.937008,0,0.60372705344,0.78196852896,28,10,20.713,709.6904570933,3.28084,0.671082,0.61247705372,0,0,-0.447388,6.7, -0.1, -0.1,0,0,1024,1024,1024,1024,0,0,0,0,0,0,0,29,,,,,,,10.318,109.4,709.6904570933,3.28084,14,Waypoint,
187200,2023-10-12 22:14:54,40.068901275388,-88.2096896592027,3.28084,,,709.6904570933,4.265092,0,0.6052985758,0.79246065528,28,10,20.713,709.6904570933,3.28084,0.671082,0.61247705372,0,0,-0.447388,6.6, -0.3, -0.4,0,0,1024,1024,1024,1024,0,0,0,0,0,0,0,29,,,,,,,10.318,109.4,709.6904570933,3.28084,14,Waypoint,
187300,2023-10-12 22:14:55,40.0689012892726,-88.2096896074587,3.28084,,,709.6904570933,4.265092,0,0.59988190896,0.80777233556,28,10,20.713,709.6904570933,3.28084,0.671082,0.61247705372,0,0,-0.447388,6.5, -0.3, -0.6,0,0,1024,1024,1024,1024,0,0,0,0,0,0,0,29,,,,,,,10.318,109.4,709.6904570933,3.28084,14,Waypoint,
187400,2023-10-12 22:14:55,40.0689013367319,-88.2096895311324,3.608924,,,710.0185410933,4.265092,0,0.58268374568,0.83522968552,28,10,20.713,710.0185410933,3.608924,0.671082,0.61247705372,0,0,-0.671082,6.3, 0, -0.8,0,0,1024,1024,1024,1024,0,0,0,0,0,0,0,29,,,,,,,10.318,109.4,710.0185410933,3.608924,14,Waypoint,
187500,2023-10-12 22:14:55,40.0689014244019,-88.2096894405182,3.608924,,,710.0185410933,4.265092,0,0.55192587068,0.87601380756,28,10,20.713,710.0185410933,3.608924,0.671082,0.61247705372,0,0,-0.894776,6.2, 0.3, -0.8,0,0,1024,1024,1024,1024,0,0,0,0,0,0,0,29,,,,,,,10.318,109.4,710.0185410933,3.608924,14,Waypoint,
187600,2023-10-12 22:14:55,40.068901475539,-88.2096893770161,3.937008,,,710.3466250933,4.593176,0,0.53491143444,0.90175199736,28,10,20.713,710.3466250933,3.937008,0.671082,0.61247705372,0,0,-1.11847,6.1, 0.7, -0.7,0,0,1024,1024,1024,1024,0,0,0,0,0,0,0,29,,,,,,,10.318,109.4,710.3466250933,3.937008,14,Waypoint,
187700,2023-10-12 22:14:55,40.0689015112955,-88.2096893321459,3.937008,,,710.3466250933,4.593176,0,0.52345474116,0.91983926828,28,10,20.713,710.3466250933,3.937008,0.671082,0.61247705372,0,0,-1.565858,6.1, 0.8, -0.6,0,0,1024,1024,1024,1024,0,0,0,0,0,0,0,29,,,,,,,10.318,109.4,710.3466250933,3.937008,14,Waypoint,
187800,2023-10-12 22:14:55,40.0689015474879,-88.2096893003225,4.265092,,,710.6747090933,4.92126,0,0.51165355968,0.93575462312,28,10,20.7115,710.6747090933,4.265092,0.671082,0.61247705372,0,0,-2.013246,6.1, 0.5, -0.8,0,0,1024,1024,1024,1024,0,0,0,0,0,0,0,28,,,,,,,9.331,109.4,710.6747090933,4.265092,14,Waypoint,
187900,2023-10-12 22:14:55,40.0689015654363,-88.2096892783102,4.593176,,,711.0027930933,5.249344,0,0.50617127604,0.9447342822,28,10,20.7115,711.0027930933,4.593176,0.671082,0.61247705372,0,0,-2.684328,6.2, 0, -1.1,0,0,1024,1024,1024,1024,0,0,0,0,0,0,0,28,,,,,,,9.331,109.4,711.0027930933,4.593176,14,Waypoint,
188000,2023-10-12 22:14:55,40.0689016022263,-88.2096892499504,4.92126,,,711.3308770933,5.577428,0,0.49436025204,0.96032155304,28,10,20.7115,711.3308770933,4.92126,0.671082,0.61247705372,0,0,-3.131716,6.3, 0, -1,0,0,1024,1024,1024,1024,0,0,0,0,0,0,0,28,,,,,,,9.331,109.4,711.3308770933,4.92126,14,Waypoint,
188100,2023-10-12 22:14:55,40.068901637396,-88.2096892405657,5.577428,,,711.9870450933,6.233596,0,0.48227035664,0.97341538548,28,10,20.7115,711.9870450933,5.577428,0.671082,0.61247705372,0,0,-3.802798,6.5, 0.2, -0.6,0,0,1024,1024,1024,1024,0,0,0,0,0,0,0,29,,,,,,,9.331,109.4,711.9870450933,5.577428,14,Waypoint,
188200,2023-10-12 22:14:55,40.0689016979147,-88.2096892421525,6.233596,,,712.6432130933,6.889764,0,0.46055119584,0.99550200036,28,10,20.7115,712.6432130933,6.233596,0.671082,0.61247705372,0,0,-4.250186,6.6, 0.5, -0.1,0,0,1024,1024,1024,1024,0,0,0,0,0,0,0,29,,,,,,,9.331,109.4,712.6432130933,6.233596,14,Waypoint,
188300,2023-10-12 22:14:56,40.0689017163279,-88.2096892353148,6.889764,,,713.2993810933,7.545932,0,0.4543799358,1.00248362788,28,10,20.7115,713.2993810933,6.889764,0.671082,0.61247705372,0,0,-4.697574,6.7, 0.6, -0.1,0,0,1024,1024,1024,1024,0,0,0,0,0,0,0,29,,,,,,,9.331,109.4,713.2993810933,6.889764,14,Waypoint,
188400,2023-10-12 22:14:56,40.0689017146103,-88.2096892098781,7.545932,,,713.9555490933,8.2021,0,0.45655185188,1.00961617404,28,10,20.7115,713.9555490933,7.545932,0.671082,0.61247705372,0,0,-5.144962,6.7, 0.3, -0.4,0,0,1024,1024,1024,1024,0,0,0,0,0,0,0,29,,,,,,,9.331,109.4,713.9555490933,7.545932,14,Waypoint,
188500,2023-10-12 22:14:56,40.0689017076744,-88.2096891993584,8.530184,,,714.9398010933,8.858268,0,0.45968833492,1.01349084608,28,10,20.7115,714.9398010933,8.530184,0.671082,0.61247705372,0,0,-5.59235,6.6, 0, -0.5,0,0,1024,1024,1024,1024,0,0,0,0,0,0,0,29,,,,,,,9.331,109.4,714.9398010933,8.530184,14,Waypoint,
188600,2023-10-12 22:14:56,40.0689017177318,-88.2096891404416,9.186352,,,715.5959690933,9.84252,0,0.4602362352,1.030347802,28,10,20.7115,715.5959690933,9.186352,0.671082,0.61247705372,0,0,-5.816044,6.5, -0.1, -0.4,0,0,1024,1024,1024,1024,0,0,0,0,0,0,0,29,,,,,,,9.331,109.4,715.5959690933,9.186352,14,Waypoint,
188700,2023-10-12 22:14:56,40.0689017260373,-88.2096890582969,10.170604,,,716.5802210933,10.498688,0,0.4640092012,1.05348100484,28,10,20.7115,716.5802210933,10.170604,0.671082,0.61247705372,0,0,-6.039738,6.6, 0, -0.7,0,0,1024,1024,1024,1024,0,0,0,0,0,0,0,29,,,,,,,9.331,109.4,716.5802210933,10.170604,14,Waypoint,
188800,2023-10-12 22:14:56,40.0689017267151,-88.209688950045,11.154856,,,717.5644730933,11.154856,0,0.47415027764,1.08370738376,28,10,20.6055,717.5644730933,11.154856,0.671082,0.61247705372,0,0,-6.263432,6.8, 0.1, -1.4,0,0,1024,1024,1024,1024,0,0,0,0,0,0,0,28,,,,,,,14.357,109.4,717.5644730933,11.154856,14,Waypoint,
188900,2023-10-12 22:14:56,40.0689017218674,-88.2096888664281,12.139108,,,718.5487250933,11.811024,0,0.48492127536,1.107119458,28,10,20.6055,718.5487250933,12.139108,0.671082,0.61247705372,0,0,-6.487126,7.1, 0.1, -2.2,0,0,1024,1024,1024,1024,0,0,0,0,0,0,0,28,,,,,,,14.357,109.4,718.5487250933,12.139108,14,Waypoint,
189000,2023-10-12 22:14:56,40.06890172688,-88.2096887926635,13.12336,,,719.5329770933,12.795276,0,0.49211287664,1.12779859252,28,10,20.6055,719.5329770933,13.12336,0.671082,0.61247705372,0,0,-6.487126,7.2, 0, -2.5,0,0,1024,1024,1024,1024,0,0,0,0,0,0,0,28,,,,,,,14.357,109.4,719.5329770933,13.12336,14,Waypoint,
189100,2023-10-12 22:14:56,40.0689017354318,-88.2096887519141,13.779528,,,720.1891450933,13.451444,0,0.49454397908,1.13959321232,28,10,20.6055,720.1891450933,13.779528,0.671082,0.61247705372,0,0,-6.487126,7.3, -0.2, -2.1,0,0,1024,1024,1024,1024,0,0,0,0,0,0,0,29,,,,,,,14.357,109.4,720.1891450933,13.779528,14,Waypoint,
189200,2023-10-12 22:14:56,40.0689017467581,-88.2096887349555,14.76378,,,721.1733970933,14.435696,0,0.49314634124,1.14587930176,28,10,20.6055,721.1733970933,14.76378,0.671082,0.61247705372,0,0,-6.487126,7.4, -0.2, -1.7,0,0,1024,1024,1024,1024,0,0,0,0,0,0,0,29,,,,,,,14.357,109.4,721.1733970933,14.76378,14,Waypoint,
189300,2023-10-12 22:14:57,40.068901777925,-88.2096887362244,15.748032,,,722.1576490933,15.091864,0,0.483021669,1.15725725488,28,10,20.6055,722.1576490933,15.748032,0.671082,0.61247705372,0,0,-6.263432,7.5, -0.1, -1.3,0,0,1024,1024,1024,1024,0,0,0,0,0,0,0,29,,,,,,,14.357,109.4,722.1576490933,15.748032,14,Waypoint,
189400,2023-10-12 22:14:57,40.068901828456,-88.2096887540428,16.732284,,,723.1419010933,16.076116,0,0.46452757392,1.17635174368,28,10,20.6055,723.1419010933,16.732284,0.671082,0.61247705372,0,0,-6.263432,7.5, 0, -0.8,0,0,1024,1024,1024,1024,0,0,0,0,0,0,0,29,,,,,,,14.357,109.4,723.1419010933,16.732284,14,Waypoint,
189500,2023-10-12 22:14:57,40.068901887921,-88.2096887749297,17.716536,,,724.1261530933,16.732284,0,0.44283794068,1.198818936,28,10,20.6055,724.1261530933,17.716536,0.671082,0.61247705372,0,0,-5.816044,7.5, 0.4, -0.5,0,0,1024,1024,1024,1024,0,0,0,0,0,0,0,29,,,,,,,14.357,109.4,724.1261530933,17.716536,14,Waypoint,
189600,2023-10-12 22:14:57,40.0689019728818,-88.2096887870375,18.700788,,,725.1104050933,17.388452,0,0.41461943584,1.23000003936,28,10,20.6055,725.1104050933,18.700788,0.671082,0.61247705372,0,0,-5.59235,7.4, 0.8, -0.6,0,0,1024,1024,1024,1024,0,0,0,0,0,0,0,29,,,,,,,14.357,109.4,725.1104050933,18.700788,14,Waypoint,
189700,2023-10-12 22:14:57,40.0689020318896,-88.2096888158187,19.356956,,,725.7665730933,18.04462,0,0.3921588052,1.25297904272,28,10,20.6055,725.7665730933,19.356956,0.671082,0.61247705372,0,0,-5.368656,7.3, 1, -0.4,0,0,1024,1024,1024,1024,0,0,0,0,0,0,0,29,,,,,,,14.357,109.4,725.7665730933,19.356956,14,Waypoint,
189800,2023-10-12 22:14:57,40.0689020794608,-88.2096888505261,20.013124,,,726.4227410933,18.700788,0,0.3723261274,1.27285765228,28,10,20.669,726.4227410933,20.013124,0.671082,0.61247705372,0,0,-4.921268,7.2, 0.9, -0.2,0,0,1024,1024,1024,1024,0,0,0,0,0,0,0,28,,,,,,,11.125,109.4,726.4227410933,20.013124,14,Waypoint,
189900,2023-10-12 22:14:57,40.068902138869,-88.2096888789535,20.997376,,,727.4069930933,19.356956,0,0.34988190096,1.29594164252,28,10,20.669,727.4069930933,20.997376,0.671082,0.61247705372,0,0,-4.47388,7.2, 0.6, 0,0,0,1024,1024,1024,1024,0,0,0,0,0,0,0,28,,,,,,,11.125,109.4,727.4069930933,20.997376,14,Waypoint,
190000,2023-10-12 22:14:57,40.0689021940732,-88.2096889113004,21.653544,,,728.0631610933,19.68504,0,0.32815945932,1.31801513404,28,10,20.669,728.0631610933,21.653544,0.671082,0.61247705372,0,0,-4.026492,7.2, 0.6, 0,0,0,1024,1024,1024,1024,0,0,0,0,0,0,0,28,,,,,,,11.125,109.4,728.0631610933,21.653544,14,Waypoint,
190100,2023-10-12 22:14:57,40.0689022457179,-88.2096889387214,21.981628,,,728.3912450933,20.341208,0,0.308344169972,1.3383530612,28,10,20.669,728.3912450933,21.981628,0.671082,0.61247705372,0,0,-3.579104,7.1, 0.5, 0.1,0,0,1024,1024,1024,1024,0,0,0,0,0,0,0,29,,,,,,,11.125,109.4,728.3912450933,21.981628,14,Waypoint,
190200,2023-10-12 22:14:57,40.0689022989849,-88.2096889643838,22.637796,,,729.0474130933,20.669292,0,0.288417988232,1.35906500412,28,10,20.669,729.0474130933,22.637796,0.671082,0.61247705372,0,0,-3.131716,7.1, 0.5, 0.1,0,0,1024,1024,1024,1024,0,0,0,0,0,0,0,29,,,,,,,11.125,109.4,729.0474130933,22.637796,14,Waypoint,
190300,2023-10-12 22:14:58,40.0689023618177,-88.2096889845962,22.96588,,,729.3754970933,20.997376,0,0.266811360244,1.38267392876,28,10,20.669,729.3754970933,22.96588,0.671082,0.61247705372,0,0,-2.460634,7, 0.6, 0.3,0,0,1024,1024,1024,1024,0,0,0,0,0,0,0,29,,,,,,,11.125,109.4,729.3754970933,22.96588,14,Waypoint,
190400,2023-10-12 22:14:58,40.0689024258157,-88.2096890023904,23.293964,,,729.7035810933,21.32546,0,0.245696202088,1.4065453206,28,10,20.669,729.7035810933,23.293964,0.671082,0.61247705372,0,0,-2.013246,7, 0.9, 0.2,0,0,1024,1024,1024,1024,0,0,0,0,0,0,0,29,,,,,,,11.125,109.4,729.7035810933,23.293964,14,Waypoint,
190500,2023-10-12 22:14:58,40.0689024873935,-88.2096890143331,23.622048,,,730.0316650933,21.32546,0,0.226903550568,1.42925857592,28,10,20.669,730.0316650933,23.622048,0.671082,0.61247705372,0,0,-1.565858,7, 1.3, 0.1,0,0,1024,1024,1024,1024,0,0,0,0,0,0,0,29,,,,,,,11.125,109.4,730.0316650933,23.622048,14,Waypoint,
190600,2023-10-12 22:14:58,40.068902573484,-88.2096890302898,23.950132,,,730.3597490933,21.32546,0,0.20214239492,1.46098429872,28,10,20.669,730.3597490933,23.950132,0.671082,0.61247705372,0,0,-0.894776,7, 1.5, 0,0,0,1024,1024,1024,1024,0,0,0,0,0,0,0,29,,,,,,,11.125,109.4,730.3597490933,23.950132,14,Waypoint,
190700,2023-10-12 22:14:58,40.0689026246586,-88.209689042774,23.950132,,,730.3597490933,21.32546,0,0.187744756664,1.47997708148,28,10,20.669,730.3597490933,23.950132,0.671082,0.61247705372,0,0,-0.447388,7, 1.3, -0.3,0,0,1024,1024,1024,1024,0,0,0,0,0,0,0,29,,,,,,,11.125,109.4,730.3597490933,23.950132,14,Waypoint,
190800,2023-10-12 22:14:58,40.0689026718571,-88.2096890614841,23.950132,,,730.3597490933,21.32546,0,0.173561685344,1.49797248888,28,10,20.739,730.3597490933,23.950132,0.671082,0.61247705372,0,0,-0.223694,6.9, 1.1, -0.6,0,0,1024,1024,1024,1024,0,0,0,0,0,0,0,28,,,,,,,6.938,109.4,730.3597490933,23.950132,14,Waypoint,
190900,2023-10-12 22:14:58,40.0689027261521,-88.2096890990064,23.950132,,,730.3597490933,21.32546,0,0.154299217536,1.52038062608,28,10,20.739,730.3597490933,23.950132,0.671082,0.61247705372,0,0,0,3.6, 1.8, 0,0,0,1024,1024,1024,1024,0,0,0,0,0,0,0,28,,,,,,,6.938,109.4,730.3597490933,23.950132,14,Waypoint,
191000,2023-10-12 22:14:58,40.0689028263017,-88.2096891815495,23.950132,,,730.3597490933,21.32546,0,0.118110568084,1.5635827272,28,10,20.739,730.3597490933,23.950132,0.671082,0.61247705372,0,0,0.223694,356.7, 2.7, 1.6,0,0,1024,1024,1024,1024,0,0,0,0,0,0,0,28,,,,,,,6.938,109.4,730.3597490933,23.950132,14,Waypoint,
191100,2023-10-12 22:14:58,40.0689028481716,-88.2096892114492,23.950132,,,730.3597490933,21.32546,0,0.107699478512,1.575131284,28,10,20.739,730.3597490933,23.950132,0.671082,0.61247705372,0,0,0.223694,349.9, 2.9, 1.8,0,0,1024,1024,1024,1024,0,0,0,0,0,0,0,29,,,,,,,6.938,109.4,730.3597490933,23.950132,14,Waypoint,
191200,2023-10-12 22:14:58,40.0689028344445,-88.2096891750866,23.950132,,,730.3597490933,21.32546,0,0.118880253148,1.58645346284,28,10,20.739,730.3597490933,23.950132,0.671082,0.61247705372,0,0,0.447388,344.7, 2.3, 0.2,0,0,1024,1024,1024,1024,0,0,0,0,0,0,0,29,,,,,,,6.938,109.4,730.3597490933,23.950132,14,Waypoint,
191300,2023-10-12 22:14:59,40.0689027603956,-88.2096891599135,23.950132,,,730.3597490933,21.32546,0,0.13337762894,1.61379926424,28,10,20.739,730.3597490933,23.950132,0.671082,0.61247705372,0,0,0.223694,341.4, 1.4, -1.4,0,0,1024,1024,1024,1024,0,0,0,0,0,0,0,29,,,,,,,6.938,109.4,730.3597490933,23.950132,14,Waypoint,
191400,2023-10-12 22:14:59,40.0689026763193,-88.2096891138519,23.950132,,,730.3597490933,21.32546,0,0.160591212488,1.64706042016,28,10,20.739,730.3597490933,23.950132,0.671082,0.61247705372,0,0,0.223694,339.5, 0.2, -2.4,0,0,1024,1024,1024,1024,0,0,0,0,0,0,0,29,,,,,,,6.938,109.4,730.3597490933,23.950132,14,Waypoint,
191500,2023-10-12 22:14:59,40.0689026214793,-88.2096890684885,23.622048,,,730.0316650933,21.32546,0,0.182771003224,1.67074152328,28,10,20.739,730.3597490933,23.950132,0.671082,0.61247705372,0,0,0.223694,338.6, -0.2, -2.7,0,0,1024,1024,1024,1024,0,0,0,0,0,0,0,29,,,,,,,6.938,109.4,730.0316650933,23.622048,14,Waypoint,
191600,2023-10-12 22:14:59,40.0689026155168,-88.209689005771,23.622048,,,730.0316650933,21.32546,0,0.198043313424,1.6883858808,28,10,20.739,730.3597490933,23.950132,0.671082,0.61247705372,0,0,0.223694,338.3, 0, -2.5,0,0,1024,1024,1024,1024,0,0,0,0,0,0,0,29,,,,,,,6.938,109.4,730.0316650933,23.622048,14,Waypoint,
191700,2023-10-12 22:14:59,40.0689026544998,-88.2096889430738,23.622048,,,730.0316650933,21.32546,0,0.205066607612,1.7109416558,28,10,20.739,730.3597490933,23.950132,0.671082,0.61247705372,0,0,0.223694,338, 0.4, -1.9,0,0,1024,1024,1024,1024,0,0,0,0,0,0,0,29,,,,,,,6.938,109.4,730.0316650933,23.622048,14,Waypoint,
191800,2023-10-12 22:14:59,40.0689026984676,-88.2096889169324,23.622048,,,730.0316650933,21.32546,0,0.204201450104,1.72856632828,28,10,20.739,730.3597490933,23.950132,0.671082,0.61247705372,0,0,0.223694,337.9, 0.6, -1.3,0,0,1024,1024,1024,1024,0,0,0,0,0,0,0,29,,,,,,,6.938,109.4,730.0316650933,23.622048,14,Waypoint,
191900,2023-10-12 22:14:59,40.0689027420831,-88.2096889028715,23.622048,,,730.0316650933,21.32546,0,0.201729993332,1.74495740492,28,10,20.668,730.3597490933,23.950132,0.671082,0.61247705372,0,0,0.223694,338, -0.1, -0.9,0,0,1024,1024,1024,1024,0,0,0,0,0,0,0,28,,,,,,,11.396,109.4,730.0316650933,23.622048,14,Waypoint,
192000,2023-10-12 22:14:59,40.0689028309138,-88.209688861587,23.622048,,,730.0316650933,21.32546,0,0.20425197504,1.77935373148,28,10,20.668,730.3597490933,23.950132,0.671082,0.61247705372,0,0,0.223694,338.1, -1.4, -0.6,0,0,1024,1024,1024,1024,0,0,0,0,0,0,0,28,,,,,,,11.396,109.4,730.0316650933,23.622048,14,Waypoint,
192100,2023-10-12 22:14:59,40.0689029227301,-88.2096888675983,23.622048,,,730.0316650933,21.32546,0.223694,0.199163720284,1.81289703964,28,10,20.668,730.3597490933,23.950132,0.671082,0.61247705372,0.223694,0,0.223694,338.1, -2.4, -0.7,0,0,1024,1024,1024,1024,0,0,0,0,0,0,0,29,,,,,,,11.396,109.4,730.0316650933,23.622048,14,Waypoint,
192200,2023-10-12 22:15:00,40.0689030880181,-88.20968888861,23.293964,,,729.7035810933,21.32546,0.223694,0.201331371272,1.87348759276,28,10,20.668,730.3597490933,23.950132,0.671082,0.61247705372,0.223694,0,0.223694,338.3, -3, -1.4,0,0,1024,1024,1024,1024,0,0,0,0,0,0,0,29,,,,,,,11.396,109.4,729.7035810933,23.293964,14,Waypoint,
192300,2023-10-12 22:15:00,40.0689033007198,-88.2096889529936,23.293964,,,729.7035810933,21.32546,0.223694,0.220660112048,1.95314638796,28,10,20.668,730.3597490933,23.950132,0.671082,0.61247705372,0.447388,0,0,338.3, -3.5, -1.8,0,0,1024,1024,1024,1024,0,0,0,0,0,0,0,29,,,,,,,11.396,109.4,729.7035810933,23.293964,14,Waypoint,
192400,2023-10-12 22:15:00,40.0689036242764,-88.2096890923945,23.293964,,,729.7035810933,21.32546,0.4921268,0.286606964552,2.0774442922,28,10,20.668,730.3597490933,23.950132,0.671082,0.61247705372,0.447388,-0.223694,0,338.3, -4.4, -1.7,0,0,1024,1024,1024,1024,0,0,0,0,0,0,0,29,,,,,,,11.396,109.4,729.7035810933,23.293964,14,Waypoint,
192500,2023-10-12 22:15:00,40.0689039512147,-88.2096892851287,23.293964,,,729.7035810933,21.32546,0.7158208,0.38043636388,2.20830715728,28,10,20.668,730.3597490933,23.950132,0.7158208,0.61247705372,0.671082,-0.223694,0,338.3, -5.9, -1.3,0,0,1024,1024,1024,1024,0,0,0,0,0,0,0,29,,,,,,,11.396,109.4,729.7035810933,23.293964,14,Waypoint,
192600,2023-10-12 22:15:00,40.0689043682613,-88.2096895599396,23.293964,,,729.7035810933,21.32546,1.2079476,0.52356300888,2.37871726772,28,10,20.668,730.3597490933,23.950132,1.2079476,0.61247705372,1.11847,-0.447388,0,338.2, -7.7, -0.6,0,0,1024,1024,1024,1024,0,0,0,0,0,0,0,29,,,,,,,11.396,109.4,729.7035810933,23.293964,14,Waypoint,
192700,2023-10-12 22:15:00,40.0689048179997,-88.2096899139016,23.293964,,,729.7035810933,21.32546,1.4092722,0.6938812558,2.57026583028,28,10,20.668,730.3597490933,23.950132,1.4092722,0.6938812558,1.342164,-0.447388,0,338.1, -9.8, -0.1,0,0,1024,1024,1024,1024,0,0,0,0,0,0,0,29,,,,,,,11.396,109.4,729.7035810933,23.293964,14,Waypoint,
192800,2023-10-12 22:15:00,40.0689055075065,-88.2096903118377,23.293964,,,729.7035810933,21.32546,1.901399,0.96110895464,2.8452756816,28,10,20.668,730.3597490933,23.950132,1.901399,0.96110895464,1.789552,-0.671082,0,338.1, -11.8, 0,0,0,1024,1024,1024,1024,0,0,0,0,0,0,0,29,,,,,,,11.396,109.4,729.7035810933,23.293964,14,Waypoint,
192900,2023-10-12 22:15:00,40.0689063382576,-88.2096907595553,23.293964,,,729.7035810933,21.32546,2.4158952,1.28514439808,3.17314314616,28,10,20.663,730.3597490933,23.950132,2.4158952,1.28514439808,2.23694,-0.894776,0,338.2, -13.5, 0.1,0,0,1024,1024,1024,1024,0,0,0,0,0,0,0,28,,,,,,,9.481,109.4,729.7035810933,23.293964,14,Waypoint,
193000,2023-10-12 22:15:00,40.0689074228801,-88.2096913123273,23.293964,,,729.7035810933,21.32546,2.8185444,1.70786750872,3.5979003776,28,10,20.663,730.3597490933,23.950132,2.8185444,1.70786750872,2.684328,-0.894776,0,338.3, -14.5, 0,0,0,1024,1024,1024,1024,0,0,0,0,0,0,0,28,,,,,,,9.481,109.4,729.7035810933,23.293964,14,Waypoint,
193100,2023-10-12 22:15:00,40.0689086165703,-88.2096919403828,23.293964,,,729.7035810933,21.32546,3.5343652,2.1756726418,4.0673885816,28,10,20.663,730.3597490933,23.950132,3.5343652,2.1756726418,3.35541,-1.11847,0,338.4, -15.2, -0.4,0,0,1024,1024,1024,1024,0,0,0,0,0,0,0,29,,,,,,,9.481,109.4,729.7035810933,23.293964,14,Waypoint,
193200,2023-10-12 22:15:00,40.068910095876,-88.2096926621708,23.293964,,,729.7035810933,21.32546,4.026492,2.751230403,4.6435040856,28,10,20.663,730.3597490933,23.950132,4.026492,2.751230403,3.802798,-1.342164,0,338.5, -15.8, -0.7,0,0,1024,1024,1024,1024,0,0,0,0,0,0,0,29,,,,,,,9.481,109.4,729.7035810933,23.293964,14,Waypoint,
193300,2023-10-12 22:15:01,40.068911743331,-88.2096934674738,23.293964,,,729.7035810933,21.32546,4.7423128,3.392552602,5.285269198,28,10,20.663,730.3597490933,23.950132,4.7423128,3.392552602,4.47388,-1.565858,0,338.6, -16.1, -0.9,0,0,1024,1024,1024,1024,0,0,0,0,0,0,0,29,,,,,,,9.481,109.4,729.7035810933,23.293964,14,Waypoint,
193400,2023-10-12 22:15:01,40.0689137276135,-88.2096944806998,22.96588,,,729.3754970933,21.32546,5.2344396,4.1691602384,6.0625330024,28,10,20.663,730.3597490933,23.950132,5.2344396,4.1691602384,4.921268,-1.789552,0,338.7, -16.2, -0.9,0,0,1024,1024,1024,1024,0,0,0,0,0,0,0,29,,,,,,,9.481,109.4,729.3754970933,22.96588,14,Waypoint,
193500,2023-10-12 22:15:01,40.0689158639346,-88.2096955209432,22.96588,,,729.3754970933,21.32546,5.9502604,5.0007547532,6.8943243676,28,10,20.663,730.3597490933,23.950132,5.9502604,5.0007547532,5.59235,-2.013246,0,338.7, -16.1, -0.9,0,0,1024,1024,1024,1024,0,0,0,0,0,0,0,29,,,,,,,9.481,109.4,729.3754970933,22.96588,14,Waypoint,
193600,2023-10-12 22:15:01,40.0689183270665,-88.2096967165908,22.96588,,,729.3754970933,21.32546,6.4423872,5.959317776,7.853018624,28,10,20.663,730.3597490933,23.950132,6.4423872,5.959317776,6.039738,-2.23694,0,338.7, -15.7, -0.7,0,0,1024,1024,1024,1024,0,0,0,0,0,0,0,29,,,,,,,9.481,109.4,729.3754970933,22.96588,14,Waypoint,
193700,2023-10-12 22:15:01,40.0689208716747,-88.209697946883,22.96588,,,729.3754970933,21.32546,7.158208,6.949147204,8.8429136688,28,10,20.663,730.3597490933,23.950132,7.158208,6.949147204,6.71082,-2.460634,0,338.7, -15.2, -0.4,0,0,1024,1024,1024,1024,0,0,0,0,0,0,0,29,,,,,,,9.481,109.4,729.3754970933,22.96588,14,Waypoint,
193800,2023-10-12 22:15:01,40.0689237647998,-88.2096993591298,22.96588,,,729.3754970933,21.32546,7.6503348,8.0758532768,9.9697181668,28,10,20.663,730.3597490933,23.950132,7.6503348,8.0758532768,7.158208,-2.684328,0,338.6, -14.5, -0.4,0,0,1024,1024,1024,1024,0,0,0,0,0,0,0,29,,,,,,,9.481,109.4,729.3754970933,22.96588,14,Waypoint,
193900,2023-10-12 22:15:01,40.0689266851394,-88.2097007436284,22.96588,,,729.3754970933,21.32546,8.0753534,9.2092850716,11.1031499616,28,10,20.6475,730.3597490933,23.950132,8.0753534,9.2092850716,7.605596,-2.684328,0,338.6, -13.8, -0.5,0,0,1024,1024,1024,1024,0,0,0,0,0,0,0,28,,,,,,,10.259,109.4,729.3754970933,22.96588,14,Waypoint,
194000,2023-10-12 22:15:01,40.0689299300903,-88.2097022641131,22.96588,,,729.3754970933,21.32546,8.5674802,10.467027894,12.360892784,28,10,20.6475,730.3597490933,23.950132,8.5674802,10.467027894,8.052984,-2.908022,0,338.5, -13, -0.8,0,0,1024,1024,1024,1024,0,0,0,0,0,0,0,28,,,,,,,10.259,109.4,729.3754970933,22.96588,14,Waypoint,
194100,2023-10-12 22:15:01,40.0689331987434,-88.2097037534487,22.96588,,,729.3754970933,21.32546,9.059607,11.7299544436,13.6238849504,28,10,20.6475,730.3597490933,23.950132,9.059607,11.7299544436,8.500372,-3.131716,0,338.4, -12.1, -1.2,0,0,1024,1024,1024,1024,0,0,0,0,0,0,0,29,,,,,,,10.259,109.4,729.3754970933,22.96588,14,Waypoint,
194200,2023-10-12 22:15:01,40.0689367950319,-88.2097054018051,22.96588,,,729.3754970933,21.32546,9.4846256,13.120407244,15.0143705592,28,10,20.6475,730.3597490933,23.950132,9.4846256,13.120407244,8.94776,-3.131716,0,338.3, -11.2, -1.5,0,0,1024,1024,1024,1024,0,0,0,0,0,0,0,29,,,,,,,10.259,109.4,729.3754970933,22.96588,14,Waypoint,
194300,2023-10-12 22:15:02,40.0689403484181,-88.2097070457046,22.96588,,,729.3754970933,21.32546,9.7754278,14.4957025636,16.3896658788,28,10,20.6475,730.3597490933,23.950132,9.7754278,14.4957025636,9.171454,-3.35541,0,338.1, -10.2, -1.7,0,0,1024,1024,1024,1024,0,0,0,0,0,0,0,29,,,,,,,10.259,109.4,729.3754970933,22.96588,14,Waypoint,
194400,2023-10-12 22:15:02,40.0689442127647,-88.2097088586285,22.96588,,,729.3754970933,21.32546,10.2675546,15.9937012992,17.8876646144,28,10,20.6475,730.3597490933,23.950132,10.2675546,15.9937012992,9.618842,-3.579104,0,338.1, -8.8, -1.7,0,0,1024,1024,1024,1024,0,0,0,0,0,0,0,29,,,,,,,10.259,109.4,729.3754970933,22.96588,14,Waypoint,
194500,2023-10-12 22:15:02,40.0689480513552,-88.2097106560061,22.96588,,,729.3754970933,21.32546,10.4688792,17.4813981972,19.3753943208,28,10,20.6475,730.3597490933,23.950132,10.4688792,17.4813981972,9.842536,-3.579104,0,338, -6.5, -1.6,0,0,1024,1024,1024,1024,0,0,0,0,0,0,0,29,,,,,,,10.259,109.4,729.3754970933,22.96588,14,Waypoint,
194600,2023-10-12 22:15:02,40.0689520856662,-88.2097125643301,22.96588,,,729.3754970933,21.32546,10.4688792,19.0467853864,20.94078151,28,10,20.6475,730.3597490933,23.950132,10.4688792,19.0467853864,9.842536,-3.579104,0,338, -4, -1.4,0,0,1024,1024,1024,1024,0,0,0,0,0,0,0,29,,,,,,,10.259,109.4,729.3754970933,22.96588,14,Waypoint,
194700,2023-10-12 22:15:02,40.0689559473785,-88.2097143909041,22.96588,,,729.3754970933,20.997376,10.4688792,20.5451778228,22.4391739464,28,10,20.6475,730.3597490933,23.950132,10.4688792,20.5451778228,9.842536,-3.579104,0,338, -1.5, -1.1,0,0,1024,1024,1024,1024,0,0,0,0,0,0,0,29,,,,,,,10.259,109.4,729.3754970933,22.96588,14,Waypoint,
194800,2023-10-12 22:15:02,40.0689601057018,-88.2097162917251,22.96588,,,729.3754970933,20.997376,10.4688792,22.1524613388,24.0464902708,28,10,20.6475,730.3597490933,23.950132,10.4688792,22.1524613388,9.842536,-3.579104,0,337.9, 0, -0.9,0,0,1024,1024,1024,1024,0,0,0,0,0,0,0,29,,,,,,,10.259,109.4,729.3754970933,22.96588,14,Waypoint,
194900,2023-10-12 22:15:02,40.0689639395679,-88.2097180894988,22.96588,,,729.3754970933,20.669292,10.4688792,23.6385834336,25.5326123656,28,10,20.6475,730.3597490933,23.950132,10.4688792,23.6385834336,9.842536,-3.579104,0,337.8, 1.3, -1,0,0,1024,1024,1024,1024,0,0,0,0,0,0,0,29,,,,,,,10.259,109.4,729.3754970933,22.96588,14,Waypoint,
195000,2023-10-12 22:15:02,40.0689679227825,-88.2097199582589,22.96588,,,729.3754970933,20.669292,10.2675546,25.1826779712,27.0767069032,28,10,20.6505,730.3597490933,23.950132,10.4688792,25.1826779712,9.618842,-3.579104,0,337.8, 2.2, -1.6,0,0,1024,1024,1024,1024,0,0,0,0,0,0,0,28,,,,,,,9.66,109.4,729.3754970933,22.96588,14,Waypoint,
195100,2023-10-12 22:15:02,40.0689716579125,-88.209721704418,22.96588,,,729.3754970933,20.341208,10.0438606,26.6300205372,28.5240494692,28,10,20.6505,730.3597490933,23.950132,10.4688792,26.6300205372,9.395148,-3.579104,0,337.7, 3.2, -2.1,0,0,1024,1024,1024,1024,0,0,0,0,0,0,0,29,,,,,,,9.66,109.4,729.3754970933,22.96588,14,Waypoint,
195200,2023-10-12 22:15:02,40.0689756621071,-88.2097235258594,22.96588,,,729.3754970933,20.013124,9.842536,28.1768709804,30.0709655292,28,10,20.6505,730.3597490933,23.950132,10.4688792,28.1768709804,9.171454,-3.579104,0,337.6, 4.4, -2.3,0,0,1024,1024,1024,1024,0,0,0,0,0,0,0,29,,,,,,,9.66,109.4,729.3754970933,22.96588,14,Waypoint,
195300,2023-10-12 22:15:03,40.0689792376214,-88.2097252241261,22.96588,,,729.3754970933,19.68504,9.5517338,29.5648959592,31.458990508,28,10,20.6505,730.3597490933,23.950132,10.4688792,29.5648959592,8.94776,-3.35541,0,337.6, 5.9, -2.1,0,0,1024,1024,1024,1024,0,0,0,0,0,0,0,29,,,,,,,9.66,109.4,729.3754970933,22.96588,14,Waypoint,
195400,2023-10-12 22:15:03,40.0689828614008,-88.2097269806568,22.96588,,,729.3754970933,19.356956,9.1490846,30.9749681828,32.86909554,28,10,20.6505,730.3597490933,23.950132,10.4688792,30.9749681828,8.500372,-3.35541,0,337.6, 7.5, -1.7,0,0,1024,1024,1024,1024,0,0,0,0,0,0,0,29,,,,,,,9.66,109.4,729.3754970933,22.96588,14,Waypoint,
195500,2023-10-12 22:15:03,40.0689862958635,-88.2097286341346,22.96588,,,729.3754970933,19.356956,8.8582824,32.3103028712,34.204725504,28,10,20.6505,730.3597490933,23.950132,10.4688792,32.3103028712,8.276678,-3.131716,0,337.6, 9, -1.4,0,0,1024,1024,1024,1024,0,0,0,0,0,0,0,29,,,,,,,9.66,109.4,729.3754970933,22.96588,14,Waypoint,
195600,2023-10-12 22:15:03,40.0689896401526,-88.2097302622515,22.96588,,,729.3754970933,19.028872,8.8582824,33.6122058,35.506562816,28,10,20.6505,730.3597490933,23.950132,10.4688792,33.6122058,7.82929,-3.131716,0,337.6, 10.5, -1.3,0,0,1024,1024,1024,1024,0,0,0,0,0,0,0,29,,,,,,,9.66,109.4,729.3754970933,22.96588,14,Waypoint,
195700,2023-10-12 22:15:03,40.0689926534395,-88.2097317317325,22.96588,,,729.3754970933,19.028872,7.941137,34.785762268,36.680119284,28,10,20.6505,730.3597490933,23.950132,10.4688792,34.785762268,7.381902,-2.908022,0,337.7, 12.1, -1.3,0,0,1024,1024,1024,1024,0,0,0,0,0,0,0,29,,,,,,,9.66,109.4,729.3754970933,22.96588,14,Waypoint,
195800,2023-10-12 22:15:03,40.0689956187183,-88.2097331836383,22.637796,,,729.0474130933,19.028872,7.2253162,35.940946032,37.835303048,28,10,20.6505,730.3597490933,23.950132,10.4688792,35.940946032,6.71082,-2.684328,0,337.7, 13.5, -1.4,0,0,1024,1024,1024,1024,0,0,0,0,0,0,0,29,,,,,,,9.66,109.4,729.0474130933,22.637796,14,Waypoint,
195900,2023-10-12 22:15:03,40.068998286551,-88.2097344986366,22.637796,,,729.0474130933,19.028872,6.7331894,36.980972312,38.875657412,28,10,20.6505,730.3597490933,23.950132,10.4688792,36.980972312,6.263432,-2.460634,0,337.8, 14.9, -1.4,0,0,1024,1024,1024,1024,0,0,0,0,0,0,0,29,,,,,,,9.66,109.4,729.0474130933,22.637796,14,Waypoint,
196000,2023-10-12 22:15:03,40.0690007932944,-88.209735722504,22.637796,,,729.0474130933,19.028872,6.0173686,37.957350296,39.852035396,28,10,20.6315,730.3597490933,23.950132,10.4688792,37.957350296,5.59235,-2.23694,0,338, 16, -1.2,0,0,1024,1024,1024,1024,0,0,0,0,0,0,0,28,,,,,,,9.735,109.4,729.0474130933,22.637796,14,Waypoint,
196100,2023-10-12 22:15:03,40.0690029367047,-88.2097367687946,22.637796,,,729.0474130933,19.356956,6.0173686,38.791995992,40.687009176,28,10,20.6315,730.3597490933,23.950132,10.4688792,38.791995992,4.921268,-2.013246,0,338.2, 16.8, -0.9,0,0,1024,1024,1024,1024,0,0,0,0,0,0,0,29,,,,,,,9.735,109.4,729.0474130933,22.637796,14,Waypoint,
196200,2023-10-12 22:15:03,40.0690050074775,-88.209737802861,22.637796,,,729.0474130933,19.356956,4.6080964,39.600723052,41.495736236,28,10,20.6315,730.3597490933,23.950132,10.4688792,39.600723052,4.250186,-1.789552,0,338.2, 17.3, -0.7,0,0,1024,1024,1024,1024,0,0,0,0,0,0,0,29,,,,,,,9.735,109.4,729.0474130933,22.637796,14,Waypoint,
196300,2023-10-12 22:15:03,40.0690066428965,-88.2097385798422,22.637796,,,729.0474130933,19.356956,4.6080964,40.235565592,42.130578776,28,10,20.6315,730.3597490933,23.950132,10.4688792,40.235565592,3.579104,-1.342164,0,338.3, 17.6, -0.7,0,0,1024,1024,1024,1024,0,0,0,0,0,0,0,29,,,,,,,9.735,109.4,729.0474130933,22.637796,14,Waypoint,
196400,2023-10-12 22:15:04,40.0690080837987,-88.2097392377934,22.637796,,,729.0474130933,19.356956,3.1093466,40.792652224,42.687337324,28,10,20.6315,730.3597490933,23.950132,10.4688792,40.792652224,2.908022,-1.11847,0,338.3, 17.2, -1,0,0,1024,1024,1024,1024,0,0,0,0,0,0,0,29,,,,,,,9.735,109.4,729.0474130933,22.637796,14,Waypoint,
196500,2023-10-12 22:15:04,40.0690092133253,-88.2097397436462,22.637796,,,729.0474130933,19.68504,2.4158952,41.228019692,43.123032876,28,10,20.6315,730.3597490933,23.950132,10.4688792,41.228019692,2.23694,-0.894776,0,338.2, 16.4, -1.4,0,0,1024,1024,1024,1024,0,0,0,0,0,0,0,29,,,,,,,9.735,109.4,729.0474130933,22.637796,14,Waypoint,
196600,2023-10-12 22:15:04,40.0690101848038,-88.2097402208916,22.637796,,,729.0474130933,19.68504,1.7000744,41.606628628,43.501641812,28,10,20.6315,730.3597490933,23.950132,10.4688792,41.606628628,1.565858,-0.671082,0,338.1, 15.2, -1.5,0,0,1024,1024,1024,1024,0,0,0,0,0,0,0,29,,,,,,,9.735,109.4,729.0474130933,22.637796,14,Waypoint,
196700,2023-10-12 22:15:04,40.0690108723458,-88.2097405298628,22.637796,,,729.0474130933,19.68504,1.7000744,41.872048584,43.767061768,28,10,20.6315,730.3597490933,23.950132,10.4688792,41.872048584,1.11847,-0.447388,0,338, 13.2, -1.3,0,0,1024,1024,1024,1024,0,0,0,0,0,0,0,29,,,,,,,9.735,109.4,729.0474130933,22.637796,14,Waypoint,
196800,2023-10-12 22:15:04,40.0690113997409,-88.2097407598966,22.637796,,,729.0474130933,19.68504,0.7158208,42.074804496,43.96981768,28,10,20.6315,730.3597490933,23.950132,10.4688792,42.074804496,0.671082,-0.223694,0,338, 11.8, -1,0,0,1024,1024,1024,1024,0,0,0,0,0,0,0,29,,,,,,,9.735,109.4,729.0474130933,22.637796,14,Waypoint,
196900,2023-10-12 22:15:04,40.069011702807,-88.2097409496418,22.637796,,,729.0474130933,20.013124,0.7158208,42.196851744,44.092521096,28,10,20.6315,730.3597490933,23.950132,10.4688792,42.196851744,0.223694,0,0,338.1, 10.7, -0.8,0,0,1024,1024,1024,1024,0,0,0,0,0,0,0,29,,,,,,,9.735,109.4,729.0474130933,22.637796,14,Waypoint,
197000,2023-10-12 22:15:04,40.0690119036117,-88.2097410124593,22.637796,,,729.0474130933,19.68504,0,42.271654896,44.167980416,28,10,20.6135,730.3597490933,23.950132,10.4688792,42.271654896,0,0,0,338.1, 9.6, -1,0,0,1024,1024,1024,1024,0,0,0,0,0,0,0,28,,,,,,,10.811,109.4,729.0474130933,22.637796,14,Waypoint,
197100,2023-10-12 22:15:04,40.0690119786223,-88.2097410192263,22.637796,,,729.0474130933,19.68504,0,42.297901616,44.195211388,28,10,20.6135,730.3597490933,23.950132,10.4688792,42.297901616,0,0,0.223694,338.2, 8.6, -1.4,0,0,1024,1024,1024,1024,0,0,0,0,0,0,0,29,,,,,,,10.811,109.4,729.0474130933,22.637796,14,Waypoint,
197200,2023-10-12 22:15:05,40.0690119461286,-88.209740988688,22.637796,,,729.0474130933,19.356956,0.447388,42.284122088,44.209975168,28,10,20.6135,730.3597490933,23.950132,10.4688792,42.297901616,-0.447388,0,0.447388,338.2, 7.8, -1.4,0,0,1024,1024,1024,1024,0,0,0,0,0,0,0,29,,,,,,,10.811,109.4,729.0474130933,22.637796,14,Waypoint,
197300,2023-10-12 22:15:05,40.0690117373141,-88.2097409313671,22.309712,,,728.7193290933,19.356956,0.447388,42.207022348,44.287731076,28,10,20.6135,730.3597490933,23.950132,10.4688792,42.297901616,-0.447388,0.223694,0.671082,338.1, 7.1, -0.9,0,0,1024,1024,1024,1024,0,0,0,0,0,0,0,29,,,,,,,10.811,109.4,728.7193290933,22.309712,14,Waypoint,
197400,2023-10-12 22:15:05,40.0690115241733,-88.2097407960772,22.309712,,,728.7193290933,19.356956,0.7158208,42.12106434,44.374345252,28,10,20.6135,730.3597490933,23.950132,10.4688792,42.297901616,-0.671082,0.223694,1.11847,338.1, 6.3, -0.8,0,0,1024,1024,1024,1024,0,0,0,0,0,0,0,29,,,,,,,10.811,109.4,728.7193290933,22.309712,14,Waypoint,
197500,2023-10-12 22:15:05,40.0690112612768,-88.2097406199892,21.981628,,,728.3912450933,19.028872,1.006623,42.014108956,44.481956804,28,10,20.6135,730.3597490933,23.950132,10.4688792,42.297901616,-0.894776,0.447388,1.342164,338.1, 5.5, -1.3,0,0,1024,1024,1024,1024,0,0,0,0,0,0,0,29,,,,,,,10.811,109.4,728.3912450933,21.981628,14,Waypoint,
197600,2023-10-12 22:15:05,40.0690107879124,-88.2097404152772,21.981628,,,728.3912450933,18.700788,1.006623,41.832022336,44.664043424,28,10,20.6135,730.3597490933,23.950132,10.4688792,42.297901616,-0.894776,0.447388,1.565858,338.2, 5, -2,0,0,1024,1024,1024,1024,0,0,0,0,0,0,0,29,,,,,,,10.811,109.4,728.3912450933,21.981628,14,Waypoint,
197700,2023-10-12 22:15:05,40.0690104116092,-88.2097401736068,21.653544,,,728.0631610933,18.372704,1.2079476,41.680119444,44.816930568,28,10,20.6135,730.3597490933,23.950132,10.4688792,42.297901616,-1.11847,0.447388,1.789552,338.4, 4.4, -2.7,0,0,1024,1024,1024,1024,0,0,0,0,0,0,0,29,,,,,,,10.811,109.4,728.0631610933,21.653544,14,Waypoint,
197800,2023-10-12 22:15:05,40.0690099554896,-88.2097399069337,21.32546,,,727.7350770933,18.372704,1.2079476,41.498360908,44.999345272,28,10,20.6135,730.3597490933,23.950132,10.4688792,42.297901616,-1.11847,0.447388,1.789552,338.6, 4, -3.1,0,0,1024,1024,1024,1024,0,0,0,0,0,0,0,29,,,,,,,10.811,109.4,727.7350770933,21.32546,14,Waypoint,
197900,2023-10-12 22:15:05,40.0690094792724,-88.2097396830848,20.997376,,,727.4069930933,18.04462,1.2079476,41.313649616,45.18372848,28,10,20.6135,730.3597490933,23.950132,10.4688792,42.297901616,-1.11847,0.447388,2.013246,338.5, 3.3, -2.7,0,0,1024,1024,1024,1024,0,0,0,0,0,0,0,29,,,,,,,10.811,109.4,727.4069930933,20.997376,14,Waypoint,
198000,2023-10-12 22:15:05,40.0690087802682,-88.2097394861024,20.669292,,,727.0789090933,17.716536,1.4092722,41.055119424,45.444883344,28,10,20.6135,730.3597490933,23.950132,10.4688792,42.297901616,-1.342164,0.447388,2.013246,338.4, 2.5, -1.8,0,0,1024,1024,1024,1024,0,0,0,0,0,0,0,29,,,,,,,10.811,109.4,727.0789090933,20.669292,14,Waypoint,
198100,2023-10-12 22:15:05,40.0690082700752,-88.2097393041766,20.341208,,,726.7508250933,17.388452,1.4092722,40.8628622,45.637796736,28,10,20.6455,730.3597490933,23.950132,10.4688792,42.297901616,-1.342164,0.447388,2.013246,338.2, 1.8, -0.7,0,0,1024,1024,1024,1024,0,0,0,0,0,0,0,27,,,,,,,7.821,109.4,726.7508250933,20.341208,14,Waypoint,
198200,2023-10-12 22:15:05,40.0690077268317,-88.209739095832,20.341208,,,726.7508250933,17.060368,1.4092722,40.656497364,45.844161572,28,10,20.6455,730.3597490933,23.950132,10.4688792,42.297901616,-1.342164,0.447388,1.789552,338.1, 1.5, -0.2,0,0,1024,1024,1024,1024,0,0,0,0,0,0,0,27,,,,,,,7.821,109.4,726.7508250933,20.341208,14,Waypoint,
198300,2023-10-12 22:15:06,40.0690070849677,-88.2097388681714,20.013124,,,726.4227410933,16.732284,1.2079476,40.414699456,46.086943732,28,10,20.6455,730.3597490933,23.950132,10.4688792,42.297901616,-1.11847,0.447388,1.565858,338.2, 1.4, -0.7,0,0,1024,1024,1024,1024,0,0,0,0,0,0,0,27,,,,,,,7.821,109.4,726.4227410933,20.013124,14,Waypoint,
198400,2023-10-12 22:15:06,40.069006536944,-88.2097386147525,19.68504,,,726.0946570933,16.4042,1.2079476,40.202757192,46.298885996,28,10,20.6455,730.3597490933,23.950132,10.4688792,42.297901616,-1.11847,0.447388,1.342164,338.3, 1.4, -1.8,0,0,1024,1024,1024,1024,0,0,0,0,0,0,0,27,,,,,,,7.821,109.4,726.0946570933,19.68504,14,Waypoint,
198500,2023-10-12 22:15:06,40.0690060156742,-88.209738386465,19.356956,,,725.7665730933,16.4042,1.2079476,40.002297868,46.499673404,28,10,20.6455,730.3597490933,23.950132,10.4688792,42.297901616,-1.11847,0.447388,1.11847,338.4, 1.5, -2.4,0,0,1024,1024,1024,1024,0,0,0,0,0,0,0,27,,,,,,,7.821,109.4,725.7665730933,19.356956,14,Waypoint,
198600,2023-10-12 22:15:06,40.0690054691496,-88.2097381725567,19.356956,,,725.7665730933,16.076116,1.1408394,39.794292612,46.70767866,28,10,20.6455,730.3597490933,23.950132,10.4688792,42.297901616,-1.11847,0.223694,0.894776,338.4, 1.2, -2.1,0,0,1024,1024,1024,1024,0,0,0,0,0,0,0,27,,,,,,,7.821,109.4,725.7665730933,19.356956,14,Waypoint,
198700,2023-10-12 22:15:06,40.0690048930269,-88.2097379985061,19.356956,,,725.7665730933,16.076116,1.1408394,39.58005376,46.923557932,28,10,20.6455,730.3597490933,23.950132,10.4688792,42.297901616,-1.11847,0.223694,0.447388,338.3, 0.9, -1,0,0,1024,1024,1024,1024,0,0,0,0,0,0,0,27,,,,,,,7.821,109.4,725.7665730933,19.356956,14,Waypoint,
198800,2023-10-12 22:15:06,40.0690043513854,-88.2097378345864,19.028872,,,725.4384890933,16.076116,1.1408394,39.378938268,47.126313844,28,10,20.6455,730.3597490933,23.950132,10.4688792,42.297901616,-1.11847,0.223694,0.223694,338.1, 0.6, 0,0,0,1024,1024,1024,1024,0,0,0,0,0,0,0,27,,,,,,,7.821,109.4,725.4384890933,19.028872,14,Waypoint,
198900,2023-10-12 22:15:06,40.0690038567325,-88.2097376853426,19.028872,,,725.4384890933,16.076116,1.1408394,39.194883144,47.311681304,28,10,20.6455,730.3597490933,23.950132,10.4688792,42.297901616,-1.11847,0.223694,0,333.5, 0.9, 1.3,0,0,1024,1024,1024,1024,0,0,0,0,0,0,0,27,,,,,,,7.821,109.4,725.4384890933,19.028872,14,Waypoint,
199000,2023-10-12 22:15:06,40.0690033087858,-88.2097375116727,19.028872,,,725.4384890933,16.076116,0.9171454,38.990486812,47.517389972,28,10,20.6455,730.3597490933,23.950132,10.4688792,42.297901616,-0.894776,0.223694,0,326.5, 0.9, 2.1,0,0,1024,1024,1024,1024,0,0,0,0,0,0,0,27,,,,,,,7.821,109.4,725.4384890933,19.028872,14,Waypoint,
199100,2023-10-12 22:15:06,40.0690028888436,-88.2097372766294,19.028872,,,725.4384890933,16.4042,1.006623,38.824148224,47.684056644,28,10,20.6055,730.3597490933,23.950132,10.4688792,42.297901616,-0.894776,0.447388,0,318.7, 0.6, 1.2,0,0,1024,1024,1024,1024,0,0,0,0,0,0,0,27,,,,,,,10.961,109.4,725.4384890933,19.028872,14,Waypoint,
199200,2023-10-12 22:15:06,40.0690025038108,-88.2097369585069,19.028872,,,725.4384890933,16.4042,0.8052984,38.661746644,47.850067148,28,10,20.6055,730.3597490933,23.950132,10.4688792,42.297901616,-0.671082,0.447388,0,310.5, 0, -0.9,0,0,1024,1024,1024,1024,0,0,0,0,0,0,0,27,,,,,,,10.961,109.4,725.4384890933,19.028872,14,Waypoint,
199300,2023-10-12 22:15:07,40.0690021729543,-88.2097366580379,19.028872,,,725.4384890933,16.732284,0.8052984,38.519686272,47.99704878,28,10,20.6055,730.3597490933,23.950132,10.4688792,42.297901616,-0.671082,0.447388,-0.223694,302.2, -0.7, -2.6,0,0,1024,1024,1024,1024,0,0,0,0,0,0,0,27,,,,,,,10.961,109.4,725.4384890933,19.028872,14,Waypoint,
199400,2023-10-12 22:15:07,40.0690017844177,-88.2097364183769,19.356956,,,725.7665730933,17.060368,0.6263432,38.363518288,48.153872932,28,10,20.6055,730.3597490933,23.950132,10.4688792,42.297901616,-0.447388,0.447388,-0.223694,293.7, -1, -3.2,0,0,1024,1024,1024,1024,0,0,0,0,0,0,0,27,,,,,,,10.961,109.4,725.7665730933,19.356956,14,Waypoint,
199500,2023-10-12 22:15:07,40.0690015023831,-88.2097361695477,19.356956,,,725.7665730933,17.060368,0.6263432,38.24311146,48.277888684,28,10,20.6055,730.3597490933,23.950132,10.4688792,42.297901616,-0.447388,0.447388,0,285, -0.9, -3.5,0,0,1024,1024,1024,1024,0,0,0,0,0,0,0,27,,,,,,,10.961,109.4,725.7665730933,19.356956,14,Waypoint,
199600,2023-10-12 22:15:07,40.0690012347834,-88.209735893267,19.356956,,,725.7665730933,17.060368,0.6263432,38.12500122,48.402560604,28,10,20.6055,730.3597490933,23.950132,10.4688792,42.297901616,-0.447388,0.447388,0,276.1, -0.9, -3.2,0,0,1024,1024,1024,1024,0,0,0,0,0,0,0,27,,,,,,,10.961,109.4,725.7665730933,19.356956,14,Waypoint,
199700,2023-10-12 22:15:07,40.0690010004998,-88.2097355505643,19.356956,,,725.7665730933,17.060368,0.6263432,38.012140324,48.530841448,28,10,20.6055,730.3597490933,23.950132,10.4688792,42.297901616,-0.447388,0.447388,0,267.1, -0.6, -2.6,0,0,1024,1024,1024,1024,0,0,0,0,0,0,0,27,,,,,,,10.961,109.4,725.7665730933,19.356956,14,Waypoint,
199800,2023-10-12 22:15:07,40.0690007811738,-88.2097352433227,19.356956,,,725.7665730933,17.060368,0.4921268,37.908137696,48.647967436,28,10,20.6055,730.3597490933,23.950132,10.4688792,42.297901616,-0.223694,0.447388,0,258.1, -0.7, -2,0,0,1024,1024,1024,1024,0,0,0,0,0,0,0,27,,,,,,,10.961,109.4,725.7665730933,19.356956,14,Waypoint,
199900,2023-10-12 22:15:07,40.0690006078427,-88.209734936319,19.356956,,,725.7665730933,17.388452,0.4921268,37.819555016,48.754594736,28,10,20.6055,730.3597490933,23.950132,10.4688792,42.297901616,-0.223694,0.447388,0,249.2, -0.8, -1.7,0,0,1024,1024,1024,1024,0,0,0,0,0,0,0,27,,,,,,,10.961,109.4,725.7665730933,19.356956,14,Waypoint,
200000,2023-10-12 22:15:07,40.0690004695581,-88.2097345975959,19.356956,,,725.7665730933,17.388452,0.447388,37.740486772,48.861878204,28,10,20.6055,730.3597490933,23.950132,10.4688792,42.297901616,0,0.447388,0,240.4, -1, -1.6,0,0,1024,1024,1024,1024,0,0,0,0,0,0,0,27,,,,,,,10.961,109.4,725.7665730933,19.356956,14,Waypoint,
200100,2023-10-12 22:15:07,40.069000408006,-88.2097342232271,19.356956,,,725.7665730933,17.388452,0.447388,37.684712492,48.968833588,28,10,20.6275,730.3597490933,23.950132,10.4688792,42.297901616,0,0.447388,0,231.7, -1.6, -1.4,0,0,1024,1024,1024,1024,0,0,0,0,0,0,0,27,,,,,,,9.645,109.4,725.7665730933,19.356956,14,Waypoint,
200200,2023-10-12 22:15:07,40.0690003977087,-88.2097338854639,19.356956,,,725.7665730933,17.716536,0.447388,37.649935588,49.062993696,28,10,20.6275,730.3597490933,23.950132,10.4688792,42.297901616,0,0.447388,0,223, -2.1, -1.1,0,0,1024,1024,1024,1024,0,0,0,0,0,0,0,27,,,,,,,9.645,109.4,725.7665730933,19.356956,14,Waypoint,
200300,2023-10-12 22:15:08,40.0690004329695,-88.2097335838867,19.356956,,,725.7665730933,17.716536,0.447388,37.63451564,49.148295536,28,10,20.6275,730.3597490933,23.950132,10.4688792,42.297901616,0,0.447388,0,214.2, -2.7, -0.7,0,0,1024,1024,1024,1024,0,0,0,0,0,0,0,27,,,,,,,9.645,109.4,725.7665730933,19.356956,14,Waypoint,
200400,2023-10-12 22:15:08,40.0690006251474,-88.2097332065401,19.356956,,,725.7665730933,17.716536,0.223694,37.666667872,49.27493596,28,10,20.6275,730.3597490933,23.950132,10.4688792,42.297901616,0,0.223694,0,205.3, -3.4, -0.3,0,0,1024,1024,1024,1024,0,0,0,0,0,0,0,27,,,,,,,9.645,109.4,725.7665730933,19.356956,14,Waypoint,
200500,2023-10-12 22:15:08,40.0690007257896,-88.2097329900851,19.356956,,,725.7665730933,17.716536,0.223694,37.68208782,49.34547402,28,10,20.6275,730.3597490933,23.950132,10.4688792,42.297901616,0,0.223694,0,196.3, -4.4, 0.1,0,0,1024,1024,1024,1024,0,0,0,0,0,0,0,27,,,,,,,9.645,109.4,725.7665730933,19.356956,14,Waypoint,
200600,2023-10-12 22:15:08,40.0690008354612,-88.2097328545292,19.356956,,,725.7665730933,17.388452,0,37.707678372,49.400592132,28,10,20.6275,730.3597490933,23.950132,10.4688792,42.297901616,0,0,0,188.7, -4.8, 0.5,0,0,1024,1024,1024,1024,0,0,0,0,0,0,0,27,,,,,,,9.645,109.4,725.7665730933,19.356956,14,Waypoint,
