time(millisecond),datetime(utc),latitude,longitude,height_above_takeoff(feet),height_above_ground_at_drone_location(feet),ground_elevation_at_drone_location(feet),altitude_above_seaLevel(feet),height_sonar(feet),speed(mph),distance(feet),mileage(feet),satellites,gpslevel,voltage(v),max_altitude(feet),max_ascent(feet),max_speed(mph),max_distance(feet), xSpeed(mph), ySpeed(mph), zSpeed(mph), compass_heading(degrees), pitch(degrees), roll(degrees),isPhoto,isVideo,rc_elevator,rc_aileron,rc_throttle,rc_rudder,rc_elevator(percent),rc_aileron(percent),rc_throttle(percent),rc_rudder(percent),gimbal_heading(degrees),gimbal_pitch(degrees),gimbal_roll(degrees),battery_percent,voltageCell1,voltageCell2,voltageCell3,voltageCell4,voltageCell5,voltageCell6,current(A),battery_temperature(f),altitude(feet),ascent(feet),flycStateRaw,flycState,message
0,2023-10-12 22:22:10,40.0689019143109,-88.2096876900465,0,Available with any HD 360 subscription,Available with any HD 360 subscription,706.4096170933,0.656168,0,0,0,26,10,0,706.4096170933,0,0,0,0,0,0,10, -0.4, -1.5,0,0,364,364,364,1684,-100,-100,-100,100,0,0,0,92,,,,,,,0,95.9,706.4096170933,0,6,P-GPS,"GEO: You are in a Warning Zone (Airport). Fly with caution."
100,2023-10-12 22:22:10,40.0689019063544,-88.2096876794983,0,,,706.4096170933,0.656168,0,0.004135334778,0.004135334778,26,10,0,706.4096170933,0,0,0.004135334778,0,0,0,10, -0.4, -1.5,0,0,364,364,364,1684,-100,-100,-100,100,0,0,0,92,,,,,,,0,95.9,706.4096170933,0,41,Motors_Started,
200,2023-10-12 22:22:10,40.0689018964174,-88.2096876682981,0,,,706.4096170933,0.656168,0,0.0089159451672,0.0089231958236,26,10,0,706.4096170933,0,0,0.0089159451672,0,0,0,10, -0.4, -1.5,0,0,364,364,364,1684,-100,-100,-100,100,0,0,0,92,,,,,,,0,95.9,706.4096170933,0,41,Motors_Started,
300,2023-10-12 22:22:10,40.0689018824661,-88.2096876572781,0,,,706.4096170933,0.656168,0,0.0147885175336,0.0148710306596,26,10,0,706.4096170933,0,0,0.0147885175336,0,0,0,10, -0.4, -1.5,0,0,364,364,364,1684,-100,-100,-100,100,0,0,0,92,,,,,,,0,95.9,706.4096170933,0,41,Motors_Started,"Setting new Return-To-Home altitude to 100m (328 ft). Data Recorder File Index is 48. Setting new Maximum Flight Altitude to 120m (394 ft)"
400,2023-10-12 22:22:10,40.06890190029,-88.2096876677483,0,,,706.4096170933,0.656168,0,0.008057907082,0.0220009521476,26,10,0,706.4096170933,0,0,0.0147885175336,0,0,0,10, -0.4, -1.5,0,0,364,364,364,1684,-100,-100,-100,100,0,0,0,92,,,,,,,0,95.9,706.4096170933,0,41,Motors_Started,
500,2023-10-12 22:22:10,40.0689018941983,-88.2096876513487,0,,,706.4096170933,0.656168,0,0.01306102404,0.0270907817068,26,10,0,706.4096170933,0,0,0.0147885175336,0,0,0,10, -0.4, -1.5,0,0,1024,1024,1024,1024,0,0,0,0,0,0,0,92,,,,,,,0,95.9,706.4096170933,0,41,Motors_Started,
600,2023-10-12 22:22:11,40.0689018843106,-88.2096876373286,0,,,706.4096170933,0.656168,0,0.0183429467812,0.0324141086488,26,10,0,706.4096170933,0,0,0.0183429467812,0,0,0,10, -0.4, -1.5,0,0,1024,1024,1024,1024,0,0,0,0,0,0,0,92,,,,,,,0,95.9,706.4096170933,0,41,Motors_Started,
700,2023-10-12 22:22:11,40.0689019250769,-88.2096876911649,0,,,706.4096170933,0.656168,0,0.0039403544568,0.053560369168,26,10,0,706.4096170933,0,0,0.0183429467812,0,0,0,10, -0.4, -1.5,0,0,1024,1024,1024,1024,0,0,0,0,0,0,0,92,,,,,,,0,95.9,706.4096170933,0,41,Motors_Started,
800,2023-10-12 22:22:11,40.0689019061112,-88.2096876933056,0,,,706.4096170933,0.656168,0,0.0031270178166,0.060505907448,26,10,0,706.4096170933,0,0,0.0183429467812,0,0,0,10, -0.4, -1.5,0,0,1024,1024,1024,1024,0,0,0,0,0,0,0,92,,,,,,,0,95.9,706.4096170933,0,41,Motors_Started,
900,2023-10-12 22:22:11,40.0689018926712,-88.2096876823805,0,,,706.4096170933,0.656168,0,0.0081802496056,0.066280842016,26,10,0,706.4096170933,0,0,0.0183429467812,0,0,0,10.1, -0.4, -1.5,0,0,1024,1024,1024,1024,0,0,0,0,0,0,0,92,,,,,,,0,95.9,706.4096170933,0,41,Motors_Started,
1000,2023-10-12 22:22:11,40.0689018744071,-88.2096876725799,0,,,706.4096170933,0.656168,0,0.0153539703076,0.073484582404,26,10,0,706.4096170933,0,0,0.0183429467812,0,0,0,10.2, -0.4, -1.5,0,0,1024,1024,1024,1024,0,0,0,0,0,0,0,92,,,,,,,0,95.9,706.4096170933,0,41,Motors_Started,
1100,2023-10-12 22:22:11,40.0689019217862,-88.2096877032525,0,,,706.4096170933,0.656168,0,0.004586286236,0.092775921604,26,10,0,706.4096170933,0,0,0.0183429467812,0,0,0,10.2, -0.4, -1.5,0,0,1024,1024,1024,1024,0,0,0,0,0,0,0,92,,,,,,,0,95.9,706.4096170933,0,41,Motors_Started,
1200,2023-10-12 22:22:11,40.0689019010966,-88.2096876944906,0,,,706.4096170933,0.656168,0,0.004978346616,0.100710961228,26,10,0,706.4096170933,0,0,0.0183429467812,0,0,0,10, -0.4, -1.5,0,0,1024,1024,1024,1024,0,0,0,0,0,0,0,92,,,,,,,0,95.9,706.4096170933,0,41,Motors_Started,
1300,2023-10-12 22:22:11,40.068901873566,-88.2096876783723,0,,,706.4096170933,0.656168,0,0.0152189309332,0.11171752326,26,10,0,706.4096170933,0,0,0.0183429467812,0,0,0,9.9, -0.5, -1.5,0,0,1024,1024,1024,1024,0,0,0,0,0,0,0,92,,,,,,,0,95.9,706.4096170933,0,41,Motors_Started,
1400,2023-10-12 22:22:11,40.0689018920262,-88.209687699218,0,,,706.4096170933,0.656168,0,0.0085243112964,0.120619098348,26,10,0,706.4096170933,0,0,0.0183429467812,0,0,0,9.9, -0.4, -1.5,0,0,1024,1024,1024,1024,0,0,0,0,0,0,0,92,,,,,,,0,95.9,706.4096170933,0,41,Motors_Started,
1500,2023-10-12 22:22:12,40.0689018766958,-88.2096876884875,0,,,706.4096170933,0.656168,0,0.0137307747176,0.126964242908,26,10,24.231,706.4096170933,0,0,0.0183429467812,0,0,0,9.9, -0.5, -1.5,0,0,1024,1024,1024,1024,0,0,0,0,0,0,0,92,,,,,,,3.696,95.9,706.4096170933,0,41,Motors_Started,
1600,2023-10-12 22:22:12,40.0689018563129,-88.2096876772906,0,,,706.4096170933,0.656168,0,0.021458169978,0.135031500384,26,10,24.231,706.4096170933,0,0,0.021458169978,0,0,0,9.9, -0.5, -1.5,0,0,1024,1024,1024,1024,0,0,0,0,0,0,0,92,,,,,,,3.696,95.9,706.4096170933,0,41,Motors_Started,
1700,2023-10-12 22:22:12,40.0689018471307,-88.2096876626563,0,,,706.4096170933,0.656168,0,0.0256760506904,0.140315293204,26,10,24.231,706.4096170933,0,0,0.0256760506904,0,0,0,9.9, -0.5, -1.5,0,0,1024,1024,1642,1024,0,0,94,0,0,0,0,92,,,,,,,3.696,95.9,706.4096170933,0,41,Motors_Started,
1800,2023-10-12 22:22:12,40.0689018695622,-88.209687668601,0,,,706.4096170933,0.656168,0,0.017389928378,0.148666015256,26,10,24.231,706.4096170933,0,0,0.0256760506904,0,0,0,9.9, -0.5, -1.5,0,0,1024,1024,1684,1371,0,0,100,53,0,0,0,92,,,,,,,3.696,95.9,706.4096170933,0,41,Motors_Started,
1900,2023-10-12 22:22:12,40.0689018617922,-88.2096876473169,0,,,706.4096170933,0.656168,0,0.0225720479664,0.155250333052,26,10,24.231,706.4096170933,0,0,0.0256760506904,0,0,0,9.9, -0.5, -1.5,0,0,1024,1024,1684,1338,0,0,100,48,0,0,0,92,,,,,,,3.696,95.9,706.4096170933,0,41,Motors_Started,
2000,2023-10-12 22:22:12,40.0689018509857,-88.2096876281148,0,,,706.4096170933,0.656168,0,0.0288584654904,0.161905188908,26,10,24.231,706.4096170933,0,0,0.0288584654904,0,0,-0.223694,9.9, -0.5, -1.5,0,0,1024,1024,1684,1072,0,0,100,7,0,0,0,92,,,,,,,3.696,95.9,706.4096170933,0,41,Motors_Started,
2100,2023-10-12 22:22:12,40.0689019209366,-88.2096876566241,0,,,706.4096170933,0.656168,0,0.0096398297048,0.188639441732,26,10,24.231,706.4096170933,0,0,0.0288584654904,0,0,-0.223694,9.9, -0.4, -1.5,0,0,1024,1024,1684,1072,0,0,100,7,0,0,0,92,,,,,,,3.696,95.9,706.4096170933,0,10,Assisted_Takeoff,
2200,2023-10-12 22:22:12,40.0689019183883,-88.2096876468685,0,,,706.4096170933,0.656168,0,0.0121471132496,0.191517722664,26,10,24.231,706.4096170933,0,0,0.0288584654904,0,0,-0.223694,9.9, -0.5, -1.5,0,0,1024,1024,1684,1024,0,0,100,0,0,0,0,92,,,,,,,3.696,95.9,706.4096170933,0,10,Assisted_Takeoff,
2300,2023-10-12 22:22:12,40.0689019052336,-88.2096876317781,0,,,706.4096170933,0.656168,0,0.0166027236284,0.197904205808,26,10,24.231,706.4096170933,0,0,0.0288584654904,0,0,-0.223694,9.9, -0.4, -1.5,0,0,1024,1024,1684,1024,0,0,100,0,0,0,0,92,,,,,,,3.696,95.9,706.4096170933,0,10,Assisted_Takeoff,
2400,2023-10-12 22:22:12,40.068901891124,-88.2096876164809,0,,,706.4096170933,0.656168,0,0.022214075514,0.2045931824,26,10,24.231,706.4096170933,0,0,0.0288584654904,0,0,-0.223694,9.8, -0.3, -1.5,0,0,1024,1024,1684,1024,0,0,100,0,0,0,0,92,,,,,,,3.696,95.9,706.4096170933,0,10,Assisted_Takeoff,
2500,2023-10-12 22:22:13,40.0689019096168,-88.2096876446799,0,,,706.4096170933,0.656168,0,0.012781988598,0.214961949136,26,10,24.2795,706.4096170933,0,0,0.0288584654904,0,0,-0.223694,9.7, 0.2, -1.5,0,0,1024,1024,1684,1024,0,0,100,0,0,0,0,92,,,,,,,0.954,95.72,706.4096170933,0,10,Assisted_Takeoff,
2600,2023-10-12 22:22:13,40.0689018652931,-88.209687677301,0.328084,,,706.7377010933,0.656168,0,0.018234744678,0.2335219891,26,10,24.2795,706.7377010933,0.328084,0,0.0288584654904,0,0,-0.447388,9.4, 2, -0.7,0,0,1024,1024,1684,1024,0,0,100,0,0,0,0,92,,,,,,,0.954,95.72,706.7377010933,0.328084,10,Assisted_Takeoff,
2700,2023-10-12 22:22:13,40.0689017962954,-88.2096877763554,0.328084,,,706.7377010933,0.984252,0.223694,0.049342849348,0.27092028426,26,10,24.2795,706.7377010933,0.328084,0.223694,0.049342849348,-0.223694,0,-0.894776,9.2, 2.8, 0.1,0,0,1024,1024,1684,1024,0,0,100,0,0,0,0,92,,,,,,,0.954,95.72,706.7377010933,0.328084,6,P-GPS,
2800,2023-10-12 22:22:13,40.068901739742,-88.2096879382057,0.328084,,,706.7377010933,0.984252,0.223694,0.09411417624,0.320597779288,26,10,24.2795,706.7377010933,0.328084,0.223694,0.09411417624,-0.223694,0,-1.565858,9.1, 1.5, 0,0,0,1024,1024,1684,1024,0,0,100,0,0,0,0,92,,,,,,,0.954,95.72,706.7377010933,0.328084,6,P-GPS,
2900,2023-10-12 22:22:13,40.068901579643,-88.2096880244209,0.656168,,,707.0657850933,1.312336,0.223694,0.153705385496,0.383776259,26,10,24.2795,707.0657850933,0.656168,0.223694,0.153705385496,-0.223694,0,-2.23694,9, 0.4, -0.3,0,0,1024,1024,1684,1024,0,0,100,0,0,0,0,92,,,,,,,0.954,95.72,707.0657850933,0.656168,6,P-GPS,
3000,2023-10-12 22:22:13,40.0689014190709,-88.2096881183738,0.984252,,,707.3938690933,1.64042,0.223694,0.216680781212,0.4479658936,26,10,24.2795,707.3938690933,0.984252,0.223694,0.216680781212,-0.223694,0,-2.908022,9, -1, -0.5,0,0,1024,1024,1684,1024,0,0,100,0,0,0,0,92,,,,,,,0.954,95.72,707.3938690933,0.984252,6,P-GPS,
3100,2023-10-12 22:22:13,40.0689012726174,-88.2096882250613,1.64042,,,708.0500370933,1.968504,0.223694,0.277718512824,0.50914043624,26,10,24.2795,708.0500370933,1.64042,0.223694,0.277718512824,-0.223694,0,-3.579104,8.9, -2.7, -0.7,0,0,1024,1024,1684,1024,0,0,100,0,0,0,0,92,,,,,,,0.954,95.72,708.0500370933,1.64042,6,P-GPS,
3200,2023-10-12 22:22:13,40.0689012354867,-88.2096883660757,1.968504,,,708.3781210933,2.624672,0,0.31139600734,0.55077757668,26,10,24.2795,708.3781210933,1.968504,0.223694,0.31139600734,0,0,-4.250186,8.9, -2.9, -0.5,0,0,1024,1024,1684,1024,0,0,100,0,0,0,0,92,,,,,,,0.954,95.72,708.3781210933,1.968504,6,P-GPS,
3300,2023-10-12 22:22:13,40.068901245728,-88.2096884922055,2.624672,,,709.0342890933,3.28084,0,0.33115814708,0.58619424448,26,10,24.2795,709.0342890933,2.624672,0.223694,0.33115814708,0,0,-5.144962,9.1, -1.8, 0.3,0,0,1024,1024,1684,1024,0,0,100,0,0,0,0,92,,,,,,,0.954,95.72,709.0342890933,2.624672,6,P-GPS,
3400,2023-10-12 22:22:13,40.0689012944292,-88.2096886002397,3.608924,,,710.0185410933,3.937008,0,0.34019686128,0.62120080728,26,10,24.2795,710.0185410933,3.608924,0.223694,0.34019686128,0,0,-5.816044,9.2, -0.2, 0.9,0,0,1024,1024,1684,1024,0,0,100,0,0,0,0,92,,,,,,,0.954,95.72,710.0185410933,3.608924,6,P-GPS,
3500,2023-10-12 22:22:14,40.0689014184565,-88.2096887445565,4.593176,,,711.0027930933,4.92126,0,0.34556759636,0.6817913604,26,10,23.971,711.0027930933,4.593176,0.223694,0.34556759636,0,0,-6.487126,9.1, 0.6, 1.1,0,0,1024,1024,1684,1024,0,0,100,0,0,0,0,92,,,,,,,11.408,95.72,711.0027930933,4.593176,6,P-GPS,
3600,2023-10-12 22:22:14,40.06890146445,-88.2096888109659,5.577428,,,711.9870450933,5.905512,0,0.3533956806,0.70680120372,26,10,23.971,711.9870450933,5.577428,0.223694,0.3533956806,0,0,-7.381902,9.1, 1, 1.3,0,0,1024,1024,1684,1024,0,0,100,0,0,0,0,92,,,,,,,11.408,95.72,711.9870450933,5.577428,6,P-GPS,
3700,2023-10-12 22:22:14,40.0689015075358,-88.209688870803,6.56168,,,712.9712970933,6.889764,0,0.36154200632,0.729740837,26,10,23.971,712.9712970933,6.56168,0.223694,0.36154200632,0,0,-8.052984,9.1, 0.6, 1,0,0,1024,1024,1684,1024,0,0,100,0,0,0,0,92,,,,,,,11.408,95.72,712.9712970933,6.56168,6,P-GPS,
3800,2023-10-12 22:22:14,40.0689015454398,-88.2096889184314,7.874016,,,714.2836330933,8.2021,0,0.36843505116,0.74892718932,26,10,23.971,714.2836330933,7.874016,0.223694,0.36843505116,0,0,-8.94776,9, 0.1, 0.8,0,0,1024,1024,1418,1024,0,0,60,0,0,0,0,92,,,,,,,11.408,95.72,714.2836330933,7.874016,6,P-GPS,
3900,2023-10-12 22:22:14,40.0689016230339,-88.2096890589778,9.186352,,,715.5959690933,9.186352,0,0.39671589196,0.79731301764,26,10,23.971,715.5959690933,9.186352,0.223694,0.39671589196,0,0,-9.618842,9, -0.2, 1.2,0,0,1024,1024,1418,1024,0,0,60,0,0,0,0,92,,,,,,,11.408,95.72,715.5959690933,9.186352,6,P-GPS,
4000,2023-10-12 22:22:14,40.0689016790651,-88.2096891001315,10.498688,,,716.9083050933,10.498688,0,0.40295604964,0.82076446196,26,10,23.971,716.9083050933,10.498688,0.223694,0.40295604964,0,0,-10.06623,9, -0.2, 1.8,0,0,1024,1024,1024,1024,0,0,0,0,0,0,0,92,,,,,,,11.408,95.72,716.9083050933,10.498688,6,P-GPS,
4100,2023-10-12 22:22:14,40.0689017556622,-88.2096891141278,11.811024,,,718.2206410933,11.811024,0,0.40180775564,0.8489829668,26,10,23.971,718.2206410933,11.811024,0.223694,0.40295604964,0,0,-9.842536,9, 0.2, 2.1,0,0,1024,1024,1024,1024,0,0,0,0,0,0,0,92,,,,,,,11.408,95.72,718.2206410933,11.811024,6,P-GPS,
4200,2023-10-12 22:22:14,40.06890185109,-88.2096891705335,13.451444,,,719.8610610933,12.795276,0,0.4140091996,0.88719819112,26,10,23.971,719.8610610933,13.451444,0.223694,0.4140091996,0.223694,0,-9.842536,9.1, 0.9, 1.9,0,0,1024,1024,1024,1024,0,0,0,0,0,0,0,92,,,,,,,11.408,95.72,719.8610610933,13.451444,6,P-GPS,
4300,2023-10-12 22:22:14,40.0689019394003,-88.2096891391262,14.76378,,,721.1733970933,14.107612,0,0.40469817568,0.9205872998,26,10,23.971,721.1733970933,14.76378,0.223694,0.4140091996,0,0,-9.171454,9.1, 1.4, 1.3,0,0,1024,1024,1024,1024,0,0,0,0,0,0,0,92,,,,,,,11.408,95.72,721.1733970933,14.76378,6,P-GPS,
4400,2023-10-12 22:22:14,40.0689020193243,-88.2096890839752,16.076116,,,722.4857330933,15.091864,0,0.39107940884,0.95356630348,26,10,23.971,722.4857330933,16.076116,0.223694,0.4140091996,0,0,-8.724066,9.2, 1.3, 0.9,0,0,1024,1024,1024,1024,0,0,0,0,0,0,0,92,,,,,,,11.408,95.72,722.4857330933,16.076116,6,P-GPS,
4500,2023-10-12 22:22:15,40.0689021060372,-88.209689036866,17.060368,,,723.4699850933,16.076116,0,0.38249345056,0.9878281156,26,10,23.8735,723.4699850933,17.060368,0.223694,0.4140091996,0,0,-8.052984,9.3, 1.2, 0.6,0,0,1024,1024,1024,1024,0,0,0,0,0,0,0,92,,,,,,,15.892,95.9,723.4699850933,17.060368,6,P-GPS,
4600,2023-10-12 22:22:15,40.0689022234017,-88.2096890513883,18.04462,,,724.4542370933,16.732284,0.223694,0.3964731098,1.030839928,26,10,23.8735,724.4542370933,18.04462,0.223694,0.4140091996,0.223694,0,-7.381902,9.4, 1.6, 0.8,0,0,1024,1024,1024,1024,0,0,0,0,0,0,0,92,,,,,,,15.892,95.9,724.4542370933,18.04462,6,P-GPS,
4700,2023-10-12 22:22:15,40.0689023183602,-88.2096890049973,19.028872,,,725.4384890933,17.716536,0.223694,0.3956364956,1.06782811816,26,10,23.8735,725.4384890933,19.028872,0.223694,0.4140091996,0,0,-6.487126,9.4, 2, 1.2,0,0,1024,1024,1024,1024,0,0,0,0,0,0,0,92,,,,,,,15.892,95.9,725.4384890933,19.028872,6,P-GPS,
4800,2023-10-12 22:22:15,40.0689024040774,-88.2096889642112,20.013124,,,726.4227410933,18.372704,0,0.3981135298,1.10110895912,26,10,23.8735,726.4227410933,20.013124,0.223694,0.4140091996,0,0,-5.59235,9.5, 2.1, 1.3,0,0,1024,1024,1024,1024,0,0,0,0,0,0,0,92,,,,,,,15.892,95.9,726.4227410933,20.013124,6,P-GPS,
4900,2023-10-12 22:22:15,40.0689025685274,-88.2096889802853,20.669292,,,727.0789090933,18.700788,0,0.43214568312,1.16127628388,26,10,23.8735,727.0789090933,20.669292,0.223694,0.43214568312,0,0,-4.697574,9.5, 2.1, 1.1,0,0,1024,1024,1024,1024,0,0,0,0,0,0,0,92,,,,,,,15.892,95.9,727.0789090933,20.669292,6,P-GPS,
5000,2023-10-12 22:22:15,40.0689026577555,-88.2096889606945,21.32546,,,727.7350770933,19.356956,0,0.4465879408,1.19428809596,26,10,23.8735,727.7350770933,21.32546,0.223694,0.4465879408,0,0,-3.802798,9.5, 2.1, 1.2,0,0,1024,1024,1024,1024,0,0,0,0,0,0,0,92,,,,,,,15.892,95.9,727.7350770933,21.32546,6,P-GPS,
5100,2023-10-12 22:22:15,40.0689027490294,-88.2096889492771,21.653544,,,728.0631610933,19.68504,0,0.46514765268,1.22774282144,26,10,23.8735,728.0631610933,21.653544,0.223694,0.46514765268,0,0,-2.908022,9.6, 2, 1.3,0,0,1024,1024,1024,1024,0,0,0,0,0,0,0,92,,,,,,,15.892,95.9,728.0631610933,21.653544,6,P-GPS,
5200,2023-10-12 22:22:15,40.0689028347369,-88.2096889493586,21.981628,,,728.3912450933,20.013124,0,0.48621392632,1.25901250748,26,10,23.8735,728.3912450933,21.981628,0.223694,0.48621392632,0,0,-2.013246,9.5, 2.2, 1.6,0,0,1024,1024,1024,1024,0,0,0,0,0,0,0,92,,,,,,,15.892,95.9,728.3912450933,21.981628,6,P-GPS,
5300,2023-10-12 22:22:15,40.0689030054868,-88.2096890270458,21.981628,,,728.3912450933,20.013124,0,0.54575461064,1.32497707652,26,10,23.8735,728.3912450933,21.981628,0.223694,0.54575461064,0,0,-1.11847,9.4, 2.5, 1.9,0,0,1024,1024,1024,1024,0,0,0,0,0,0,0,92,,,,,,,15.892,95.9,728.3912450933,21.981628,6,P-GPS,
5400,2023-10-12 22:22:15,40.0689030892767,-88.2096890384861,22.309712,,,728.7193290933,20.013124,0,0.57054463768,1.35571526648,26,10,23.8735,728.7193290933,22.309712,0.223694,0.57054463768,0,0,-0.671082,9.4, 2.6, 1.8,0,0,1024,1024,1024,1024,0,0,0,0,0,0,0,92,,,,,,,15.892,95.9,728.7193290933,22.309712,6,P-GPS,
5500,2023-10-12 22:22:16,40.068903179231,-88.2096890526805,22.309712,,,728.7193290933,20.013124,0,0.59811025536,1.38877301032,26,10,24.1585,728.7193290933,22.309712,0.223694,0.59811025536,0,0,-0.223694,9.3, 2.6, 1.5,0,0,1024,1024,1024,1024,0,0,0,0,0,0,0,92,,,,,,,3.94,95.9,728.7193290933,22.309712,6,P-GPS,
5600,2023-10-12 22:22:16,40.068903323917,-88.2096891051034,22.309712,,,728.7193290933,20.013124,0,0.64853676616,1.4435531958,26,10,24.1585,728.7193290933,22.309712,0.223694,0.64853676616,0,0,0,9.3, 2.3, 1.4,0,0,1024,1024,1024,1024,0,0,0,0,0,0,0,92,,,,,,,3.94,95.9,728.7193290933,22.309712,6,P-GPS,
5700,2023-10-12 22:22:16,40.0689033790696,-88.2096891087988,21.981628,,,728.3912450933,20.013124,0,0.66521983756,1.46370083424,26,10,24.1585,728.7193290933,22.309712,0.223694,0.66521983756,0,0,0.223694,9.3, 2.1, 1.4,0,0,1024,1024,1024,1024,0,0,0,0,0,0,0,92,,,,,,,3.94,95.9,728.3912450933,21.981628,6,P-GPS,
5800,2023-10-12 22:22:16,40.0689034312035,-88.2096891212868,21.981628,,,728.3912450933,20.013124,0,0.68263125544,1.48304138604,26,10,24.1585,728.7193290933,22.309712,0.223694,0.68263125544,0,0,0.223694,9.3, 1.9, 1.5,0,0,1024,1024,1024,1024,0,0,0,0,0,0,0,92,,,,,,,3.94,95.9,728.3912450933,21.981628,6,P-GPS,
5900,2023-10-12 22:22:16,40.0689035009432,-88.2096891637851,21.981628,,,728.3912450933,20.013124,0,0.71022640068,1.51111553392,26,10,24.1585,728.7193290933,22.309712,0.223694,0.71022640068,0,0,0.223694,9.3, 2.1, 1.7,0,0,1024,1024,1024,1024,0,0,0,0,0,0,0,92,,,,,,,3.94,95.9,728.3912450933,21.981628,6,P-GPS,
6000,2023-10-12 22:22:16,40.0689036107547,-88.2096892421462,21.981628,,,728.3912450933,20.013124,0,0.755577452,1.55676514168,26,10,24.1585,728.7193290933,22.309712,0.223694,0.755577452,0,0,0.223694,9.3, 2.3, 1.8,0,0,1024,1024,1024,1024,0,0,0,0,0,0,0,92,,,,,,,3.94,95.9,728.3912450933,21.981628,6,P-GPS,
6100,2023-10-12 22:22:16,40.0689036653902,-88.2096892909032,21.653544,,,728.0631610933,20.013124,0,0.77971459188,1.58090228156,26,10,24.1585,728.7193290933,22.309712,0.223694,0.77971459188,0,0,0.223694,9.3, 2.5, 2.1,0,0,1024,1024,1024,1024,0,0,0,0,0,0,0,92,,,,,,,3.94,95.9,728.0631610933,21.653544,6,P-GPS,
6200,2023-10-12 22:22:16,40.0689037040498,-88.2096893296157,21.653544,,,728.0631610933,20.013124,0,0.79746721712,1.59867459184,26,10,24.1585,728.7193290933,22.309712,0.223694,0.79746721712,0,0,0.223694,9.3, 2.5, 2.3,0,0,1024,1024,1024,1024,0,0,0,0,0,0,0,92,,,,,,,3.94,95.9,728.0631610933,21.653544,6,P-GPS,
6300,2023-10-12 22:22:16,40.0689037883109,-88.2096894296775,21.653544,,,728.0631610933,20.013124,0,0.83869425256,1.64021330708,26,10,24.1585,728.7193290933,22.309712,0.223694,0.83869425256,0,0,0.223694,9.3, 2.5, 2.3,0,0,1024,1024,1024,1024,0,0,0,0,0,0,0,92,,,,,,,3.94,95.9,728.0631610933,21.653544,6,P-GPS,
6400,2023-10-12 22:22:16,40.0689038020351,-88.2096894453161,21.653544,,,728.0631610933,20.013124,0,0.84530514516,1.64685700808,26,10,24.1585,728.7193290933,22.309712,0.223694,0.84530514516,0,0,0,9.3, 2.3, 2.1,0,0,1024,1024,1024,1024,0,0,0,0,0,0,0,92,,,,,,,3.94,95.9,728.0631610933,21.653544,6,P-GPS,
6500,2023-10-12 22:22:16,40.0689038082806,-88.2096894571659,21.32546,,,727.7350770933,20.013124,0,0.849081392,1.65087603708,26,10,24.024,728.7193290933,22.309712,0.223694,0.849081392,0,0,0,9.4, 2.1, 1.9,0,0,1024,1024,1024,1024,0,0,0,0,0,0,0,92,,,,,,,8,95.9,727.7350770933,21.32546,6,P-GPS,
6600,2023-10-12 22:22:17,40.068903808568,-88.2096894607108,21.32546,,,727.7350770933,20.013124,0,0.84974084084,1.6518701316,26,10,24.024,728.7193290933,22.309712,0.223694,0.84974084084,0,0,0,9.4, 2, 1.7,0,0,1024,1024,1024,1024,0,0,0,0,0,0,0,92,,,,,,,8,95.9,727.7350770933,21.32546,6,P-GPS,
6700,2023-10-12 22:22:17,40.0689038804203,-88.2096895665212,21.32546,,,727.7350770933,20.013124,0,0.88829399168,1.69136816436,26,10,24.024,728.7193290933,22.309712,0.223694,0.88829399168,0,0,0,9.4, 2.2, 1.8,0,0,1024,1024,1024,1024,0,0,0,0,0,0,0,92,,,,,,,8,95.9,727.7350770933,21.32546,6,P-GPS,
6800,2023-10-12 22:22:17,40.0689038757005,-88.209689570636,21.32546,,,727.7350770933,20.013124,0,0.88758533024,1.6934383744,26,10,24.024,728.7193290933,22.309712,0.223694,0.88829399168,0,0,0,9.4, 2.2, 1.8,0,0,1024,1024,1024,1024,0,0,0,0,0,0,0,92,,,,,,,8,95.9,727.7350770933,21.32546,6,P-GPS,
6900,2023-10-12 22:22:17,40.0689038522086,-88.2096895520246,21.32546,,,727.7350770933,20.013124,0,0.87760173412,1.7034613406,26,10,24.024,728.7193290933,22.309712,0.223694,0.88829399168,0,0,0,9.4, 2.1, 1.7,0,0,1024,1024,1024,1024,0,0,0,0,0,0,0,92,,,,,,,8,95.9,727.7350770933,21.32546,6,P-GPS,
7000,2023-10-12 22:22:17,40.0689038570827,-88.2096895950054,21.32546,,,727.7350770933,20.013124,0,0.88618441156,1.71559388692,26,10,24.024,728.7193290933,22.309712,0.223694,0.88829399168,0,0,0,9.3, 2, 1.8,0,0,1522,1024,1024,1024,75,0,0,0,0,0,0,92,,,,,,,8,95.9,727.7350770933,21.32546,6,P-GPS,
7100,2023-10-12 22:22:17,40.0689038218988,-88.2096895921879,20.997376,,,727.4069930933,20.013124,0,0.87547246896,1.72845477972,26,10,24.024,728.7193290933,22.309712,0.223694,0.88829399168,0,0,0,9.3, 2, 2,0,0,1522,1024,1024,1024,75,0,0,0,0,0,0,92,,,,,,,8,95.9,727.4069930933,20.997376,6,P-GPS,
7200,2023-10-12 22:22:17,40.0689037855472,-88.2096895786605,20.997376,,,727.4069930933,20.013124,0,0.86265422708,1.74224415024,26,10,24.024,728.7193290933,22.309712,0.223694,0.88829399168,0,0,0,9.2, -0.9, 1.9,0,0,1684,1024,1024,1024,100,0,0,0,0,0,0,92,,,,,,,8,95.9,727.4069930933,20.997376,6,P-GPS,
7300,2023-10-12 22:22:17,40.0689038062424,-88.2096895475796,20.997376,,,727.4069930933,20.013124,0,0.86339897776,1.75374677528,26,10,24.024,728.7193290933,22.309712,0.223694,0.88829399168,0,0,0,8.8, -11.4, 1.5,0,0,1684,1027,1024,1024,100,0,0,0,0,0,0,92,,,,,,,8,95.9,727.4069930933,20.997376,6,P-GPS,
7400,2023-10-12 22:22:17,40.0689040539656,-88.2096895135667,20.997376,,,727.4069930933,20.013124,0.7158208,0.93201118468,1.84462604328,26,10,24.024,728.7193290933,22.309712,0.7158208,0.93201118468,0.671082,0.223694,0,8.6, -19.6, 1.3,0,0,1684,1057,1024,1024,100,5,0,0,0,0,0,92,,,,,,,8,95.9,727.4069930933,20.997376,6,P-GPS,
7500,2023-10-12 22:22:18,40.068904613276,-88.2096893505714,20.997376,,,727.4069930933,20.013124,1.5882274,1.0884022658,2.05370413396,26,10,24.024,728.7193290933,22.309712,1.5882274,1.0884022658,1.565858,0.223694,0,8.6, -22.6, 1.2,0,0,1684,1053,1024,1024,100,4,0,0,0,0,0,92,,,,,,,8,95.9,727.4069930933,20.997376,6,P-GPS,
7600,2023-10-12 22:22:18,40.068905502312,-88.2096891226487,20.997376,,,727.4069930933,20.013124,2.5053728,1.36882550312,2.3842520448,26,10,24.0245,728.7193290933,22.309712,2.5053728,1.36882550312,2.460634,0.447388,0,8.6, -23.9, 1.4,0,0,1684,1024,1024,1024,100,0,0,0,0,0,0,92,,,,,,,7.97,95.9,727.4069930933,20.997376,6,P-GPS,
7700,2023-10-12 22:22:18,40.0689068625919,-88.2096888113047,20.997376,,,727.4069930933,20.013124,3.3777794,1.83231961244,2.88810376696,26,10,24.0245,728.7193290933,22.309712,3.3777794,1.83231961244,3.35541,0.447388,0,8.7, -23.8, 1.7,0,0,1684,1024,1024,1024,100,0,0,0,0,0,0,92,,,,,,,7.97,95.9,727.4069930933,20.997376,6,P-GPS,
7800,2023-10-12 22:22:18,40.0689084872983,-88.2096884096182,20.997376,,,727.4069930933,20.013124,4.2949248,2.40655191428,3.4914043112,26,10,24.0245,728.7193290933,22.309712,4.2949248,2.40655191428,4.250186,0.671082,0,8.7, -23.5, 1.8,0,0,1684,1024,1024,1024,100,0,0,0,0,0,0,92,,,,,,,7.97,95.9,727.4069930933,20.997376,6,P-GPS,
7900,2023-10-12 22:22:18,40.0689106006191,-88.209687913003,20.669292,,,727.0789090933,20.013124,5.2120702,3.16980653188,4.2748032864,26,10,24.0245,728.7193290933,22.309712,5.2120702,3.16980653188,5.144962,0.894776,0,8.8, -23.2, 1.8,0,0,1684,1024,1024,1024,100,0,0,0,0,0,0,92,,,,,,,7.97,95.9,727.0789090933,20.669292,6,P-GPS,
8000,2023-10-12 22:22:18,40.0689129528324,-88.2096873541866,20.669292,,,727.0789090933,20.013124,6.3529096,4.0284778192,5.1470802172,26,10,24.0245,728.7193290933,22.309712,6.3529096,4.0284778192,6.263432,1.11847,0,8.9, -22.9, 1.8,0,0,1459,1024,1024,1024,66,0,0,0,0,0,0,92,,,,,,,7.97,95.9,727.0789090933,20.669292,6,P-GPS,
8100,2023-10-12 22:22:18,40.0689156999318,-88.2096867059165,20.669292,,,727.0789090933,20.013124,7.2476856,5.0371720772,6.1655841868,26,10,24.0245,728.7193290933,22.309712,7.2476856,5.0371720772,7.158208,1.11847,0,9, -22.6, 1.8,0,0,1459,1024,1024,1024,66,0,0,0,0,0,0,92,,,,,,,7.97,95.9,727.0789090933,20.669292,6,P-GPS,
8200,2023-10-12 22:22:18,40.068918666384,-88.2096859706718,20.669292,,,727.0789090933,20.013124,8.164831,6.1308072828,7.2671590252,26,10,24.0245,728.7193290933,22.309712,8.164831,6.1308072828,8.052984,1.342164,0,9.1, -19.3, 1.5,0,0,1024,1024,1024,1024,0,0,0,0,0,0,0,92,,,,,,,7.97,95.9,727.0789090933,20.669292,6,P-GPS,
8300,2023-10-12 22:22:18,40.0689220801224,-88.2096851318737,20.669292,,,727.0789090933,20.013124,8.6345884,7.392060604,8.5345147088,26,10,24.0245,728.7193290933,22.309712,8.6345884,7.392060604,8.500372,1.565858,-0.223694,9.5, -8.2, 1.4,0,0,1024,1024,1024,1024,0,0,0,0,0,0,0,92,,,,,,,7.97,95.9,727.0789090933,20.669292,6,P-GPS,
8400,2023-10-12 22:22:18,40.0689253749663,-88.2096843189537,20.669292,,,727.0789090933,20.013124,8.8582824,8.6111879396,9.757874328,26,10,24.0245,728.7193290933,22.309712,8.8582824,8.6111879396,8.724066,1.565858,-0.223694,10.2, 11.8, 1.6,0,0,1024,1024,1024,1024,0,0,0,0,0,0,0,92,,,,,,,7.97,95.9,727.0789090933,20.669292,6,P-GPS,
8500,2023-10-12 22:22:19,40.0689286511755,-88.2096834936046,20.669292,,,727.0789090933,20.013124,7.941137,9.8250331228,10.9751972016,26,10,24.0245,728.7193290933,22.309712,8.8582824,9.8250331228,7.82929,1.342164,0.223694,10.7, 21.6, 2.6,0,0,1024,1024,1024,1024,0,0,0,0,0,0,0,92,,,,,,,7.97,95.9,727.0789090933,20.669292,6,P-GPS,
8600,2023-10-12 22:22:19,40.0689314508248,-88.2096827570948,20.669292,,,727.0789090933,20.013124,7.2924244,10.8640423424,12.0171591772,26,10,24.107,728.7193290933,22.309712,8.8582824,10.8640423424,7.158208,1.342164,0.447388,10.8, 20.5, -0.7,0,0,1024,1024,1024,1024,0,0,0,0,0,0,0,91,,,,,,,9.256,95.9,727.0789090933,20.669292,6,P-GPS,
8700,2023-10-12 22:22:19,40.0689340026937,-88.2096821211446,20.341208,,,726.7508250933,17.060368,6.1068462,11.8102365984,12.9649610448,26,10,24.107,728.7193290933,22.309712,8.8582824,11.8102365984,6.039738,0.894776,0,10, 23, -0.7,0,0,1024,1024,1024,1024,0,0,0,0,0,0,0,91,,,,,,,9.256,95.9,726.7508250933,20.341208,6,P-GPS,
8800,2023-10-12 22:22:19,40.0689361492502,-88.2096816104643,20.341208,,,726.7508250933,16.732284,5.1897008,12.6054137892,13.7610240624,26,10,24.107,728.7193290933,22.309712,8.8582824,12.6054137892,5.144962,0.671082,0,9.8, 24.2, 0.3,0,0,1024,1024,1024,1024,0,0,0,0,0,0,0,91,,,,,,,9.256,95.9,726.7508250933,20.341208,6,P-GPS,
8900,2023-10-12 22:22:19,40.06893780808,-88.209681205449,20.341208,,,726.7508250933,16.732284,4.2725554,13.2203744388,14.3767064968,26,10,24.107,728.7193290933,22.309712,8.8582824,13.2203744388,4.250186,0.447388,0,9.6, 20.6, 1.1,0,0,1024,1024,1024,1024,0,0,0,0,0,0,0,91,,,,,,,9.256,95.9,726.7508250933,20.341208,6,P-GPS,
9000,2023-10-12 22:22:19,40.0689390708581,-88.2096808868715,20.341208,,,726.7508250933,16.732284,3.35541,13.688976816,14.8459322336,26,10,24.107,728.7193290933,22.309712,8.8582824,13.688976816,3.35541,0.223694,-0.223694,9.5, 15.6, 1.2,0,0,1024,1024,1024,1024,0,0,0,0,0,0,0,91,,,,,,,9.256,95.9,726.7508250933,20.341208,6,P-GPS,
9100,2023-10-12 22:22:19,40.0689404347752,-88.2096804464266,20.341208,,,726.7508250933,16.732284,2.908022,14.1989505856,15.3585306752,26,10,24.107,728.7193290933,22.309712,8.8582824,14.1989505856,2.908022,0.223694,-0.223694,9.4, 10.8, 1.2,0,0,1024,1024,1024,1024,0,0,0,0,0,0,0,91,,,,,,,9.256,95.9,726.7508250933,20.341208,6,P-GPS,
9200,2023-10-12 22:22:19,40.0689414888029,-88.2096801766435,20.341208,,,726.7508250933,16.732284,2.460634,14.5903219892,15.7503942048,26,10,24.107,728.7193290933,22.309712,8.8582824,14.5903219892,2.460634,0.223694,-0.223694,9.4, 7.6, 1.1,0,0,1024,1024,1024,1024,0,0,0,0,0,0,0,91,,,,,,,9.256,95.9,726.7508250933,20.341208,6,P-GPS,
9300,2023-10-12 22:22:19,40.0689425425821,-88.2096799016561,20.341208,,,726.7508250933,16.732284,2.23694,14.9818574348,16.1424545848,26,10,24.107,728.7193290933,22.309712,8.8582824,14.9818574348,2.23694,0,-0.223694,9.4, 6.2, 1,0,0,1024,1024,1024,1024,0,0,0,0,0,0,0,92,,,,,,,9.256,95.9,726.7508250933,20.341208,6,P-GPS,
9400,2023-10-12 22:22:19,40.0689434738996,-88.2096796566245,20.341208,,,726.7508250933,16.732284,1.789552,15.3279860548,16.4890753308,26,10,24.107,728.7193290933,22.309712,8.8582824,15.3279860548,1.789552,0,-0.223694,9.4, 5.8, 1.1,0,0,1024,1024,1024,1024,0,0,0,0,0,0,0,92,,,,,,,9.256,95.9,726.7508250933,20.341208,6,P-GPS,
9500,2023-10-12 22:22:20,40.0689445941653,-88.2096794558602,20.341208,,,726.7508250933,16.732284,1.565858,15.7405188764,16.9016409608,26,10,24.107,728.7193290933,22.309712,8.8582824,15.7405188764,1.565858,0,-0.223694,9.5, 5.7, 1.3,0,0,1024,1024,1024,1024,0,0,0,0,0,0,0,92,,,,,,,9.256,95.9,726.7508250933,20.341208,6,P-GPS,
9600,2023-10-12 22:22:20,40.068945421688,-88.2096792977602,20.341208,,,726.7508250933,17.060368,1.342164,16.0456698048,17.2067590808,26,10,24.004,728.7193290933,22.309712,8.8582824,16.0456698048,1.342164,0,0,9.5, 5.3, 1.3,0,0,1024,1024,1024,1024,0,0,0,0,0,0,0,91,,,,,,,7.772,95.9,726.7508250933,20.341208,6,P-GPS,
9700,2023-10-12 22:22:20,40.0689462250053,-88.2096791518523,20.341208,,,726.7508250933,17.060368,1.11847,16.3415687644,17.5026580404,26,10,24.004,728.7193290933,22.309712,8.8582824,16.3415687644,1.11847,0,0,9.5, 4.8, 1.3,0,0,1024,1024,1024,1024,0,0,0,0,0,0,0,91,,,,,,,7.772,95.9,726.7508250933,20.341208,6,P-GPS,
9800,2023-10-12 22:22:20,40.0689471365721,-88.2096790646717,20.341208,,,726.7508250933,17.060368,1.11847,16.6741475152,17.8361554264,26,10,24.004,728.7193290933,22.309712,8.8582824,16.6741475152,1.11847,0,0,9.5, 4.2, 1.2,0,0,1024,1024,1024,1024,0,0,0,0,0,0,0,91,,,,,,,7.772,95.9,726.7508250933,20.341208,6,P-GPS,
9900,2023-10-12 22:22:20,40.0689477516779,-88.2096789581793,20.341208,,,726.7508250933,17.060368,0.894776,16.9005254752,18.0625333864,26,10,24.004,728.7193290933,22.309712,8.8582824,16.9005254752,0.894776,0,0,9.5, 3.6, 1.2,0,0,1024,1024,1024,1024,0,0,0,0,0,0,0,91,,,,,,,7.772,95.9,726.7508250933,20.341208,6,P-GPS,
10000,2023-10-12 22:22:20,40.0689482903168,-88.2096788665157,20.341208,,,726.7508250933,17.060368,0.894776,17.0986554028,18.2606961224,26,10,24.004,728.7193290933,22.309712,8.8582824,17.0986554028,0.894776,0,0,9.6, 3.2, 1.1,0,0,1024,1024,1024,1024,0,0,0,0,0,0,0,91,,,,,,,7.772,95.9,726.7508250933,20.341208,6,P-GPS,
10100,2023-10-12 22:22:20,40.0689487716484,-88.2096788132079,20.341208,,,726.7508250933,17.060368,0.671082,17.274606852,18.4369428472,26,10,24.004,728.7193290933,22.309712,8.8582824,17.274606852,0.671082,0,0,9.6, 2.9, 1,0,0,1024,1024,1024,1024,0,0,0,0,0,0,0,91,,,,,,,7.772,95.9,726.7508250933,20.341208,6,P-GPS,
10200,2023-10-12 22:22:20,40.068949205336,-88.2096788360592,20.341208,,,726.7508250933,17.060368,0.671082,17.4303155184,18.595308994,26,10,24.004,728.7193290933,22.309712,8.8582824,17.4303155184,0.671082,0,0,9.6, 2.8, 0.9,0,0,1024,1024,1024,1024,0,0,0,0,0,0,0,91,,,,,,,7.772,95.9,726.7508250933,20.341208,6,P-GPS,
10300,2023-10-12 22:22:20,40.0689495676925,-88.2096788057164,20.341208,,,726.7508250933,17.060368,0.671082,17.5623693284,18.7277893132,26,10,24.004,728.7193290933,22.309712,8.8582824,17.5623693284,0.671082,0,0,9.6, 3.2, 0.9,0,0,1024,1024,1024,1024,0,0,0,0,0,0,0,92,,,,,,,7.772,95.9,726.7508250933,20.341208,6,P-GPS,
10400,2023-10-12 22:22:20,40.0689498750719,-88.2096787875955,20.341208,,,726.7508250933,17.060368,0.447388,17.6741147388,18.840059658,26,10,24.004,728.7193290933,22.309712,8.8582824,17.6741147388,0.447388,0,-0.223694,9.6, 3.6, 0.9,0,0,1055,1024,1024,1024,5,0,0,0,0,0,0,92,,,,,,,7.772,95.9,726.7508250933,20.341208,6,P-GPS,
10500,2023-10-12 22:22:21,40.0689500862595,-88.2096789008877,20.341208,,,726.7508250933,17.060368,0.447388,17.7459979432,18.9233273772,26,10,24.004,728.7193290933,22.309712,8.8582824,17.7459979432,0.447388,0,0,9.6, 2.9, 0.9,0,0,1024,1024,1024,1024,0,0,0,0,0,0,0,92,,,,,,,7.772,95.9,726.7508250933,20.341208,6,P-GPS,
10600,2023-10-12 22:22:21,40.0689503119035,-88.2096789137459,20.341208,,,726.7508250933,17.060368,0.447388,17.8270346912,19.005742078,26,10,24.004,728.7193290933,22.309712,8.8582824,17.8270346912,0.447388,0,-0.223694,9.5, 2.4, 0.8,0,0,1024,1024,1024,1024,0,0,0,0,0,0,0,92,,,,,,,7.772,95.9,726.7508250933,20.341208,6,P-GPS,
10700,2023-10-12 22:22:21,40.0689505227313,-88.2096789624577,20.341208,,,726.7508250933,17.060368,0.447388,17.9013785256,19.0838588784,26,10,23.9895,728.7193290933,22.309712,8.8582824,17.9013785256,0.223694,0,-0.223694,9.4, 2.1, 0.8,0,0,1024,1024,1024,1024,0,0,0,0,0,0,0,91,,,,,,,7.742,95.9,726.7508250933,20.341208,6,P-GPS,
10800,2023-10-12 22:22:21,40.068950708934,-88.2096790103694,20.341208,,,726.7508250933,17.060368,0.223694,17.9668969004,19.1530846024,26,10,23.9895,728.7193290933,22.309712,8.8582824,17.9668969004,0.223694,0,-0.223694,9.4, 2, 0.8,0,0,1024,1024,1024,1024,0,0,0,0,0,0,0,91,,,,,,,7.742,95.9,726.7508250933,20.341208,6,P-GPS,
10900,2023-10-12 22:22:21,40.0689508427766,-88.2096791532572,20.341208,,,726.7508250933,17.060368,0.223694,18.0099415212,19.2161423472,26,10,23.9895,728.7193290933,22.309712,8.8582824,18.0099415212,0.223694,0,-0.223694,9.4, 2.2, 0.7,0,0,1024,1024,1024,1024,0,0,0,0,0,0,0,91,,,,,,,7.742,95.9,726.7508250933,20.341208,6,P-GPS,
11000,2023-10-12 22:22:21,40.068951006967,-88.2096791883594,20.341208,,,726.7508250933,16.732284,0.223694,18.0680451976,19.2768706956,26,10,23.9895,728.7193290933,22.309712,8.8582824,18.0680451976,0.223694,0,-0.223694,9.4, 2.8, 0.7,0,0,1024,1024,1024,1024,0,0,0,0,0,0,0,91,,,,,,,7.742,95.9,726.7508250933,20.341208,6,P-GPS,
11100,2023-10-12 22:22:21,40.0689511664457,-88.2096792342043,20.341208,,,726.7508250933,16.732284,0.223694,18.1240491364,19.33645075,26,10,23.9895,728.7193290933,22.309712,8.8582824,18.1240491364,0.223694,0,-0.223694,9.5, 3, 0.8,0,0,1024,1024,1024,1024,0,0,0,0,0,0,0,91,,,,,,,7.742,95.9,726.7508250933,20.341208,6,P-GPS,
11200,2023-10-12 22:22:21,40.0689512754962,-88.2096793544318,20.341208,,,726.7508250933,16.732284,0.223694,18.1591541244,19.3884848724,26,10,23.9895,728.7193290933,22.309712,8.8582824,18.1591541244,0.223694,0,-0.223694,9.5, 2.9, 1.1,0,0,1024,1024,1024,1024,0,0,0,0,0,0,0,91,,,,,,,7.742,95.9,726.7508250933,20.341208,6,P-GPS,
11300,2023-10-12 22:22:21,40.0689513943385,-88.2096794235188,20.341208,,,726.7508250933,16.732284,0.223694,18.1997053068,19.4359586272,26,10,23.9895,728.7193290933,22.309712,8.8582824,18.1997053068,0.223694,0,-0.223694,9.5, 2.8, 1.4,0,0,1024,1024,1024,1024,0,0,0,0,0,0,0,92,,,,,,,7.742,95.9,726.7508250933,20.341208,6,P-GPS,
11400,2023-10-12 22:22:21,40.0689514907016,-88.2096794900947,20.341208,,,726.7508250933,16.732284,0.223694,18.2322512396,19.475722408,26,10,23.9895,728.7193290933,22.309712,8.8582824,18.2322512396,0,0,-0.223694,9.5, 2.7, 1.5,0,0,1024,1024,1024,1024,0,0,0,0,0,0,0,92,,,,,,,7.742,95.9,726.7508250933,20.341208,6,P-GPS,
11500,2023-10-12 22:22:21,40.0689515842291,-88.2096795549968,20.341208,,,726.7508250933,16.732284,0,18.2638457288,19.5143707032,26,10,23.9895,728.7193290933,22.309712,8.8582824,18.2638457288,0,0,-0.223694,9.5, 2.7, 1.4,0,0,1024,1024,1024,1024,0,0,0,0,0,0,0,92,,,,,,,7.742,95.9,726.7508250933,20.341208,6,P-GPS,
11600,2023-10-12 22:22:22,40.0689516804124,-88.2096796387921,20.341208,,,726.7508250933,16.732284,0,18.295768302,19.5565294972,26,10,23.9895,728.7193290933,22.309712,8.8582824,18.295768302,0,0,-0.223694,9.4, 2.7, 1.4,0,0,1024,1024,1024,1024,0,0,0,0,0,0,0,92,,,,,,,7.742,95.9,726.7508250933,20.341208,6,P-GPS,
11700,2023-10-12 22:22:22,40.0689517549945,-88.2096797063353,20.341208,,,726.7508250933,16.732284,0,18.3204730272,19.5896331728,26,10,23.987,728.7193290933,22.309712,8.8582824,18.3204730272,0,0,-0.223694,9.4, 2.8, 1.4,0,0,1024,1024,1024,1024,0,0,0,0,0,0,0,91,,,,,,,7.788,95.9,726.7508250933,20.341208,6,P-GPS,
11800,2023-10-12 22:22:22,40.068951813891,-88.2096797673655,20.341208,,,726.7508250933,16.732284,0,18.339731558,19.6170609952,26,10,23.987,728.7193290933,22.309712,8.8582824,18.339731558,0,0,-0.223694,9.4, 2.9, 1.4,0,0,1024,1024,1024,1024,0,0,0,0,0,0,0,91,,,,,,,7.788,95.9,726.7508250933,20.341208,6,P-GPS,
11900,2023-10-12 22:22:22,40.0689519157539,-88.2096798799584,20.341208,,,726.7508250933,16.732284,0,18.372868042,19.6657486608,26,10,23.987,728.7193290933,22.309712,8.8582824,18.372868042,0,0,-0.223694,9.5, 2.9, 1.3,0,0,1024,1024,1024,1024,0,0,0,0,0,0,0,91,,,,,,,7.788,95.9,726.7508250933,20.341208,6,P-GPS,
12000,2023-10-12 22:22:22,40.0689519618731,-88.2096799367046,20.341208,,,726.7508250933,16.732284,0,18.3876974388,19.6888457744,26,10,23.987,728.7193290933,22.309712,8.8582824,18.3876974388,0,0,-0.223694,9.5, 2.9, 1.4,0,0,1024,1024,1024,1024,0,0,0,0,0,0,0,91,,,,,,,7.788,95.9,726.7508250933,20.341208,6,P-GPS,
12100,2023-10-12 22:22:22,40.0689520062617,-88.2096800018687,20.341208,,,726.7508250933,16.732284,0,18.4016410088,19.7132224156,26,10,23.987,728.7193290933,22.309712,8.8582824,18.4016410088,0,0,-0.223694,9.6, 2.8, 1.6,0,0,1024,1024,1024,1024,0,0,0,0,0,0,0,91,,,,,,,7.788,95.9,726.7508250933,20.341208,6,P-GPS,
12200,2023-10-12 22:22:22,40.0689520369178,-88.2096800616454,20.341208,,,726.7508250933,16.732284,0,18.4108273608,19.7333011564,26,10,23.987,728.7193290933,22.309712,8.8582824,18.4108273608,0,0,-0.223694,9.6, 2.7, 1.9,0,0,1024,1024,1024,1024,0,0,0,0,0,0,0,91,,,,,,,7.788,95.9,726.7508250933,20.341208,6,P-GPS,
12300,2023-10-12 22:22:22,40.0689521317818,-88.2096801825303,20.341208,,,726.7508250933,16.732284,0,18.4413391728,19.781660738,26,10,23.987,728.7193290933,22.309712,8.8582824,18.4413391728,0,0,-0.223694,9.5, 2.8, 2,0,0,1024,1024,1024,1024,0,0,0,0,0,0,0,92,,,,,,,7.788,95.9,726.7508250933,20.341208,6,P-GPS,
12400,2023-10-12 22:22:22,40.0689521458098,-88.2096802289745,20.341208,,,726.7508250933,16.732284,0,18.4449480968,19.795604308,26,10,23.987,728.7193290933,22.309712,8.8582824,18.4449480968,0,0,-0.223694,9.6, 2.6, 1.9,0,0,1024,1024,1024,1024,0,0,0,0,0,0,0,92,,,,,,,7.788,95.9,726.7508250933,20.341208,6,P-GPS,
12500,2023-10-12 22:22:22,40.0689521514296,-88.2096802733124,20.341208,,,726.7508250933,16.732284,0,18.4456042648,19.8081371168,26,10,23.987,728.7193290933,22.309712,8.8582824,18.4456042648,0,0,-0.223694,9.6, 2.4, 1.6,0,0,1024,1024,1024,1024,0,0,0,0,0,0,0,92,,,,,,,7.788,95.9,726.7508250933,20.341208,6,P-GPS,
12600,2023-10-12 22:22:23,40.0689521977329,-88.2096803953258,20.341208,,,726.7508250933,16.732284,0,18.4585963912,19.8461620524,26,10,23.987,728.7193290933,22.309712,8.8582824,18.4585963912,0,0,-0.223694,9.6, 2.3, 1.3,0,0,1024,1024,1024,1024,0,0,0,0,0,0,0,92,,,,,,,7.788,95.9,726.7508250933,20.341208,6,P-GPS,
12700,2023-10-12 22:22:23,40.0689521722897,-88.209680443396,20.341208,,,726.7508250933,16.732284,0,18.4479008528,19.8624678272,26,10,23.98,728.7193290933,22.309712,8.8582824,18.4585963912,0,0,-0.223694,9.6, 2.3, 1.3,0,0,1024,1024,1024,1024,0,0,0,0,0,0,0,91,,,,,,,7.772,95.9,726.7508250933,20.341208,6,P-GPS,
12800,2023-10-12 22:22:23,40.0689521417149,-88.2096804883061,20.341208,,,726.7508250933,16.732284,0,18.4354336608,19.879265728,26,10,23.98,728.7193290933,22.309712,8.8582824,18.4585963912,0,0,-0.223694,9.6, 2.4, 1.4,0,0,1024,1024,1024,1024,0,0,0,0,0,0,0,91,,,,,,,7.772,95.9,726.7508250933,20.341208,6,P-GPS,
12900,2023-10-12 22:22:23,40.0689521149053,-88.2096805344355,20.341208,,,726.7508250933,16.732284,0,18.4243116132,19.8954402692,26,10,23.98,728.7193290933,22.309712,8.8582824,18.4585963912,0,0,-0.223694,9.5, 2.3, 1.4,0,0,1024,1024,1024,1024,0,0,0,0,0,0,0,91,,,,,,,7.772,95.9,726.7508250933,20.341208,6,P-GPS,
13000,2023-10-12 22:22:23,40.0689521166615,-88.2096806148008,20.341208,,,726.7508250933,16.732284,0,18.4225071512,19.9178812148,26,10,23.98,728.7193290933,22.309712,8.8582824,18.4585963912,0,0,-0.223694,9.5, 2.1, 1.3,0,0,1024,1024,1024,1024,0,0,0,0,0,0,0,91,,,,,,,7.772,95.9,726.7508250933,20.341208,6,P-GPS,
13100,2023-10-12 22:22:23,40.0689520801714,-88.2096806596026,20.341208,,,726.7508250933,16.732284,0,18.4079402216,19.9361554936,26,10,23.98,728.7193290933,22.309712,8.8582824,18.4585963912,0,0,-0.223694,9.4, 2, 1.3,0,0,1024,1024,1024,1024,0,0,0,0,0,0,0,91,,,,,,,7.772,95.9,726.7508250933,20.341208,6,P-GPS,
13200,2023-10-12 22:22:23,40.0689520403617,-88.2096806975985,20.341208,,,726.7508250933,16.732284,0,18.39238904,19.9541344968,26,10,23.98,728.7193290933,22.309712,8.8582824,18.4585963912,0,0,-0.223694,9.5, 2, 1.3,0,0,1024,1024,1024,1024,0,0,0,0,0,0,0,91,,,,,,,7.772,95.9,726.7508250933,20.341208,6,P-GPS,
13300,2023-10-12 22:22:23,40.0689520534688,-88.2096808014633,20.341208,,,726.7508250933,16.732284,0,18.3940622684,19.9835308232,26,10,23.98,728.7193290933,22.309712,8.8582824,18.4585963912,0,0,-0.223694,9.5, 2, 1.3,0,0,1024,1024,1024,1024,0,0,0,0,0,0,0,92,,,,,,,7.772,95.9,726.7508250933,20.341208,6,P-GPS,
13400,2023-10-12 22:22:23,40.0689520076753,-88.2096808243048,20.341208,,,726.7508250933,16.732284,0,18.37680505,20.0014114012,26,10,23.98,728.7193290933,22.309712,8.8582824,18.4585963912,0,0,-0.223694,9.5, 1.9, 1.3,0,0,1024,1024,1024,1024,0,0,0,0,0,0,0,92,,,,,,,7.772,95.9,726.7508250933,20.341208,6,P-GPS,
13500,2023-10-12 22:22:24,40.0689519627897,-88.2096808467276,20.341208,,,726.7508250933,16.732284,0,18.3598431072,20.0189638952,26,10,23.98,728.7193290933,22.309712,8.8582824,18.4585963912,0,0,-0.223694,9.5, 1.9, 1.3,0,0,1024,1024,1024,1024,0,0,0,0,0,0,0,92,,,,,,,7.772,95.9,726.7508250933,20.341208,6,P-GPS,
13600,2023-10-12 22:22:24,40.0689519163836,-88.2096808631386,20.341208,,,726.7508250933,16.732284,0,18.3425530804,20.0364835808,26,10,23.98,728.7193290933,22.309712,8.8582824,18.4585963912,0,0,-0.223694,9.5, 1.9, 1.3,0,0,1024,1024,1024,1024,0,0,0,0,0,0,0,92,,,,,,,7.772,95.9,726.7508250933,20.341208,6,P-GPS,
13700,2023-10-12 22:22:24,40.0689519136423,-88.2096809645039,20.341208,,,726.7508250933,16.732284,0,18.3386160724,20.06479723,26,10,23.9755,728.7193290933,22.309712,8.8582824,18.4585963912,0,0,-0.223694,9.5, 1.8, 1.3,0,0,1024,1024,1024,1024,0,0,0,0,0,0,0,91,,,,,,,7.726,95.9,726.7508250933,20.341208,6,P-GPS,
13800,2023-10-12 22:22:24,40.0689518617749,-88.2096809830051,20.341208,,,726.7508250933,16.732284,0,18.3192591164,20.0844166532,26,10,23.9755,728.7193290933,22.309712,8.8582824,18.4585963912,0,0,0,9.5, 1.7, 1.4,0,0,1024,1024,1024,1024,0,0,0,0,0,0,0,91,,,,,,,7.726,95.9,726.7508250933,20.341208,6,P-GPS,
13900,2023-10-12 22:22:24,40.0689518162297,-88.2096809940813,20.341208,,,726.7508250933,16.732284,0,18.3024284072,20.1013129792,26,10,23.9755,728.7193290933,22.309712,8.8582824,18.4585963912,0,0,-0.223694,9.5, 1.6, 1.5,0,0,1024,1024,1024,1024,0,0,0,0,0,0,0,91,,,,,,,7.726,95.9,726.7508250933,20.341208,6,P-GPS,
14000,2023-10-12 22:22:24,40.0689518364901,-88.2096810610228,20.341208,,,726.7508250933,16.732284,0,18.3078746016,20.1214245284,26,10,23.9755,728.7193290933,22.309712,8.8582824,18.4585963912,0,0,-0.223694,9.4, 1.6, 1.6,0,0,1117,1024,1024,1024,14,0,0,0,0,0,0,91,,,,,,,7.726,95.9,726.7508250933,20.341208,6,P-GPS,
14100,2023-10-12 22:22:24,40.068951790658,-88.2096810552073,20.341208,,,726.7508250933,16.732284,0,18.2914047848,20.1382224292,26,10,23.9755,728.7193290933,22.309712,8.8582824,18.4585963912,0,0,-0.223694,9.4, 1.6, 1.5,0,0,1117,1024,1024,1024,14,0,0,0,0,0,0,91,,,,,,,7.726,95.9,726.7508250933,20.341208,6,P-GPS,
14200,2023-10-12 22:22:24,40.068951743815,-88.2096810426251,20.341208,,,726.7508250933,16.732284,0,18.274770926,20.155676498,26,10,23.9755,728.7193290933,22.309712,8.8582824,18.4585963912,0,0,-0.223694,9.3, 0.8, 1.3,0,0,1669,1024,1024,1024,98,0,0,0,0,0,0,91,,,,,,,7.726,95.9,726.7508250933,20.341208,6,P-GPS,
14300,2023-10-12 22:22:24,40.0689517050675,-88.2096810329248,20.341208,,,726.7508250933,16.732284,0,18.2609585896,20.1700793856,26,10,23.9755,728.7193290933,22.309712,8.8582824,18.4585963912,0,0,0,9.2, -4.6, 1.1,0,0,1684,1024,1024,1024,100,0,0,0,0,0,0,92,,,,,,,7.726,95.9,726.7508250933,20.341208,6,P-GPS,
14400,2023-10-12 22:22:24,40.068951784961,-88.209681040664,20.341208,,,726.7508250933,16.732284,0,18.2897643648,20.19931167,26,10,23.9755,728.7193290933,22.309712,8.8582824,18.4585963912,0,0,0,8.9, -14.1, 1,0,0,1684,1024,1024,1024,100,0,0,0,0,0,0,92,,,,,,,7.726,95.9,726.7508250933,20.341208,6,P-GPS,
14500,2023-10-12 22:22:25,40.0689520890977,-88.20968097451,20.013124,,,726.4227410933,16.732284,0.894776,18.4020019012,20.3117788652,26,10,23.9755,728.7193290933,22.309712,8.8582824,18.4585963912,0.894776,0,-0.223694,8.8, -20.7, 1.1,0,0,1684,1024,1024,1024,100,0,0,0,0,0,0,92,,,,,,,7.726,95.9,726.4227410933,20.013124,6,P-GPS,
14600,2023-10-12 22:22:25,40.0689527178414,-88.2096808505373,20.341208,,,726.7508250933,17.060368,1.8119214,18.6337604388,20.5437670616,26,10,23.9755,728.7193290933,22.309712,8.8582824,18.6337604388,1.789552,0.223694,-0.223694,8.8, -23, 1.2,0,0,1684,1024,1024,1024,100,0,0,0,0,0,0,92,,,,,,,7.726,95.9,726.7508250933,20.341208,6,P-GPS,
14700,2023-10-12 22:22:25,40.0689538024735,-88.2096807096256,20.013124,,,726.4227410933,17.060368,2.7290668,19.0314310552,20.9414704864,26,10,23.9755,728.7193290933,22.309712,8.8582824,19.0314310552,2.684328,0.447388,-0.223694,8.9, -23.7, 1.2,0,0,1684,1024,1024,1024,100,0,0,0,0,0,0,92,,,,,,,7.726,95.9,726.4227410933,20.013124,6,P-GPS,
14800,2023-10-12 22:22:25,40.0689551464512,-88.2096804320356,20.341208,,,726.7508250933,17.060368,3.6014734,19.5271659792,21.4378943868,26,10,23.9225,728.7193290933,22.309712,8.8582824,19.5271659792,3.579104,0.447388,-0.223694,9, -23.5, 1.4,0,0,1408,1024,1024,1024,58,0,0,0,0,0,0,91,,,,,,,8.576,95.9,726.7508250933,20.341208,6,P-GPS,
14900,2023-10-12 22:22:25,40.0689569735595,-88.2096800614161,20.013124,,,726.4227410933,17.388452,4.5186188,20.20095209,22.1125007076,26,10,23.9225,728.7193290933,22.309712,8.8582824,20.20095209,4.47388,0.671082,-0.223694,9.1, -23, 1.4,0,0,1408,1024,1024,1024,58,0,0,0,0,0,0,91,,,,,,,8.576,95.9,726.4227410933,20.013124,6,P-GPS,
15000,2023-10-12 22:22:25,40.068959054612,-88.2096796347043,20.341208,,,726.7508250933,17.388452,5.4357642,20.9685702248,22.881070286,26,10,23.9225,728.7193290933,22.309712,8.8582824,20.9685702248,5.368656,0.894776,-0.223694,9.3, -19.4, 1.6,0,0,1024,1024,1024,1024,0,0,0,0,0,0,0,91,,,,,,,8.576,95.9,726.7508250933,20.341208,6,P-GPS,
15100,2023-10-12 22:22:25,40.0689614743855,-88.2096792639033,20.341208,,,726.7508250933,17.716536,6.1068462,21.857448206,23.7699482672,26,10,23.9225,728.7193290933,22.309712,8.8582824,21.857448206,6.039738,0.894776,-0.223694,9.7, -8.6, 1.9,0,0,1024,1024,1024,1024,0,0,0,0,0,0,0,91,,,,,,,8.576,95.9,726.7508250933,20.341208,6,P-GPS,
15200,2023-10-12 22:22:25,40.0689638984425,-88.2096787537642,20.341208,,,726.7508250933,17.716536,6.3305402,22.7521004656,24.6657816292,26,10,23.9225,728.7193290933,22.309712,8.8582824,22.7521004656,6.263432,0.894776,-0.447388,10.4, 10.1, 2,0,0,1024,1024,1024,1024,0,0,0,0,0,0,0,91,,,,,,,8.576,95.9,726.7508250933,20.341208,6,P-GPS,
15300,2023-10-12 22:22:25,40.0689662362966,-88.2096782236335,20.341208,,,726.7508250933,17.716536,5.6594582,23.6162081048,25.53149688,26,10,23.9225,728.7193290933,22.309712,8.8582824,23.6162081048,5.59235,0.894776,0,10.9, 21.2, 2.3,0,0,1024,1024,1024,1024,0,0,0,0,0,0,0,92,,,,,,,8.576,95.9,726.7508250933,20.341208,6,P-GPS,
15400,2023-10-12 22:22:25,40.0689681488544,-88.2096778204039,20.341208,,,726.7508250933,17.716536,4.7423128,24.3222448728,26.2383210496,26,10,23.9225,728.7193290933,22.309712,8.8582824,24.3222448728,4.697574,0.671082,0,10.8, 23.9, 0.5,0,0,1024,1024,1024,1024,0,0,0,0,0,0,0,92,,,,,,,8.576,95.9,726.7508250933,20.341208,6,P-GPS,
15500,2023-10-12 22:22:26,40.0689697093272,-88.2096774702646,20.013124,,,726.4227410933,17.388452,3.6014734,24.8990165448,26.8159785484,26,10,23.9225,728.7193290933,22.309712,8.8582824,24.8990165448,3.579104,0.447388,0,10.3, 22.2, 0.6,0,0,1024,1024,1024,1024,0,0,0,0,0,0,0,92,,,,,,,8.576,95.9,726.4227410933,20.013124,6,P-GPS,
15600,2023-10-12 22:22:26,40.0689708293875,-88.2096772289964,20.013124,,,726.4227410933,17.388452,2.908022,25.3126976604,27.23015179,26,10,23.9225,728.7193290933,22.309712,8.8582824,25.3126976604,2.908022,0.223694,0,9.9, 16.6, 0.4,0,0,1024,1024,1024,1024,0,0,0,0,0,0,0,92,,,,,,,8.576,95.9,726.4227410933,20.013124,6,P-GPS,
15700,2023-10-12 22:22:26,40.0689716159055,-88.2096770507101,20.013124,,,726.4227410933,17.388452,2.23694,25.603511318,27.5213919568,26,10,23.9225,728.7193290933,22.309712,8.8582824,25.603511318,2.23694,0.223694,-0.223694,9.6, 11.1, 0.5,0,0,1024,1024,1024,1024,0,0,0,0,0,0,0,92,,,,,,,8.576,95.9,726.4227410933,20.013124,6,P-GPS,
15800,2023-10-12 22:22:26,40.0689723337781,-88.2096768730234,20.013124,,,726.4227410933,17.060368,2.013246,25.8693905916,27.7879602068,26,10,23.9225,728.7193290933,22.309712,8.8582824,25.8693905916,2.013246,0,-0.223694,9.5, 7.5, 0.8,0,0,1024,1024,1024,1024,0,0,0,0,0,0,0,92,,,,,,,8.576,95.9,726.4227410933,20.013124,6,P-GPS,
15900,2023-10-12 22:22:26,40.0689730754319,-88.2096767029468,20.013124,,,726.4227410933,17.060368,1.789552,26.143701624,28.0626977484,26,10,23.9225,728.7193290933,22.309712,8.8582824,26.143701624,1.789552,0,-0.223694,9.5, 5.8, 1,0,0,1024,1024,1024,1024,0,0,0,0,0,0,0,92,,,,,,,8.576,95.9,726.4227410933,20.013124,6,P-GPS,
16000,2023-10-12 22:22:26,40.0689737208854,-88.2096765577084,20.013124,,,726.4227410933,17.060368,1.565858,26.3823171172,28.3016413256,26,10,23.9225,728.7193290933,22.309712,8.8582824,26.3823171172,1.565858,0,-0.223694,9.5, 5.3, 1.2,0,0,1024,1024,1024,1024,0,0,0,0,0,0,0,92,,,,,,,8.576,95.9,726.4227410933,20.013124,6,P-GPS,
16100,2023-10-12 22:22:26,40.0689745877809,-88.2096763568829,20.013124,,,726.4227410933,17.060368,1.565858,26.7030192272,28.62286837,26,10,23.9225,728.7193290933,22.309712,8.8582824,26.7030192272,1.342164,0,-0.223694,9.5, 5.1, 1.4,0,0,1024,1024,1024,1024,0,0,0,0,0,0,0,92,,,,,,,8.576,95.9,726.4227410933,20.013124,6,P-GPS,
16200,2023-10-12 22:22:26,40.06897519405,-88.2096762421563,20.013124,,,726.4227410933,17.060368,1.11847,26.9264444312,28.8463591908,26,10,23.9225,728.7193290933,22.309712,8.8582824,26.9264444312,1.11847,0,-0.223694,9.6, 4.7, 1.4,0,0,1024,1024,1024,1024,0,0,0,0,0,0,0,92,,,,,,,8.576,95.9,726.4227410933,20.013124,6,P-GPS,
16300,2023-10-12 22:22:26,40.0689757955303,-88.2096761759596,20.013124,,,726.4227410933,17.060368,0.894776,27.1465559868,29.06660198,26,10,23.9225,728.7193290933,22.309712,8.8582824,27.1465559868,0.894776,0,-0.223694,9.7, 4.3, 1.4,0,0,1024,1024,1024,1024,0,0,0,0,0,0,0,91,,,,,,,8.576,95.9,726.4227410933,20.013124,6,P-GPS,
16400,2023-10-12 22:22:26,40.068976318642,-88.2096761263474,20.013124,,,726.4227410933,17.060368,0.671082,27.3376977252,29.2579733772,26,10,23.9225,728.7193290933,22.309712,8.8582824,27.3376977252,0.671082,0,-0.223694,9.7, 3.8, 1.3,0,0,1024,1024,1024,1024,0,0,0,0,0,0,0,91,,,,,,,8.576,95.9,726.4227410933,20.013124,6,P-GPS,
16500,2023-10-12 22:22:26,40.0689770421643,-88.2096761997806,20.013124,,,726.4227410933,17.060368,0.671082,27.5974746364,29.5227371652,26,10,23.948,728.7193290933,22.309712,8.8582824,27.5974746364,0.671082,0,-0.223694,9.8, 3.4, 1.3,0,0,1024,1024,1024,1024,0,0,0,0,0,0,0,91,,,,,,,10.09,95.9,726.4227410933,20.013124,6,P-GPS,
16600,2023-10-12 22:22:27,40.0689774488795,-88.2096762050462,20.013124,,,726.4227410933,17.060368,0.447388,27.7446859272,29.6711295584,26,10,23.948,728.7193290933,22.309712,8.8582824,27.7446859272,0.447388,0,-0.223694,9.8, 3.2, 1.5,0,0,1024,1024,1024,1024,0,0,0,0,0,0,0,91,,,,,,,10.09,95.9,726.4227410933,20.013124,6,P-GPS,
16700,2023-10-12 22:22:27,40.0689777820662,-88.2096762294674,20.013124,,,726.4227410933,17.060368,0.447388,27.8646334376,29.7928815308,26,10,23.948,728.7193290933,22.309712,8.8582824,27.8646334376,0.447388,0,-0.223694,9.7, 3.3, 1.7,0,0,1024,1024,1024,1024,0,0,0,0,0,0,0,91,,,,,,,10.09,95.9,726.4227410933,20.013124,6,P-GPS,
16800,2023-10-12 22:22:27,40.0689781166922,-88.2096763650079,20.013124,,,726.4227410933,17.060368,0.223694,27.981628192,29.9207030572,26,10,23.948,728.7193290933,22.309712,8.8582824,27.981628192,0.223694,0,-0.223694,9.7, 3.3, 1.8,0,0,1024,1024,1024,1024,0,0,0,0,0,0,0,91,,,,,,,10.09,95.9,726.4227410933,20.013124,6,P-GPS,
16900,2023-10-12 22:22:27,40.0689783430943,-88.2096764079811,20.013124,,,726.4227410933,17.060368,0.223694,28.0623696644,30.0041676268,26,10,23.948,728.7193290933,22.309712,8.8582824,28.0623696644,0.223694,0,-0.223694,9.6, 3, 1.8,0,0,1024,1024,1024,1024,0,0,0,0,0,0,0,91,,,,,,,10.09,95.9,726.4227410933,20.013124,6,P-GPS,
17000,2023-10-12 22:22:27,40.0689785247609,-88.2096764463709,20.013124,,,726.4227410933,17.060368,0.223694,28.1270350208,30.0713264216,26,10,23.948,728.7193290933,22.309712,8.8582824,28.1270350208,0.223694,0,-0.223694,9.6, 2.8, 1.8,0,0,1024,1024,1024,1024,0,0,0,0,0,0,0,91,,,,,,,10.09,95.9,726.4227410933,20.013124,6,P-GPS,
17100,2023-10-12 22:22:27,40.0689786771206,-88.2096764823316,20.013124,,,726.4227410933,17.060368,0,28.1811360724,30.127789678,26,10,23.948,728.7193290933,22.309712,8.8582824,28.1811360724,0,0,-0.223694,9.5, 2.6, 1.7,0,0,1024,1024,1024,1024,0,0,0,0,0,0,0,91,,,,,,,10.09,95.9,726.4227410933,20.013124,6,P-GPS,
17200,2023-10-12 22:22:27,40.0689788013557,-88.2096765669935,20.013124,,,726.4227410933,17.060368,0,28.223590142,30.1789051652,26,10,23.948,728.7193290933,22.309712,8.8582824,28.223590142,0,0,-0.223694,9.5, 2.5, 1.5,0,0,1024,1024,1024,1024,0,0,0,0,0,0,0,91,,,,,,,10.09,95.9,726.4227410933,20.013124,6,P-GPS,
17300,2023-10-12 22:22:27,40.0689788922061,-88.2096766030555,20.013124,,,726.4227410933,17.060368,0,28.25541429,30.2135508356,26,10,23.948,728.7193290933,22.309712,8.8582824,28.25541429,0,0,-0.223694,9.4, 2.3, 1.2,0,0,1024,1024,1024,1024,0,0,0,0,0,0,0,91,,,,,,,10.09,95.9,726.4227410933,20.013124,6,P-GPS,
17400,2023-10-12 22:22:27,40.0689789577075,-88.2096766342732,20.013124,,,726.4227410933,17.060368,0,28.278216128,30.239010154,26,10,23.948,728.7193290933,22.309712,8.8582824,28.278216128,0,0,-0.223694,9.4, 2.2, 1.1,0,0,1024,1024,1024,1024,0,0,0,0,0,0,0,91,,,,,,,10.09,95.9,726.4227410933,20.013124,6,P-GPS,
17500,2023-10-12 22:22:28,40.0689789955897,-88.2096767722002,20.013124,,,726.4227410933,17.060368,0,28.2877961808,30.2799222288,26,10,23.9495,728.7193290933,22.309712,8.8582824,28.2877961808,0,0,-0.223694,9.4, 2.1, 1.2,0,0,1024,1024,1024,1024,0,0,0,0,0,0,0,91,,,,,,,7.818,95.9,726.4227410933,20.013124,6,P-GPS,
17600,2023-10-12 22:22:28,40.0689790253163,-88.2096767985099,20.341208,,,726.7508250933,17.060368,0,28.2977699344,30.2930127804,26,10,23.9495,728.7193290933,22.309712,8.8582824,28.2977699344,0,0,-0.223694,9.4, 2, 1.3,0,0,1024,1024,1024,1024,0,0,0,0,0,0,0,91,,,,,,,7.818,95.9,726.7508250933,20.341208,6,P-GPS,
17700,2023-10-12 22:22:28,40.0689790472129,-88.20967681923,20.013124,,,726.4227410933,17.060368,0,28.3050862076,30.3028881088,26,10,23.9495,728.7193290933,22.309712,8.8582824,28.3050862076,0,0,-0.223694,9.4, 2, 1.2,0,0,1024,1024,1024,1024,0,0,0,0,0,0,0,91,,,,,,,7.818,95.9,726.4227410933,20.013124,6,P-GPS,
17800,2023-10-12 22:22:28,40.0689790555998,-88.2096768327228,20.341208,,,726.7508250933,17.060368,0,28.307743688,30.307743752,26,10,23.9495,728.7193290933,22.309712,8.8582824,28.307743688,0,0,-0.223694,9.5, 2.1, 0.9,0,0,1024,1024,1024,1024,0,0,0,0,0,0,0,91,,,,,,,7.818,95.9,726.7508250933,20.341208,6,P-GPS,
17900,2023-10-12 22:22:28,40.0689790774536,-88.2096769333696,20.341208,,,726.7508250933,17.060368,0,28.312664948,30.336943228,26,10,23.9495,728.7193290933,22.309712,8.8582824,28.312664948,0,0,-0.223694,9.6, 2.2, 0.8,0,0,1024,1024,1024,1024,0,0,0,0,0,0,0,91,,,,,,,7.818,95.9,726.7508250933,20.341208,6,P-GPS,
18000,2023-10-12 22:22:28,40.0689790690582,-88.2096769497176,20.341208,,,726.7508250933,17.060368,0,28.3091544492,30.3424550392,26,10,23.9495,728.7193290933,22.309712,8.8582824,28.312664948,0,0,-0.223694,9.6, 2.2, 0.8,0,0,1024,1024,1024,1024,0,0,0,0,0,0,0,91,,,,,,,7.818,95.9,726.7508250933,20.341208,6,P-GPS,
18100,2023-10-12 22:22:28,40.0689790574502,-88.2096769627626,20.341208,,,726.7508250933,17.060368,0,28.3045612732,30.3480324672,26,10,23.9495,728.7193290933,22.309712,8.8582824,28.312664948,0,0,-0.223694,9.6, 2.1, 0.9,0,0,1024,1024,1024,1024,0,0,0,0,0,0,0,91,,,,,,,7.818,95.9,726.7508250933,20.341208,6,P-GPS,
18200,2023-10-12 22:22:28,40.0689790893957,-88.2096770416852,20.341208,,,726.7508250933,17.060368,0,28.313813242,30.3729668512,26,10,23.9495,728.7193290933,22.309712,8.8582824,28.313813242,0,0,-0.223694,9.6, 2.1, 0.8,0,0,1024,1024,1024,1024,0,0,0,0,0,0,0,91,,,,,,,7.818,95.9,726.7508250933,20.341208,6,P-GPS,
18300,2023-10-12 22:22:28,40.0689790665396,-88.2096770606269,20.341208,,,726.7508250933,17.060368,0,28.304954974,30.3828421796,26,10,23.9495,728.7193290933,22.309712,8.8582824,28.313813242,0,0,-0.223694,9.6, 2.2, 0.7,0,0,1024,1024,1024,1024,0,0,0,0,0,0,0,91,,,,,,,7.818,95.9,726.7508250933,20.341208,6,P-GPS,
18400,2023-10-12 22:22:28,40.0689790363161,-88.209677082789,20.341208,,,726.7508250933,17.060368,0,28.2933408004,30.3954734136,26,10,23.9495,728.7193290933,22.309712,8.8582824,28.313813242,0,0,-0.223694,9.5, 2.3, 0.7,0,0,1024,1024,1024,1024,0,0,0,0,0,0,0,91,,,,,,,7.818,95.9,726.7508250933,20.341208,6,P-GPS,
18500,2023-10-12 22:22:29,40.0689789941248,-88.209677104588,20.341208,,,726.7508250933,17.060368,0,28.277395918,30.4120416556,26,10,23.9495,728.7193290933,22.309712,8.8582824,28.313813242,0,0,-0.223694,9.5, 2.2, 1,0,0,1024,1024,1024,1024,0,0,0,0,0,0,0,91,,,,,,,7.818,95.9,726.7508250933,20.341208,6,P-GPS,
18600,2023-10-12 22:22:29,40.0689789801439,-88.2096771536125,20.341208,,,726.7508250933,17.060368,0,28.2708998548,30.4266413936,26,10,23.9505,728.7193290933,22.309712,8.8582824,28.313813242,0,0,-0.223694,9.5, 2, 1.2,0,0,1024,1024,1024,1024,0,0,0,0,0,0,0,91,,,,,,,7.606,95.9,726.7508250933,20.341208,6,P-GPS,
18700,2023-10-12 22:22:29,40.068978945954,-88.2096772007451,20.341208,,,726.7508250933,17.060368,0,28.2571203268,30.4447516304,26,10,23.9505,728.7193290933,22.309712,8.8582824,28.313813242,0,0,-0.223694,9.5, 2, 1.3,0,0,1024,1024,1024,1024,0,0,0,0,0,0,0,91,,,,,,,7.606,95.9,726.7508250933,20.341208,6,P-GPS,
18800,2023-10-12 22:22:29,40.0689789091683,-88.2096772418573,20.341208,,,726.7508250933,17.060368,0,28.2425862056,30.462435358,26,10,23.9505,728.7193290933,22.309712,8.8582824,28.313813242,0,0,-0.223694,9.5, 2, 1.4,0,0,1024,1024,1024,1024,0,0,0,0,0,0,0,91,,,,,,,7.606,95.9,726.7508250933,20.341208,6,P-GPS,
18900,2023-10-12 22:22:29,40.0689789379697,-88.2096773526567,20.341208,,,726.7508250933,17.060368,0,28.2498696704,30.4951125244,26,10,23.9505,728.7193290933,22.309712,8.8582824,28.313813242,0,0,-0.223694,9.5, 2.1, 1.4,0,0,1024,1024,1024,1024,0,0,0,0,0,0,0,91,,,,,,,7.606,95.9,726.7508250933,20.341208,6,P-GPS,
