time(millisecond),datetime(utc),latitude,longitude,height_above_takeoff(feet),height_above_ground_at_drone_location(feet),ground_elevation_at_drone_location(feet),altitude_above_seaLevel(feet),height_sonar(feet),speed(mph),distance(feet),mileage(feet),satellites,gpslevel,voltage(v),max_altitude(feet),max_ascent(feet),max_speed(mph),max_distance(feet), xSpeed(mph), ySpeed(mph), zSpeed(mph), compass_heading(degrees), pitch(degrees), roll(degrees),isPhoto,isVideo,rc_elevator,rc_aileron,rc_throttle,rc_rudder,rc_elevator(percent),rc_aileron(percent),rc_throttle(percent),rc_rudder(percent),gimbal_heading(degrees),gimbal_pitch(degrees),gimbal_roll(degrees),battery_percent,voltageCell1,voltageCell2,voltageCell3,voltageCell4,voltageCell5,voltageCell6,current(A),battery_temperature(f),altitude(feet),ascent(feet),flycStateRaw,flycState,message
0,2023-10-12 21:23:03,40.0688976959633,-88.2095989703299,0,Available with any HD 360 subscription,Available with any HD 360 subscription,706.5406784492,0.656168,0,0,0,26,10,0,706.5406784492,0,0,0,0,0,0,1.7, 0, -1.8,0,0,364,364,364,1684,-100,-100,-100,100,0,0,0,67,,,,,,,0,107.78,706.5406784492,0,41,Motors_Started,"Your aircraft is flying in an Altitude Zone (500m). Please fly with caution."
100,2023-10-12 21:23:03,40.0688976929785,-88.2095989602838,0,,,706.5406784492,0.656168,0,0.0030089567892,0.0030089567892,26,10,0,706.5406784492,0,0,0.0030089567892,0,0,0,1.7, 0, -1.8,0,0,364,364,364,1684,-100,-100,-100,100,0,0,0,67,,,,,,,0,107.78,706.5406784492,0,41,Motors_Started,
200,2023-10-12 21:23:03,40.0688976883321,-88.209598948668,0,,,706.5406784492,0.656168,0,0.0066582679296,0.0066685041504,26,10,0,706.5406784492,0,0,0.0066582679296,0,0,0,1.7, 0, -1.8,0,0,364,364,364,1684,-100,-100,-100,100,0,0,0,67,,,,,,,0,107.78,706.5406784492,0,41,Motors_Started,
300,2023-10-12 21:23:03,40.068897686444,-88.209599019155,0,,,706.5406784492,0.656168,0,0.0140678482192,0.0263611228908,26,10,0,706.5406784492,0,0,0.0140678482192,0,0,0,1.7, 0, -1.8,0,0,364,364,364,1684,-100,-100,-100,100,0,0,0,67,,,,,,,0,107.78,706.5406784492,0,41,Motors_Started,
400,2023-10-12 21:23:04,40.0688976761339,-88.2095990055751,0,,,706.5406784492,0.656168,0,0.0122139767688,0.0317021335604,26,10,0,706.5406784492,0,0,0.0140678482192,0,0,0,1.7, 0, -1.8,0,0,364,364,364,1684,-100,-100,-100,100,0,0,0,67,,,,,,,0,107.78,706.5406784492,0,41,Motors_Started,
500,2023-10-12 21:23:04,40.0688976658329,-88.2095989937271,0,,,706.5406784492,0.656168,0,0.0127876316428,0.036708990676,26,10,0,706.5406784492,0,0,0.0140678482192,0,0,0,1.7, 0, -1.8,0,0,364,364,364,1684,-100,-100,-100,100,0,0,0,67,,,,,,,0,107.78,706.5406784492,0,41,Motors_Started,"Setting new Return-To-Home altitude to 100m (328 ft). Data Recorder File Index is 45. Setting new Maximum Flight Altitude to 120m (394 ft)"
600,2023-10-12 21:23:04,40.0688976585133,-88.2095989797539,0,,,706.5406784492,0.656168,0,0.0139146657996,0.0414370092,26,10,0,706.5406784492,0,0,0.0140678482192,0,0,0,1.7, 0, -1.8,0,0,590,694,474,1684,-66,-50,-83,100,0,0,0,67,,,,,,,0,107.78,706.5406784492,0,41,Motors_Started,
700,2023-10-12 21:23:04,40.0688976762574,-88.2095990374131,0,,,706.5406784492,0.656168,0,0.0200626974924,0.058788715792,26,10,0,706.5406784492,0,0,0.0200626974924,0,0,0,1.8, 0, -1.8,0,0,1015,1024,1024,1024,-1,0,0,0,0,0,0,67,,,,,,,0,107.78,706.5406784492,0,41,Motors_Started,
800,2023-10-12 21:23:04,40.068897676745,-88.2095990185763,0,,,706.5406784492,0.656168,0,0.0151864178088,0.064051183152,26,10,0,706.5406784492,0,0,0.0200626974924,0,0,0,1.8, 0, -1.8,0,0,1024,1024,1024,1024,0,0,0,0,0,0,0,67,,,,,,,0,107.78,706.5406784492,0,41,Motors_Started,
900,2023-10-12 21:23:04,40.0688976593177,-88.2095989949907,0,,,706.5406784492,0.656168,0,0.0150389440508,0.073205054836,26,10,0,706.5406784492,0,0,0.0200626974924,0,0,0,1.8, 0, -1.8,0,0,1024,1024,1024,1024,0,0,0,0,0,0,0,67,,,,,,,0,107.78,706.5406784492,0,41,Motors_Started,
1000,2023-10-12 21:23:04,40.0688976584536,-88.2095990343704,0,,,706.5406784492,0.656168,0,0.0225168314292,0.084204727104,26,10,0,706.5406784492,0,0,0.0225168314292,0,0,0,1.8, 0, -1.8,0,0,1024,1024,1024,1024,0,0,0,0,0,0,0,67,,,,,,,0,107.78,706.5406784492,0,41,Motors_Started,
1100,2023-10-12 21:23:04,40.06889765548,-88.2095990115386,0,,,706.5406784492,0.656168,0,0.0187228680532,0.090671262744,26,10,0,706.5406784492,0,0,0.0225168314292,0,0,0,1.7, 0, -1.8,0,0,1024,1024,1024,1024,0,0,0,0,0,0,0,67,,,,,,,0,107.78,706.5406784492,0,41,Motors_Started,
1200,2023-10-12 21:23:04,40.0688976438357,-88.2095989956754,0,,,706.5406784492,0.656168,0,0.0202926187596,0.096808730132,26,10,0,706.5406784492,0,0,0.0225168314292,0,0,0,1.7, 0, -1.8,0,0,1024,1024,1024,1024,0,0,0,0,0,0,0,67,,,,,,,0,107.78,706.5406784492,0,41,Motors_Started,
1300,2023-10-12 21:23:04,40.0688976382295,-88.2095989912269,0,,,706.5406784492,0.656168,0,0.0218572513556,0.099201446744,26,10,0,706.5406784492,0,0,0.0225168314292,0,0,0,1.7, 0, -1.9,0,0,1024,1024,1024,1024,0,0,0,0,0,0,0,67,,,,,,,0,107.78,706.5406784492,0,41,Motors_Started,
1400,2023-10-12 21:23:05,40.0688976488069,-88.2095990346992,0,,,706.5406784492,0.656168,0,0.0248801189064,0.111937995708,26,10,0,706.5406784492,0,0,0.0248801189064,0,0,0,1.7, 0, -1.9,0,0,1024,1024,1024,1024,0,0,0,0,0,0,0,67,,,,,,,0,107.78,706.5406784492,0,41,Motors_Started,
1500,2023-10-12 21:23:05,40.0688976404617,-88.2095990231925,0,,,706.5406784492,0.656168,0,0.025057907626,0.116364505036,26,10,0,706.5406784492,0,0,0.025057907626,0,0,0,1.7, 0, -1.9,0,0,1024,1024,1024,1024,0,0,0,0,0,0,0,67,,,,,,,0,107.78,706.5406784492,0,41,Motors_Started,
1600,2023-10-12 21:23:05,40.0688976312305,-88.2095990083778,0,,,706.5406784492,0.656168,0,0.0258969496476,0.121698494708,26,10,0,706.5406784492,0,0,0.0258969496476,0,0,0,1.7, 0.1, -1.8,0,0,1024,1024,1024,1024,0,0,0,0,0,0,0,67,,,,,,,0,107.78,706.5406784492,0,41,Motors_Started,
1700,2023-10-12 21:23:05,40.0688976349143,-88.2095990629842,0,,,706.5406784492,0.656168,0,0.034137468284,0.137004269476,26,10,0,706.5406784492,0,0,0.034137468284,0,0,0,1.7, 0.1, -1.8,0,0,1024,1024,1024,1024,0,0,0,0,0,0,0,67,,,,,,,0,107.78,706.5406784492,0,41,Motors_Started,
1800,2023-10-12 21:23:05,40.068897628563,-88.2095990475131,0,,,706.5406784492,0.656168,0,0.032697507608,0.14190617252,26,10,0,706.5406784492,0,0,0.034137468284,0,0,0,1.7, 0.1, -1.8,0,0,1024,1024,1024,1024,0,0,0,0,0,0,0,67,,,,,,,0,107.78,706.5406784492,0,41,Motors_Started,
1900,2023-10-12 21:23:05,40.0688976256149,-88.2095990377177,0,,,706.5406784492,0.656168,0,0.0318242792336,0.144845148992,26,10,0,706.5406784492,0,0,0.034137468284,0,0,-0.223694,1.7, 0, -1.8,0,0,1024,1024,1024,1024,0,0,0,0,0,0,0,67,,,,,,,0,107.78,706.5406784492,0,41,Motors_Started,
2000,2023-10-12 21:23:05,40.0688976232615,-88.209599024857,0,,,706.5406784492,0.656168,0,0.0305837936296,0.148537078244,26,10,0,706.5406784492,0,0,0.034137468284,0,0,-0.223694,1.7, 0.1, -1.8,0,0,1024,1024,1024,1024,0,0,0,0,0,0,0,67,,,,,,,0,107.78,706.5406784492,0,10,Assisted_Takeoff,
2100,2023-10-12 21:23:05,40.0688976480609,-88.2095990828254,0,,,706.5406784492,0.656168,0,0.035944554956,0.167079729756,26,10,0,706.5406784492,0,0,0.035944554956,0,0,-0.223694,1.7, 0.1, -1.8,0,0,1024,1024,1024,1024,0,0,0,0,0,0,0,67,,,,,,,0,107.78,706.5406784492,0,10,Assisted_Takeoff,
2200,2023-10-12 21:23:05,40.068897645015,-88.2095990595443,0,,,706.5406784492,0.656168,0,0.0310806768476,0.17367454624,26,10,0,706.5406784492,0,0,0.035944554956,0,0,-0.223694,1.7, 0.1, -1.8,0,0,1024,1024,1024,1024,0,0,0,0,0,0,0,67,,,,,,,0,107.78,706.5406784492,0,10,Assisted_Takeoff,
2300,2023-10-12 21:23:05,40.0688976297759,-88.2095990234654,0,,,706.5406784492,0.656168,0,0.0283416347652,0.18518045212,26,10,0,706.5406784492,0,0,0.035944554956,0,0,-0.223694,1.7, 0.1, -1.8,0,0,1024,1024,1024,1024,0,0,0,0,0,0,0,67,,,,,,,0,107.78,706.5406784492,0,10,Assisted_Takeoff,
2400,2023-10-12 21:23:05,40.0688976225344,-88.209599044925,0,,,706.5406784492,0.656168,0,0.033934056204,0.19172900876,26,10,0,706.5406784492,0,0,0.035944554956,0,0,-0.223694,1.7, 0.1, -1.8,0,0,1024,1024,1024,1024,0,0,0,0,0,0,0,67,,,,,,,0,107.78,706.5406784492,0,10,Assisted_Takeoff,
2500,2023-10-12 21:23:06,40.0688976163681,-88.2095990221036,0,,,706.5406784492,0.656168,0,0.0324392070748,0.198486226824,26,10,0,706.5406784492,0,0,0.035944554956,0,0,-0.223694,1.7, 0, -1.8,0,0,1024,1024,1191,1024,0,0,25,0,0,0,0,67,,,,,,,0,107.78,706.5406784492,0,10,Assisted_Takeoff,
2600,2023-10-12 21:23:06,40.0688976104083,-88.2095989993825,0,,,706.5406784492,0.656168,0,0.0322514446016,0.205192591868,26,10,0,706.5406784492,0,0,0.035944554956,0,0,-0.223694,1.7, 0, -1.8,0,0,1024,1024,1684,1024,0,0,100,0,0,0,0,67,,,,,,,0,107.78,706.5406784492,0,10,Assisted_Takeoff,
2700,2023-10-12 21:23:06,40.0688976077174,-88.2095989806284,0,,,706.5406784492,0.656168,0,0.0323246073336,0.21052001986,26,10,22.676,706.5406784492,0,0,0.035944554956,0,0,-0.223694,1.7, 0, -1.9,0,0,1024,1024,1684,1024,0,0,100,0,0,0,0,67,,,,,,,1.048,107.78,706.5406784492,0,10,Assisted_Takeoff,
2800,2023-10-12 21:23:06,40.068897619293,-88.2095990026751,0,,,706.5406784492,0.656168,0,0.0293947844052,0.217985243196,26,10,22.676,706.5406784492,0,0,0.035944554956,0,0,-0.223694,1.7, 0.1, -1.8,0,0,1024,1024,1684,1024,0,0,100,0,0,0,0,67,,,,,,,1.048,107.78,706.5406784492,0,10,Assisted_Takeoff,
2900,2023-10-12 21:23:06,40.0688976141073,-88.2095989712942,0.328084,,,706.8687624492,0.656168,0,0.02986630673,0.226949154244,26,10,22.676,706.8687624492,0.328084,0,0.035944554956,0,0,-0.223694,1.7, 0.1, -1.8,0,0,1024,1024,1684,1024,0,0,100,0,0,0,0,67,,,,,,,1.048,107.78,706.8687624492,0.328084,10,Assisted_Takeoff,
3000,2023-10-12 21:23:06,40.0688976117404,-88.2095989404802,0.328084,,,706.8687624492,0.656168,0,0.0318388461632,0.235595808064,26,10,22.676,706.8687624492,0.328084,0,0.035944554956,0,0,-0.223694,1.7, 0.1, -1.8,0,0,1024,1024,1684,1014,0,0,100,-2,0,0,0,67,,,,,,,1.048,107.78,706.8687624492,0.328084,10,Assisted_Takeoff,
3100,2023-10-12 21:23:06,40.0688976410943,-88.2095989870815,0.328084,,,706.8687624492,0.656168,0,0.0205580387156,0.252447842724,26,10,22.676,706.8687624492,0.328084,0,0.035944554956,0,0,-0.223694,1.7, 0.1, -1.8,0,0,1024,1024,1684,1014,0,0,100,-2,0,0,0,67,,,,,,,1.048,107.78,706.8687624492,0.328084,10,Assisted_Takeoff,
3200,2023-10-12 21:23:06,40.0688976359897,-88.2095989722313,0.328084,,,706.8687624492,0.656168,0,0.0218877631676,0.256993446544,26,10,22.676,706.8687624492,0.328084,0,0.035944554956,0,0,-0.223694,1.6, 0.8, -1.8,0,0,1024,1024,1684,954,0,0,100,-11,0,0,0,67,,,,,,,1.048,107.78,706.8687624492,0.328084,10,Assisted_Takeoff,
3300,2023-10-12 21:23:06,40.0688975947663,-88.2095989872427,0.328084,,,706.8687624492,0.656168,0,0.037222442136,0.27260663602,26,10,22.676,706.8687624492,0.328084,0,0.037222442136,0,0,-0.447388,1.3, 2.9, -1.6,0,0,1024,1024,1684,954,0,0,100,-11,0,0,0,67,,,,,,,1.048,107.78,706.8687624492,0.328084,10,Assisted_Takeoff,
3400,2023-10-12 21:23:06,40.0688974973962,-88.2095990276338,0.328084,,,706.8687624492,0.984252,0.223694,0.07419291576,0.309879275008,26,10,22.676,706.8687624492,0.328084,0.223694,0.07419291576,-0.223694,0,-1.11847,1, 3.8, -1.3,0,0,1024,1024,1684,1024,0,0,100,0,0,0,0,67,,,,,,,1.048,107.78,706.8687624492,0.328084,6,P-GPS,
3500,2023-10-12 21:23:07,40.0688973237557,-88.2095991723947,0.328084,,,706.8687624492,0.984252,0.447388,0.147052826228,0.38502625904,26,10,22.676,706.8687624492,0.328084,0.447388,0.147052826228,-0.447388,0,-1.565858,0.2, 2.2, -1.1,0,0,1024,1024,1684,1024,0,0,100,0,0,0,0,67,,,,,,,1.048,107.78,706.8687624492,0.328084,6,P-GPS,
3600,2023-10-12 21:23:07,40.0688970933868,-88.2095992551766,0.656168,,,707.1968464492,1.312336,0.447388,0.233792986484,0.47219817784,26,10,22.676,707.1968464492,0.656168,0.447388,0.233792986484,-0.447388,0,-2.23694,359.5, 0.1, -0.5,0,0,1024,1024,1684,1024,0,0,100,0,0,0,0,67,,,,,,,1.048,107.78,707.1968464492,0.656168,6,P-GPS,
3700,2023-10-12 21:23:07,40.0688968361497,-88.2095993631242,0.984252,,,707.5249304492,1.64042,0.447388,0.33231956444,0.57077101564,26,10,22.676,707.5249304492,0.984252,0.447388,0.33231956444,-0.447388,0,-2.908022,359.1, -1.8, -0.1,0,0,1024,1024,1684,898,0,0,100,-19,0,0,0,67,,,,,,,1.048,107.78,707.5249304492,0.984252,6,P-GPS,
3800,2023-10-12 21:23:07,40.0688966303814,-88.2095995490906,1.64042,,,708.1810984492,1.968504,0.447388,0.42102363552,0.66205054612,26,10,22.582,708.1810984492,1.64042,0.447388,0.42102363552,-0.447388,0,-3.579104,358.8, -3.4, 0.4,0,0,1024,1024,1684,1023,0,0,100,-0,0,0,0,67,,,,,,,1.66,107.96,708.1810984492,1.64042,6,P-GPS,
3900,2023-10-12 21:23:07,40.068896463617,-88.2095996270044,2.296588,,,708.8372664492,2.624672,0.223694,0.48556760084,0.72666668992,26,10,22.582,708.8372664492,2.296588,0.447388,0.48556760084,-0.223694,0,-4.47388,358.2, -3.3, 0.7,0,0,1024,1024,1684,1023,0,0,100,-0,0,0,0,67,,,,,,,1.66,107.96,708.8372664492,2.296588,6,P-GPS,
4000,2023-10-12 21:23:07,40.0688963532118,-88.2095996723716,2.952756,,,709.4934344492,3.28084,0,0.52766077804,0.76889438156,26,10,22.582,709.4934344492,2.952756,0.447388,0.52766077804,0,0,-5.144962,357.9, -2.3, 0.1,0,0,1024,1024,1684,1021,0,0,100,-0,0,0,0,67,,,,,,,1.66,107.96,709.4934344492,2.952756,6,P-GPS,
4100,2023-10-12 21:23:07,40.0688963298572,-88.2095997521474,3.608924,,,710.1496024492,4.265092,0,0.544127314,0.79274280752,26,10,22.582,710.1496024492,3.608924,0.447388,0.544127314,0,0,-5.816044,357.6, -1.4, 0,0,0,1024,1024,1684,832,0,0,100,-29,0,0,0,67,,,,,,,1.66,107.96,710.1496024492,3.608924,6,P-GPS,
4200,2023-10-12 21:23:07,40.0688963594298,-88.2095998991568,4.593176,,,711.1338544492,4.92126,0,0.55230644812,0.83518375376,26,10,22.582,711.1338544492,4.593176,0.447388,0.55230644812,0,0,-6.71082,357.4, -1.5, 0.6,0,0,1024,1024,1684,832,0,0,100,-29,0,0,0,67,,,,,,,1.66,107.96,711.1338544492,4.593176,6,P-GPS,
4300,2023-10-12 21:23:07,40.0688963228792,-88.2095999581481,5.577428,,,712.1181064492,5.905512,0,0.57187337788,0.85637469932,26,10,22.582,712.1181064492,5.577428,0.447388,0.57187337788,0,0,-7.381902,356.8, -1.6, 0,0,0,1024,1024,1684,837,0,0,100,-28,0,0,0,67,,,,,,,1.66,107.96,712.1181064492,5.577428,6,P-GPS,
4400,2023-10-12 21:23:07,40.0688963180157,-88.2096000278398,6.56168,,,713.1023584492,6.889764,0,0.5830380764,0.87591538236,26,10,22.582,713.1023584492,6.56168,0.447388,0.5830380764,0,0,-8.276678,355.4, -1.2, -0.6,0,0,1024,1024,1684,837,0,0,100,-28,0,0,0,67,,,,,,,1.66,107.96,713.1023584492,6.56168,6,P-GPS,
4500,2023-10-12 21:23:08,40.0688963310916,-88.2096002854457,7.874016,,,714.4146944492,8.2021,0,0.61871393056,0.947998718,26,10,22.582,714.4146944492,7.874016,0.447388,0.61871393056,0,0,-8.94776,354, -0.5, 0.3,0,0,1024,1024,1684,943,0,0,100,-12,0,0,0,67,,,,,,,1.66,107.96,714.4146944492,7.874016,6,P-GPS,
4600,2023-10-12 21:23:08,40.0688963837386,-88.2096004442844,9.186352,,,715.7270304492,9.514436,0.223694,0.6313320412,0.99632877204,26,10,22.582,715.7270304492,9.186352,0.447388,0.6313320412,0,-0.223694,-9.618842,353.1, 0, 1.4,0,0,1024,1024,1272,1024,0,0,38,0,0,0,0,67,,,,,,,1.66,107.96,715.7270304492,9.186352,6,P-GPS,
4700,2023-10-12 21:23:08,40.0688964623613,-88.2096006103434,10.826772,,,717.3674504492,10.826772,0.223694,0.64206694968,1.05084977116,26,10,22.582,717.3674504492,10.826772,0.447388,0.64206694968,0,-0.223694,-10.06623,352.6, 0.2, 2.2,0,0,1024,1024,1024,1024,0,0,0,0,0,0,0,67,,,,,,,1.66,107.96,717.3674504492,10.826772,6,P-GPS,
4800,2023-10-12 21:23:08,40.0688965510845,-88.2096007591335,12.139108,,,718.6797864492,11.811024,0.223694,0.6510991022,1.10351709568,26,10,22.342,718.6797864492,12.139108,0.447388,0.6510991022,0,-0.223694,-10.289924,352.3, 0.3, 2.9,0,0,1024,1024,1024,1024,0,0,0,0,0,0,0,67,,,,,,,13.968,107.78,718.6797864492,12.139108,6,P-GPS,
4900,2023-10-12 21:23:08,40.068896610782,-88.2096010662247,13.451444,,,719.9921224492,13.12336,0.3131716,0.7065452982,1.19198166544,26,10,22.342,719.9921224492,13.451444,0.447388,0.7065452982,0.223694,-0.223694,-10.06623,352.2, 0.5, 3.5,0,0,1024,1024,1024,1024,0,0,0,0,0,0,0,67,,,,,,,13.968,107.78,719.9921224492,13.451444,6,P-GPS,
5000,2023-10-12 21:23:08,40.0688967172339,-88.2096011900591,15.091864,,,721.6325424492,14.107612,0.223694,0.71527889428,1.2439796986,26,10,22.342,721.6325424492,15.091864,0.447388,0.71527889428,0.223694,0,-9.618842,352.2, 1.1, 3.6,0,0,1024,1024,1024,1024,0,0,0,0,0,0,0,67,,,,,,,13.968,107.78,721.6325424492,15.091864,6,P-GPS,
5100,2023-10-12 21:23:08,40.0688968518736,-88.2096012675169,16.4042,,,722.9448784492,15.419948,0.223694,0.7114993666,1.297654241,26,10,22.342,722.9448784492,16.4042,0.447388,0.71527889428,0.223694,0,-9.171454,352.3, 1.9, 3.3,0,0,1024,1024,1024,1024,0,0,0,0,0,0,0,67,,,,,,,13.968,107.78,722.9448784492,16.4042,6,P-GPS,
5200,2023-10-12 21:23:08,40.0688969741167,-88.2096014360306,17.716536,,,724.2572144492,16.4042,0.223694,0.73709976112,1.3624836394,26,10,22.342,724.2572144492,17.716536,0.447388,0.73709976112,0.223694,0,-8.500372,352.4, 2.4, 2.9,0,0,1024,1024,1024,1024,0,0,0,0,0,0,0,67,,,,,,,13.968,107.78,724.2572144492,17.716536,6,P-GPS,
5300,2023-10-12 21:23:08,40.0688971036983,-88.2096015065202,18.700788,,,725.2414664492,17.060368,0.223694,0.74036091608,1.41369427096,26,10,22.342,725.2414664492,18.700788,0.447388,0.74036091608,0.223694,0,-7.82929,352.4, 2.7, 2.8,0,0,1024,1024,1024,1024,0,0,0,0,0,0,0,67,,,,,,,13.968,107.78,725.2414664492,18.700788,6,P-GPS,
5400,2023-10-12 21:23:08,40.068897221533,-88.2096015729935,19.68504,,,726.2257184492,18.04462,0.223694,0.74701774044,1.46052170028,26,10,22.342,726.2257184492,19.68504,0.447388,0.74701774044,0.223694,0,-7.158208,352.4, 2.9, 2.8,0,0,1024,1024,1024,1024,0,0,0,0,0,0,0,67,,,,,,,13.968,107.78,726.2257184492,19.68504,6,P-GPS,
5500,2023-10-12 21:23:09,40.068897345496,-88.2096016508444,20.669292,,,727.2099704492,19.028872,0.223694,0.759268397,1.51070214808,26,10,22.342,727.2099704492,20.669292,0.447388,0.759268397,0.223694,0,-6.263432,352.5, 3.1, 3.2,0,0,1024,1024,1024,1024,0,0,0,0,0,0,0,67,,,,,,,13.968,107.78,727.2099704492,20.669292,6,P-GPS,
5600,2023-10-12 21:23:09,40.0688974643507,-88.2096017876878,21.653544,,,728.1942224492,19.68504,0.223694,0.7911581618,1.56849742552,26,10,22.342,728.1942224492,21.653544,0.447388,0.7911581618,0.223694,0,-5.59235,352.4, 3.2, 3.7,0,0,1024,1024,1024,1024,0,0,0,0,0,0,0,67,,,,,,,13.968,107.78,728.1942224492,21.653544,6,P-GPS,
5700,2023-10-12 21:23:09,40.068897578918,-88.2096018854398,22.309712,,,728.8503904492,20.341208,0.223694,0.815042677,1.61841868696,26,10,22.342,728.8503904492,22.309712,0.447388,0.815042677,0.223694,0,-4.697574,352.4, 3.3, 4.1,0,0,1024,1024,1024,1024,0,0,0,0,0,0,0,67,,,,,,,13.968,107.78,728.8503904492,22.309712,6,P-GPS,
5800,2023-10-12 21:23:09,40.0688976878611,-88.2096019636754,22.96588,,,729.5065584492,20.669292,0.223694,0.83577430496,1.66377301912,26,10,22.467,729.5065584492,22.96588,0.447388,0.83577430496,0.223694,0,-3.579104,352.4, 3.3, 3.9,0,0,1024,1024,1024,1024,0,0,0,0,0,0,0,66,,,,,,,8.958,107.96,729.5065584492,22.96588,6,P-GPS,
5900,2023-10-12 21:23:09,40.068897823101,-88.2096021631936,23.293964,,,729.8346424492,20.997376,0.223694,0.89268047476,1.73819231284,26,10,22.467,729.8346424492,23.293964,0.447388,0.89268047476,0.223694,0,-2.684328,352.3, 3.5, 3.5,0,0,1024,1024,1024,1024,0,0,0,0,0,0,0,66,,,,,,,8.958,107.96,729.8346424492,23.293964,6,P-GPS,
6000,2023-10-12 21:23:09,40.0688979397069,-88.2096022261349,23.622048,,,730.1627264492,20.997376,0.223694,0.91338913684,1.78422249804,26,10,22.467,730.1627264492,23.622048,0.447388,0.91338913684,0.223694,0,-1.789552,352.3, 3.8, 3.3,0,0,1024,1024,1024,1024,0,0,0,0,0,0,0,66,,,,,,,8.958,107.96,730.1627264492,23.622048,6,P-GPS,
6100,2023-10-12 21:23:09,40.068898070844,-88.2096022775308,23.622048,,,730.1627264492,20.997376,0.223694,0.93347443932,1.83417328704,26,10,22.467,730.1627264492,23.622048,0.447388,0.93347443932,0.223694,0,-1.11847,352.3, 4.1, 3.4,0,0,1024,1024,1024,1024,0,0,0,0,0,0,0,66,,,,,,,8.958,107.96,730.1627264492,23.622048,6,P-GPS,
6200,2023-10-12 21:23:09,40.0688981843681,-88.2096023264217,23.622048,,,730.1627264492,20.997376,0.223694,0.95384189404,1.87778221232,26,10,22.467,730.1627264492,23.622048,0.447388,0.95384189404,0.223694,0,-0.447388,352.3, 4.2, 3.5,0,0,1024,1024,1024,1024,0,0,0,0,0,0,0,66,,,,,,,8.958,107.96,730.1627264492,23.622048,6,P-GPS,
6300,2023-10-12 21:23:09,40.068898309553,-88.2096024664514,23.622048,,,730.1627264492,20.997376,0.223694,1.00148953336,1.93790688616,26,10,22.467,730.1627264492,23.622048,0.447388,1.00148953336,0.223694,0,0,352.2, 4.1, 3.5,0,0,1024,1024,1024,1024,0,0,0,0,0,0,0,66,,,,,,,8.958,107.96,730.1627264492,23.622048,6,P-GPS,
6400,2023-10-12 21:23:10,40.0688983885742,-88.2096024979081,23.622048,,,730.1627264492,20.997376,0,1.0168307412,1.9680446824,26,10,22.467,730.1627264492,23.622048,0.447388,1.0168307412,0,0,0,352.2, 3.9, 3.1,0,0,1024,1024,1024,1024,0,0,0,0,0,0,0,66,,,,,,,8.958,107.96,730.1627264492,23.622048,6,P-GPS,
6500,2023-10-12 21:23:10,40.0688984642531,-88.2096025153871,23.622048,,,730.1627264492,20.997376,0,1.02873690956,1.99608274104,26,10,22.467,730.1627264492,23.622048,0.447388,1.02873690956,0,0,0.223694,352.1, 3.5, 2.7,0,0,1024,1024,1024,1024,0,0,0,0,0,0,0,67,,,,,,,8.958,107.96,730.1627264492,23.622048,6,P-GPS,
6600,2023-10-12 21:23:10,40.0688985359141,-88.2096026201027,23.622048,,,730.1627264492,20.997376,0,1.06413061148,2.03530518324,26,10,22.467,730.1627264492,23.622048,0.447388,1.06413061148,0,0,0.223694,352.1, 3.2, 2.4,0,0,1024,1024,1024,1024,0,0,0,0,0,0,0,67,,,,,,,8.958,107.96,730.1627264492,23.622048,6,P-GPS,
6700,2023-10-12 21:23:10,40.0688985849752,-88.2096026380442,23.293964,,,729.8346424492,20.997376,0,1.0741962286,2.05389442268,26,10,22.467,730.1627264492,23.622048,0.447388,1.0741962286,0,0,0.223694,352.1, 3.3, 2.3,0,0,1024,1024,1024,1024,0,0,0,0,0,0,0,67,,,,,,,8.958,107.96,729.8346424492,23.293964,6,P-GPS,
6800,2023-10-12 21:23:10,40.0688986297998,-88.2096026535491,23.293964,,,729.8346424492,20.997376,0,1.08335633388,2.07081043372,26,10,22.499,730.1627264492,23.622048,0.447388,1.08335633388,0,0,0.223694,352.1, 3.5, 2.4,0,0,1024,1024,1024,1024,0,0,0,0,0,0,0,66,,,,,,,4.471,107.96,729.8346424492,23.293964,6,P-GPS,
6900,2023-10-12 21:23:10,40.0688986856287,-88.2096026672486,23.293964,,,729.8346424492,20.997376,0,1.09354334208,2.0915355,26,10,22.499,730.1627264492,23.622048,0.447388,1.09354334208,0,0,0.223694,352, 3.6, 2.4,0,0,1024,1024,1024,1024,0,0,0,0,0,0,0,66,,,,,,,4.471,107.96,729.8346424492,23.293964,6,P-GPS,
7000,2023-10-12 21:23:10,40.068898741344,-88.2096027246528,22.96588,,,729.5065584492,20.997376,0,1.11547247664,2.11742460844,26,10,22.499,730.1627264492,23.622048,0.447388,1.11547247664,0,0,0.223694,352, 3.7, 2.4,0,0,1024,1024,1024,1024,0,0,0,0,0,0,0,66,,,,,,,4.471,107.96,729.5065584492,22.96588,6,P-GPS,
7100,2023-10-12 21:23:10,40.0688987660544,-88.2096027226851,22.96588,,,729.5065584492,20.997376,0,1.11807090192,2.12645676096,26,10,22.499,730.1627264492,23.622048,0.447388,1.11807090192,0,0,0.223694,352, 3.6, 2.6,0,0,1024,1024,1024,1024,0,0,0,0,0,0,0,66,,,,,,,4.471,107.96,729.5065584492,22.96588,6,P-GPS,
7200,2023-10-12 21:23:10,40.0688987805605,-88.209602708563,22.96588,,,729.5065584492,20.997376,0,1.11624347404,2.1330545302,26,10,22.499,730.1627264492,23.622048,0.447388,1.11807090192,0,0,0,352, 3.5, 2.7,0,0,1024,1024,1024,1024,0,0,0,0,0,0,0,66,,,,,,,4.471,107.96,729.5065584492,22.96588,6,P-GPS,
7300,2023-10-12 21:23:10,40.068898795067,-88.2096027511682,22.96588,,,729.5065584492,20.997376,0,1.12924216212,2.14607618416,26,10,22.499,730.1627264492,23.622048,0.447388,1.12924216212,0,0,0,352, 3.5, 2.8,0,0,1024,1024,1024,1024,0,0,0,0,0,0,0,66,,,,,,,4.471,107.96,729.5065584492,22.96588,6,P-GPS,
7400,2023-10-12 21:23:11,40.0688987929856,-88.2096027003704,22.96588,,,729.5065584492,20.997376,0,1.11572182048,2.16027894052,26,10,22.499,730.1627264492,23.622048,0.447388,1.12924216212,0,0,0,351.9, 3.4, 2.8,0,0,1024,1024,1024,1024,0,0,0,0,0,0,0,66,,,,,,,4.471,107.96,729.5065584492,22.96588,6,P-GPS,
7500,2023-10-12 21:23:11,40.06889878782,-88.2096026196507,22.637796,,,729.1784744492,20.997376,0,1.09402562556,2.18289377064,26,10,22.499,730.1627264492,23.622048,0.447388,1.12924216212,0,0,0,351.9, 3.2, 2.2,0,0,1024,1024,1024,1024,0,0,0,0,0,0,0,67,,,,,,,4.471,107.96,729.1784744492,22.637796,6,P-GPS,
7600,2023-10-12 21:23:11,40.0688987791196,-88.2096025298262,22.637796,,,729.1784744492,20.997376,0,1.06953087412,2.20817592368,26,10,22.499,730.1627264492,23.622048,0.447388,1.12924216212,0,0,0,351.9, 3.1, 1.5,0,0,1024,1024,432,1050,0,0,-90,4,0,0,0,67,,,,,,,4.471,107.96,729.1784744492,22.637796,6,P-GPS,
7700,2023-10-12 21:23:11,40.0688987605302,-88.2096025233698,22.637796,,,729.1784744492,20.997376,0,1.06536420732,2.21519364044,26,10,22.499,730.1627264492,23.622048,0.447388,1.12924216212,0,0,0,352, 3, 1.4,0,0,1024,1024,512,1024,0,0,-78,0,0,0,0,67,,,,,,,4.471,107.96,729.1784744492,22.637796,6,P-GPS,
7800,2023-10-12 21:23:11,40.068898746945,-88.2096024526474,22.637796,,,729.1784744492,20.997376,0,1.04517391796,2.23555125264,26,10,22.499,730.1627264492,23.622048,0.447388,1.12924216212,0,0,0.447388,352.1, 2.6, 1.9,0,0,1024,1024,1025,1024,0,0,0,0,0,0,0,67,,,,,,,4.471,107.96,729.1784744492,22.637796,6,P-GPS,
7900,2023-10-12 21:23:11,40.0688987494044,-88.2096023785355,22.309712,,,728.8503904492,20.997376,0,1.02628612208,2.25626319556,26,10,22.4415,730.1627264492,23.622048,0.447388,1.12924216212,0,0,0.894776,352.2, 2.8, 3,0,0,1024,1024,1024,1024,0,0,0,0,0,0,0,66,,,,,,,8.928,107.96,728.8503904492,22.309712,6,P-GPS,
8000,2023-10-12 21:23:11,40.0688987556505,-88.2096023361406,22.309712,,,728.8503904492,20.997376,0.223694,1.01618769656,2.26831700172,26,10,22.4415,730.1627264492,23.622048,0.447388,1.12924216212,0,0.223694,0.671082,352.1, 3.1, 2.6,0,0,1024,1024,1024,1024,0,0,0,0,0,0,0,66,,,,,,,8.928,107.96,728.8503904492,22.309712,6,P-GPS,
8100,2023-10-12 21:23:11,40.0688987425734,-88.209602210355,21.981628,,,728.5223064492,20.997376,0.223694,0.98193244612,2.30375991624,26,10,22.4415,730.1627264492,23.622048,0.447388,1.12924216212,0,0.223694,0.447388,352.1, 2.7, 1.5,0,0,1024,1024,1024,1024,0,0,0,0,0,0,0,66,,,,,,,8.928,107.96,728.5223064492,21.981628,6,P-GPS,
8200,2023-10-12 21:23:11,40.0688987313885,-88.2096020951453,21.981628,,,728.5223064492,20.997376,0.223694,0.95075134276,2.3361877388,26,10,22.4415,730.1627264492,23.622048,0.447388,1.12924216212,0,0.223694,0.447388,352, 2.3, 0.8,0,0,1024,1024,398,1024,0,0,-95,0,0,0,0,66,,,,,,,8.928,107.96,728.5223064492,21.981628,6,P-GPS,
8300,2023-10-12 21:23:11,40.0688987403553,-88.2096020068028,21.981628,,,728.5223064492,20.997376,0.223694,0.92950462292,2.36106962936,26,10,22.4415,730.1627264492,23.622048,0.447388,1.12924216212,0,0,0.223694,351.9, 2.3, 1,0,0,1024,1024,398,1024,0,0,-95,0,0,0,0,66,,,,,,,8.928,107.96,728.5223064492,21.981628,6,P-GPS,
8400,2023-10-12 21:23:11,40.0688987806094,-88.2096019910851,21.653544,,,728.1942224492,20.997376,0,0.9316437306,2.37639771384,26,10,22.4415,730.1627264492,23.622048,0.447388,1.12924216212,0,0,0.447388,351.9, 2.5, 1.7,0,0,1024,1024,756,1024,0,0,-41,0,0,0,0,66,,,,,,,8.928,107.96,728.1942224492,21.653544,6,P-GPS,
8500,2023-10-12 21:23:12,40.068898825594,-88.2096019354096,21.653544,,,728.1942224492,20.997376,0,0.92479333668,2.39900270144,26,10,22.4415,730.1627264492,23.622048,0.447388,1.12924216212,0,0,0.894776,352, 3.3, 2.5,0,0,1024,1024,1024,1024,0,0,0,0,0,0,0,67,,,,,,,8.928,107.96,728.1942224492,21.653544,6,P-GPS,
8600,2023-10-12 21:23:12,40.0688988656951,-88.2096018720587,21.32546,,,727.8661384492,20.997376,0,0.91571853324,2.42195873892,26,10,22.4415,730.1627264492,23.622048,0.447388,1.12924216212,0,0,0.894776,352, 4.2, 2.5,0,0,1024,1024,1024,1024,0,0,0,0,0,0,0,67,,,,,,,8.928,107.96,727.8661384492,21.32546,6,P-GPS,
8700,2023-10-12 21:23:12,40.0688988997823,-88.209601850794,21.32546,,,727.8661384492,20.997376,0,0.91636485872,2.43573826692,26,10,22.4415,730.1627264492,23.622048,0.447388,1.12924216212,0,0,0.671082,351.9, 4, 1.8,0,0,1024,1024,1024,1024,0,0,0,0,0,0,0,67,,,,,,,8.928,107.96,727.8661384492,21.32546,6,P-GPS,
8800,2023-10-12 21:23:12,40.0688989064781,-88.2096017627088,20.997376,,,727.5380544492,20.997376,0,0.89605973996,2.46045283464,26,10,22.4415,730.1627264492,23.622048,0.447388,1.12924216212,0,0,0.671082,351.9, 3.7, 1.2,0,0,1024,1024,1024,1024,0,0,0,0,0,0,0,67,,,,,,,8.928,107.96,727.5380544492,20.997376,6,P-GPS,
8900,2023-10-12 21:23:12,40.0688989141378,-88.2096016681276,20.997376,,,727.5380544492,20.997376,0,0.87459648468,2.4870079536,26,10,22.431,730.1627264492,23.622048,0.447388,1.12924216212,0,0,0.447388,351.9, 3.3, 1.4,0,0,1024,1024,1024,1024,0,0,0,0,0,0,0,66,,,,,,,8.419,107.96,727.5380544492,20.997376,6,P-GPS,
9000,2023-10-12 21:23:12,40.0688989197036,-88.2096015886727,20.669292,,,727.2099704492,20.997376,0,0.85662076232,2.50928813804,26,10,22.431,730.1627264492,23.622048,0.447388,1.12924216212,0,0,0.447388,352.1, 3.2, 1.4,0,0,1024,1024,1024,1024,0,0,0,0,0,0,0,66,,,,,,,8.419,107.96,727.2099704492,20.669292,6,P-GPS,
9100,2023-10-12 21:23:12,40.0688989448324,-88.2096016046179,20.669292,,,727.2099704492,20.997376,0,0.86521656312,2.51947842708,26,10,22.431,730.1627264492,23.622048,0.447388,1.12924216212,0,0,0.223694,352.2, 3.3, 1.6,0,0,1024,1024,1024,1024,0,0,0,0,0,0,0,66,,,,,,,8.419,107.96,727.2099704492,20.669292,6,P-GPS,
9200,2023-10-12 21:23:12,40.0688989445849,-88.2096015839827,20.669292,,,727.2099704492,20.997376,0,0.86027561808,2.52523958212,26,10,22.431,730.1627264492,23.622048,0.447388,1.12924216212,0,0,0.223694,352.3, 3.5, 2,0,0,1024,1024,1024,1024,0,0,0,0,0,0,0,66,,,,,,,8.419,107.96,727.2099704492,20.669292,6,P-GPS,
9300,2023-10-12 21:23:12,40.0688989335014,-88.2096015645935,20.341208,,,726.8818864492,20.997376,0,0.8535433344,2.53199811252,26,10,22.431,730.1627264492,23.622048,0.447388,1.12924216212,0,0,0.223694,352.4, 3.7, 2.4,0,0,1024,1024,1024,1024,0,0,0,0,0,0,0,66,,,,,,,8.419,107.96,726.8818864492,20.341208,6,P-GPS,
9400,2023-10-12 21:23:12,40.0688989440499,-88.2096015598556,20.341208,,,726.8818864492,20.997376,0,0.85446525044,2.53606635412,26,10,22.431,730.1627264492,23.622048,0.447388,1.12924216212,0,0,0.223694,352.4, 3.6, 2.6,0,0,1024,1024,1024,1024,0,0,0,0,0,0,0,66,,,,,,,8.419,107.96,726.8818864492,20.341208,6,P-GPS,
9500,2023-10-12 21:23:13,40.0688989515505,-88.2096015036653,20.341208,,,726.8818864492,20.997376,0,0.8427165624,2.55199483232,26,10,22.431,730.1627264492,23.622048,0.447388,1.12924216212,0,0,0,352.5, 3.5, 2.5,0,0,1024,1024,1024,1024,0,0,0,0,0,0,0,67,,,,,,,8.419,107.96,726.8818864492,20.341208,6,P-GPS,
9600,2023-10-12 21:23:13,40.0688989531281,-88.2096014552588,20.341208,,,726.8818864492,20.997376,0,0.83172246756,2.56552173564,26,10,22.431,730.1627264492,23.622048,0.447388,1.12924216212,0,0,0,352.5, 3.3, 2.2,0,0,1024,1024,1024,1024,0,0,0,0,0,0,0,67,,,,,,,8.419,107.96,726.8818864492,20.341208,6,P-GPS,
9700,2023-10-12 21:23:13,40.0688989436434,-88.2096014428452,20.013124,,,726.5538024492,20.997376,0,0.82692259864,2.57042002976,26,10,22.431,730.1627264492,23.622048,0.447388,1.12924216212,0,0,0,352.4, 3.1, 2.2,0,0,1024,1024,1024,1024,0,0,0,0,0,0,0,67,,,,,,,8.419,107.96,726.5538024492,20.013124,6,P-GPS,
9800,2023-10-12 21:23:13,40.0688989561625,-88.209601494014,20.013124,,,726.5538024492,20.997376,0,0.84137469884,2.5854167494,26,10,22.4155,730.1627264492,23.622048,0.447388,1.12924216212,0,0,0,352.3, 2.9, 2.7,0,0,1024,1024,1024,1024,0,0,0,0,0,0,0,66,,,,,,,9.062,107.96,726.5538024492,20.013124,6,P-GPS,
9900,2023-10-12 21:23:13,40.0688989570657,-88.2096014876827,20.013124,,,726.5538024492,20.997376,0,0.8400754862,2.58721793056,26,10,22.4155,730.1627264492,23.622048,0.447388,1.12924216212,0,0,0,352.3, 3.1, 3.1,0,0,1024,1024,1024,1024,0,0,0,0,0,0,0,66,,,,,,,9.062,107.96,726.5538024492,20.013124,6,P-GPS,
10000,2023-10-12 21:23:13,40.0688989601591,-88.2096014640167,20.013124,,,726.5538024492,18.700788,0,0.83517719208,2.59392068668,26,10,22.4155,730.1627264492,23.622048,0.447388,1.12924216212,0,0,0,352.3, 3.3, 2.9,0,0,1024,1024,1024,1024,0,0,0,0,0,0,0,66,,,,,,,9.062,107.96,726.5538024492,20.013124,6,P-GPS,
10100,2023-10-12 21:23:13,40.0688990061449,-88.2096015065339,20.013124,,,726.5538024492,18.700788,0,0.85437010608,2.61447186844,26,10,22.4155,730.1627264492,23.622048,0.447388,1.12924216212,0,0,0,352.3, 3.4, 2.6,0,0,1024,1024,1024,1024,0,0,0,0,0,0,0,66,,,,,,,9.062,107.96,726.5538024492,20.013124,6,P-GPS,
10200,2023-10-12 21:23:13,40.0688990072021,-88.2096014668919,20.013124,,,726.5538024492,18.372704,0,0.8454396596,2.62554798428,26,10,22.4155,730.1627264492,23.622048,0.447388,1.12924216212,0,0,0,352.3, 3.4, 2.2,0,0,1024,1024,1024,1024,0,0,0,0,0,0,0,66,,,,,,,9.062,107.96,726.5538024492,20.013124,6,P-GPS,
10300,2023-10-12 21:23:13,40.0688990216139,-88.2096014402408,19.68504,,,726.2257184492,18.04462,0,0.8423228616,2.63465887696,26,10,22.4155,730.1627264492,23.622048,0.447388,1.12924216212,0,0,0,352.3, 3.2, 2.2,0,0,1024,1024,1024,1024,0,0,0,0,0,0,0,66,,,,,,,9.062,107.96,726.2257184492,19.68504,6,P-GPS,
10400,2023-10-12 21:23:13,40.0688990291663,-88.2096014167642,19.68504,,,726.2257184492,18.04462,0,0.83855973812,2.64176845724,26,10,22.4155,730.1627264492,23.622048,0.447388,1.12924216212,0,0,0,352.4, 3, 2.4,0,0,1024,1024,1024,1024,0,0,0,0,0,0,0,66,,,,,,,9.062,107.96,726.2257184492,19.68504,6,P-GPS,
10500,2023-10-12 21:23:14,40.0688990428747,-88.2096014923354,19.68504,,,726.2257184492,18.04462,0,0.85868769152,2.66345480964,26,10,22.4155,730.1627264492,23.622048,0.447388,1.12924216212,0,0,0,352.4, 3.1, 2.6,0,0,1024,1024,1024,1024,0,0,0,0,0,0,0,67,,,,,,,9.062,107.96,726.2257184492,19.68504,6,P-GPS,
10600,2023-10-12 21:23:14,40.068899026656,-88.2096014608018,19.68504,,,726.2257184492,18.04462,0,0.8480807358,2.67406176536,26,10,22.4155,730.1627264492,23.622048,0.447388,1.12924216212,0,0,0,352.4, 3.4, 2.6,0,0,1024,1024,1024,1024,0,0,0,0,0,0,0,67,,,,,,,9.062,107.96,726.2257184492,19.68504,6,P-GPS,
10700,2023-10-12 21:23:14,40.0688990200176,-88.2096014166801,19.68504,,,726.2257184492,18.04462,0,0.83660763832,2.68661754004,26,10,22.4155,730.1627264492,23.622048,0.447388,1.12924216212,0,0,0,352.4, 3.5, 2.4,0,0,1024,1024,1024,1024,0,0,0,0,0,0,0,67,,,,,,,9.062,107.96,726.2257184492,19.68504,6,P-GPS,
10800,2023-10-12 21:23:14,40.0688990681592,-88.2096014467925,19.68504,,,726.2257184492,18.04462,0,0.85366800632,2.70608932544,26,10,22.4155,730.1627264492,23.622048,0.447388,1.12924216212,0,0,0,352.4, 3.6, 2.2,0,0,1024,1024,1024,1024,0,0,0,0,0,0,0,66,,,,,,,8.51,107.96,726.2257184492,19.68504,6,P-GPS,
10900,2023-10-12 21:23:14,40.0688990820836,-88.2096014091879,19.68504,,,726.2257184492,17.716536,0,0.84820540772,2.71775599248,26,10,22.4155,730.1627264492,23.622048,0.447388,1.12924216212,0,0,0,352.4, 3.5, 2.2,0,0,1024,1024,1024,1024,0,0,0,0,0,0,0,66,,,,,,,8.51,107.96,726.2257184492,19.68504,6,P-GPS,
11000,2023-10-12 21:23:14,40.0688990891278,-88.209601381251,19.356956,,,725.8976344492,17.716536,0,0.84350068316,2.725967935,26,10,22.4155,730.1627264492,23.622048,0.447388,1.12924216212,0,0,0,352.4, 3.4, 2.6,0,0,1024,1024,1024,1024,0,0,0,0,0,0,0,66,,,,,,,8.51,107.96,725.8976344492,19.356956,6,P-GPS,
11100,2023-10-12 21:23:14,40.0688990873662,-88.2096013540852,19.356956,,,725.8976344492,17.716536,0,0.83707023676,2.7335794838,26,10,22.4155,730.1627264492,23.622048,0.447388,1.12924216212,0,0,0,352.4, 3.4, 2.9,0,0,1024,1024,1024,1024,0,0,0,0,0,0,0,66,,,,,,,8.51,107.96,725.8976344492,19.356956,6,P-GPS,
11200,2023-10-12 21:23:14,40.0688991078352,-88.2096013610444,19.356956,,,725.8976344492,17.716536,0,0.8431594758,2.74129601948,26,10,22.4155,730.1627264492,23.622048,0.447388,1.12924216212,0,0,0,352.4, 3.6, 2.7,0,0,1024,1024,1024,1024,0,0,0,0,0,0,0,66,,,,,,,8.51,107.96,725.8976344492,19.356956,6,P-GPS,
11300,2023-10-12 21:23:14,40.068899069997,-88.2096012934472,19.356956,,,725.8976344492,17.388452,0,0.8197834908,2.76467856616,26,10,22.4155,730.1627264492,23.622048,0.447388,1.12924216212,0,0,0,352.4, 3.6, 2.4,0,0,1024,1024,1024,1024,0,0,0,0,0,0,0,66,,,,,,,8.51,107.96,725.8976344492,19.356956,6,P-GPS,
11400,2023-10-12 21:23:14,40.0688990263256,-88.2096012125216,19.356956,,,725.8976344492,17.388452,0,0.79216209884,2.79232948568,26,10,22.4155,730.1627264492,23.622048,0.447388,1.12924216212,0,0,0,352.5, 3.4, 2,0,0,1024,1024,1024,1024,0,0,0,0,0,0,0,66,,,,,,,8.51,107.96,725.8976344492,19.356956,6,P-GPS,
11500,2023-10-12 21:23:15,40.0688989623988,-88.2096011790629,19.356956,,,725.8976344492,17.388452,0,0.77059385668,2.8174541584,26,10,22.4155,730.1627264492,23.622048,0.447388,1.12924216212,0,0,0,352.6, 3.4, 1.5,0,0,1024,1024,1024,1024,0,0,0,0,0,0,0,67,,,,,,,8.51,107.96,725.8976344492,19.356956,6,P-GPS,
11600,2023-10-12 21:23:15,40.0688989100204,-88.2096011033211,19.356956,,,725.8976344492,17.388452,0,0.74221459068,2.84595481548,26,10,22.4155,730.1627264492,23.622048,0.447388,1.12924216212,0,0,0,352.7, 3.2, 1.5,0,0,1024,1024,1024,1024,0,0,0,0,0,0,0,67,,,,,,,8.51,107.96,725.8976344492,19.356956,6,P-GPS,
11700,2023-10-12 21:23:15,40.0688988685002,-88.2096010409408,19.356956,,,725.8976344492,17.388452,0,0.71919949808,2.86903880572,26,10,22.4155,730.1627264492,23.622048,0.447388,1.12924216212,0,0,0,352.7, 2.8, 2,0,0,1024,1024,1024,1024,0,0,0,0,0,0,0,67,,,,,,,8.51,107.96,725.8976344492,19.356956,6,P-GPS,
11800,2023-10-12 21:23:15,40.0688988300217,-88.2096009885198,19.356956,,,725.8976344492,17.388452,0,0.69908794888,2.8893209586,26,10,22.4155,730.1627264492,23.622048,0.447388,1.12924216212,0,0,0,352.7, 2.6, 2.3,0,0,1024,1024,1024,1024,0,0,0,0,0,0,0,67,,,,,,,8.51,107.96,725.8976344492,19.356956,6,P-GPS,
11900,2023-10-12 21:23:15,40.068898842113,-88.2096009987268,19.356956,,,725.8976344492,17.060368,0,0.70399936636,2.89457358344,26,10,22.393,730.1627264492,23.622048,0.447388,1.12924216212,0,0,0,352.6, 2.7, 2.4,0,0,1024,1024,1024,1024,0,0,0,0,0,0,0,66,,,,,,,8.733,107.96,725.8976344492,19.356956,6,P-GPS,
12000,2023-10-12 21:23:15,40.0688988200595,-88.2096009455702,19.028872,,,725.5695504492,17.060368,0,0.68728348656,2.91145350524,26,10,22.393,730.1627264492,23.622048,0.447388,1.12924216212,0,0,0,352.5, 2.9, 2.4,0,0,1024,1024,1024,1024,0,0,0,0,0,0,0,66,,,,,,,8.733,107.96,725.5695504492,19.028872,6,P-GPS,
12100,2023-10-12 21:23:15,40.0688988125533,-88.2096008852236,19.028872,,,725.5695504492,17.060368,0,0.67217521836,2.9285269966,26,10,22.393,730.1627264492,23.622048,0.447388,1.12924216212,0,0,0,352.4, 3, 2.3,0,0,1024,1024,1024,1024,0,0,0,0,0,0,0,66,,,,,,,8.733,107.96,725.5695504492,19.028872,6,P-GPS,
12200,2023-10-12 21:23:15,40.0688988479784,-88.2096009191012,19.028872,,,725.5695504492,17.388452,0,0.6875492346,2.94454077664,26,10,22.393,730.1627264492,23.622048,0.447388,1.12924216212,0,0,0,352.4, 3.2, 2,0,0,1024,1024,1024,1024,0,0,0,0,0,0,0,66,,,,,,,8.733,107.96,725.5695504492,19.028872,6,P-GPS,
12300,2023-10-12 21:23:15,40.0688988317697,-88.2096008802304,19.028872,,,725.5695504492,17.388452,0,0.67534779064,2.95690298176,26,10,22.393,730.1627264492,23.622048,0.447388,1.12924216212,0,0,0,352.5, 3.3, 1.6,0,0,1024,1024,1024,1024,0,0,0,0,0,0,0,66,,,,,,,8.733,107.96,725.5695504492,19.028872,6,P-GPS,
12400,2023-10-12 21:23:16,40.0688988124625,-88.2096008513857,19.028872,,,725.5695504492,17.388452,0,0.6646653756,2.967601801,26,10,22.393,730.1627264492,23.622048,0.447388,1.12924216212,0,0,0,352.6, 3.2, 1.3,0,0,1024,1024,1024,1024,0,0,0,0,0,0,0,66,,,,,,,8.733,107.96,725.5695504492,19.028872,6,P-GPS,
12500,2023-10-12 21:23:16,40.0688987886968,-88.2096008336475,19.028872,,,725.5695504492,17.060368,0,0.65544949604,2.97758539712,26,10,22.393,730.1627264492,23.622048,0.447388,1.12924216212,0,0,0,352.7, 2.9, 1.8,0,0,1024,1024,1059,1024,0,0,5,0,0,0,0,67,,,,,,,8.733,107.96,725.5695504492,19.028872,6,P-GPS,
12600,2023-10-12 21:23:16,40.0688987871956,-88.2096008750113,19.028872,,,725.5695504492,17.388452,0,0.66432416824,2.98915035812,26,10,22.393,730.1627264492,23.622048,0.447388,1.12924216212,0,0,0,352.8, 2.8, 2.6,0,0,1024,1024,1096,1024,0,0,11,0,0,0,0,67,,,,,,,8.733,107.96,725.5695504492,19.028872,6,P-GPS,
12700,2023-10-12 21:23:16,40.0688987684764,-88.2096008750477,19.028872,,,725.5695504492,17.060368,0,0.66026248832,2.99597778616,26,10,22.393,730.1627264492,23.622048,0.447388,1.12924216212,0,0,0,352.8, 2.8, 3.1,0,0,1024,1024,1104,1024,0,0,12,0,0,0,0,67,,,,,,,8.733,107.96,725.5695504492,19.028872,6,P-GPS,
12800,2023-10-12 21:23:16,40.0688987469028,-88.2096008624969,19.028872,,,725.5695504492,17.060368,0,0.6527887348,3.004593272,26,10,22.393,730.1627264492,23.622048,0.447388,1.12924216212,0,0,0,352.8, 3.2, 3,0,0,1024,1024,1106,1024,0,0,12,0,0,0,0,67,,,,,,,8.733,107.96,725.5695504492,19.028872,6,P-GPS,
12900,2023-10-12 21:23:16,40.0688987518406,-88.2096009039624,19.028872,,,725.5695504492,17.060368,0,0.6632382102,3.01631243248,26,10,22.391,730.1627264492,23.622048,0.447388,1.12924216212,0,0,0,352.7, 3.5, 2.5,0,0,1024,1024,1106,1024,0,0,12,0,0,0,0,66,,,,,,,9.047,107.96,725.5695504492,19.028872,6,P-GPS,
13000,2023-10-12 21:23:16,40.0688987099907,-88.2096008809246,19.028872,,,725.5695504492,17.060368,0,0.64919293416,3.03288067448,26,10,22.391,730.1627264492,23.622048,0.447388,1.12924216212,0,0,0,352.7, 3.4, 2.1,0,0,1024,1024,1108,1024,0,0,13,0,0,0,0,66,,,,,,,9.047,107.96,725.5695504492,19.028872,6,P-GPS,
13100,2023-10-12 21:23:16,40.0688986618966,-88.2096008651683,19.028872,,,725.5695504492,17.060368,0,0.63568899672,3.05097122624,26,10,22.391,730.1627264492,23.622048,0.447388,1.12924216212,0,0,-0.223694,352.7, 3.1, 2.1,0,0,1024,1024,1108,1024,0,0,13,0,0,0,0,66,,,,,,,9.047,107.96,725.5695504492,19.028872,6,P-GPS,
13200,2023-10-12 21:23:16,40.0688986123451,-88.2096008620204,19.028872,,,725.5695504492,17.060368,0,0.62510500688,3.06907162052,26,10,22.391,730.1627264492,23.622048,0.447388,1.12924216212,0,0,-0.223694,352.8, 2.6, 2.4,0,0,1024,1024,1106,1024,0,0,12,0,0,0,0,66,,,,,,,9.047,107.96,725.5695504492,19.028872,6,P-GPS,
13300,2023-10-12 21:23:16,40.0688986510943,-88.2096010012898,19.028872,,,725.5695504492,17.060368,0,0.66558072996,3.11044629376,26,10,22.391,730.1627264492,23.622048,0.447388,1.12924216212,0,0,-0.223694,352.8, 2.5, 2.7,0,0,1024,1024,1109,1024,0,0,13,0,0,0,0,66,,,,,,,9.047,107.96,725.5695504492,19.028872,6,P-GPS,
13400,2023-10-12 21:23:17,40.0688986279053,-88.2096010386111,19.028872,,,725.5695504492,17.060368,0,0.67014765924,3.1238682102,26,10,22.391,730.1627264492,23.622048,0.447388,1.12924216212,0,0,-0.223694,352.8, 2.2, 3,0,0,1024,1024,1109,1024,0,0,13,0,0,0,0,66,,,,,,,9.047,107.96,725.5695504492,19.028872,6,P-GPS,
13500,2023-10-12 21:23:17,40.0688986158274,-88.2096010817989,19.028872,,,725.5695504492,17.060368,0,0.67837600596,3.13670613712,26,10,22.391,730.1627264492,23.622048,0.447388,1.12924216212,0,0,-0.223694,352.8, 2.5, 3.2,0,0,1024,1024,1105,1024,0,0,12,0,0,0,0,67,,,,,,,9.047,107.96,725.5695504492,19.028872,6,P-GPS,
13600,2023-10-12 21:23:17,40.0688986896005,-88.2096012063458,19.028872,,,725.5695504492,17.060368,0,0.72193899948,3.18068251648,26,10,22.391,730.1627264492,23.622048,0.447388,1.12924216212,0,0,-0.223694,352.7, 3.1, 3.3,0,0,1024,1024,1111,1024,0,0,13,0,0,0,0,67,,,,,,,9.047,107.96,725.5695504492,19.028872,6,P-GPS,
13700,2023-10-12 21:23:17,40.0688986997516,-88.2096012238257,19.028872,,,725.5695504492,17.060368,0,0.728018396,3.18680784476,26,10,22.391,730.1627264492,23.622048,0.447388,1.12924216212,0,0,-0.223694,352.7, 3.5, 3.3,0,0,1024,1024,1112,1024,0,0,13,0,0,0,0,67,,,,,,,9.047,107.96,725.5695504492,19.028872,6,P-GPS,
13800,2023-10-12 21:23:17,40.0688987041986,-88.2096012287577,19.028872,,,725.5695504492,17.060368,0,0.73002627008,3.18893710992,26,10,22.391,730.1627264492,23.622048,0.447388,1.12924216212,0,0,-0.223694,352.6, 3.5, 3.1,0,0,1024,1024,1107,1024,0,0,13,0,0,0,0,67,,,,,,,9.047,107.96,725.5695504492,19.028872,6,P-GPS,
13900,2023-10-12 21:23:17,40.0688986963003,-88.2096012265788,19.028872,,,725.5695504492,17.060368,0,0.7280512044,3.1918800234,26,10,22.391,730.1627264492,23.622048,0.447388,1.12924216212,0,0,-0.223694,352.6, 3.3, 3,0,0,1024,1024,1106,1024,0,0,12,0,0,0,0,67,,,,,,,9.047,107.96,725.5695504492,19.028872,6,P-GPS,
14000,2023-10-12 21:23:17,40.0688987097904,-88.2096012616363,19.028872,,,725.5695504492,17.060368,0,0.73898952496,3.202838029,26,10,22.377,730.1627264492,23.622048,0.447388,1.12924216212,0,0,-0.223694,352.6, 3.2, 3,0,0,1024,1024,1106,1024,0,0,12,0,0,0,0,66,,,,,,,8.553,107.96,725.5695504492,19.028872,6,P-GPS,
14100,2023-10-12 21:23:17,40.0688987014552,-88.2096012393841,19.028872,,,725.5695504492,17.060368,0,0.73208991844,3.20975403972,26,10,22.377,730.1627264492,23.622048,0.447388,1.12924216212,0,0,-0.223694,352.6, 3.2, 3,0,0,1024,1024,1110,1024,0,0,13,0,0,0,0,66,,,,,,,8.553,107.96,725.5695504492,19.028872,6,P-GPS,
14200,2023-10-12 21:23:17,40.068898695693,-88.209601207521,19.028872,,,725.5695504492,17.060368,0,0.72333991816,3.21889445996,26,10,22.377,730.1627264492,23.622048,0.447388,1.12924216212,0,0,-0.223694,352.6, 3.4, 2.7,0,0,1024,1024,1119,1024,0,0,14,0,0,0,0,66,,,,,,,8.553,107.96,725.5695504492,19.028872,6,P-GPS,
14300,2023-10-12 21:23:17,40.0688987121162,-88.2096012439151,19.028872,,,725.5695504492,17.060368,0,0.7351378188,3.2306923606,26,10,22.377,730.1627264492,23.622048,0.447388,1.12924216212,0,0,-0.223694,352.6, 3.4, 2.2,0,0,1024,1024,1119,1024,0,0,14,0,0,0,0,66,,,,,,,8.553,107.96,725.5695504492,19.028872,6,P-GPS,
14400,2023-10-12 21:23:17,40.0688986884419,-88.2096012107845,19.028872,,,725.5695504492,17.060368,0,0.72279857956,3.24334984132,26,10,22.377,730.1627264492,23.622048,0.447388,1.12924216212,0,0,-0.223694,352.6, 3.3, 2,0,0,1024,1024,1121,1024,0,0,15,0,0,0,0,66,,,,,,,8.553,107.96,725.5695504492,19.028872,6,P-GPS,
14500,2023-10-12 21:23:18,40.0688986641085,-88.2096011819581,19.028872,,,725.5695504492,17.060368,0,0.71139437972,3.255331469,26,10,22.377,730.1627264492,23.622048,0.447388,1.12924216212,0,0,-0.223694,352.6, 3.2, 2.3,0,0,1024,1024,1123,1024,0,0,15,0,0,0,0,67,,,,,,,8.553,107.96,725.5695504492,19.028872,6,P-GPS,
14600,2023-10-12 21:23:18,40.0688986370612,-88.2096011592119,19.028872,,,725.5695504492,17.060368,0,0.70100395944,3.26706703368,26,10,22.377,730.1627264492,23.622048,0.447388,1.12924216212,0,0,-0.223694,352.5, 3.2, 2.7,0,0,1024,1024,1123,1024,0,0,15,0,0,0,0,67,,,,,,,8.553,107.96,725.5695504492,19.028872,6,P-GPS,
14700,2023-10-12 21:23:18,40.0688986678429,-88.2096012127847,19.028872,,,725.5695504492,17.060368,0,0.71955054796,3.28576126,26,10,22.377,730.1627264492,23.622048,0.447388,1.12924216212,0,0,-0.223694,352.5, 3.2, 3,0,0,1024,1024,1126,1024,0,0,15,0,0,0,0,67,,,,,,,8.553,107.96,725.5695504492,19.028872,6,P-GPS,
14800,2023-10-12 21:23:18,40.0688986425007,-88.2096011849594,19.028872,,,725.5695504492,17.060368,0,0.70824477332,3.2978347512,26,10,22.377,730.1627264492,23.622048,0.447388,1.12924216212,0,0,-0.223694,352.5, 3.2, 3,0,0,1024,1024,1130,1024,0,0,16,0,0,0,0,67,,,,,,,8.553,107.96,725.5695504492,19.028872,6,P-GPS,
14900,2023-10-12 21:23:18,40.0688986118554,-88.2096011522602,19.028872,,,725.5695504492,17.060368,0,0.69484254192,3.3122704472,26,10,22.377,730.1627264492,23.622048,0.447388,1.12924216212,0,0,-0.447388,352.6, 3.3, 2.7,0,0,1024,1024,1130,1024,0,0,16,0,0,0,0,67,,,,,,,8.553,107.96,725.5695504492,19.028872,6,P-GPS,
15000,2023-10-12 21:23:18,40.0688986442929,-88.2096011971695,19.028872,,,725.5695504492,17.060368,0,0.71154201752,3.3295276656,26,10,22.3675,730.1627264492,23.622048,0.447388,1.12924216212,0,0,-0.447388,352.6, 3.4, 2.5,0,0,1024,1024,1144,1024,0,0,18,0,0,0,0,66,,,,,,,8.689,107.96,725.5695504492,19.028872,6,P-GPS,
15100,2023-10-12 21:23:18,40.0688986094266,-88.2096011543933,19.356956,,,725.8976344492,17.060368,0,0.69494096712,3.3469817344,26,10,22.3675,730.1627264492,23.622048,0.447388,1.12924216212,0,0,-0.447388,352.7, 3.2, 2.4,0,0,1024,1024,1152,1024,0,0,19,0,0,0,0,66,,,,,,,8.689,107.96,725.8976344492,19.356956,6,P-GPS,
15200,2023-10-12 21:23:18,40.0688985707915,-88.2096011157211,19.356956,,,725.8976344492,17.388452,0,0.67874346004,3.3647310788,26,10,22.3675,730.1627264492,23.622048,0.447388,1.12924216212,0,0,-0.447388,352.7, 2.9, 2.3,0,0,1024,1024,1175,1024,0,0,23,0,0,0,0,66,,,,,,,8.689,107.96,725.8976344492,19.356956,6,P-GPS,
15300,2023-10-12 21:23:18,40.0688985335935,-88.2096010919778,19.356956,,,725.8976344492,17.388452,0,0.6665682628,3.3798229428,26,10,22.3675,730.1627264492,23.622048,0.447388,1.12924216212,0,0,-0.447388,352.7, 2.6, 2.3,0,0,1024,1024,1175,1024,0,0,23,0,0,0,0,66,,,,,,,8.689,107.96,725.8976344492,19.356956,6,P-GPS,
15400,2023-10-12 21:23:18,40.0688985446712,-88.2096011328659,19.356956,,,725.8976344492,17.388452,0,0.67856957552,3.3919620508,26,10,22.3675,730.1627264492,23.622048,0.447388,1.12924216212,0,0,-0.671082,352.7, 2.5, 2.6,0,0,1024,1024,1147,1024,0,0,19,0,0,0,0,66,,,,,,,8.689,107.96,725.8976344492,19.356956,6,P-GPS,
15500,2023-10-12 21:23:19,40.068898524954,-88.2096011224624,19.356956,,,725.8976344492,17.388452,0,0.6727198378,3.3997048332,26,10,22.3675,730.1627264492,23.622048,0.447388,1.12924216212,0,0,-0.671082,352.6, 2.6, 2.6,0,0,1024,1024,1147,1024,0,0,19,0,0,0,0,67,,,,,,,8.689,107.96,725.8976344492,19.356956,6,P-GPS,
15600,2023-10-12 21:23:19,40.06889850916,-88.2096011005769,19.356956,,,725.8976344492,17.716536,0,0.66467521812,3.4081037836,26,10,22.3675,730.1627264492,23.622048,0.447388,1.12924216212,0,0,-0.671082,352.6, 2.8, 2.4,0,0,1024,1024,1144,1024,0,0,18,0,0,0,0,67,,,,,,,8.689,107.96,725.8976344492,19.356956,6,P-GPS,
15700,2023-10-12 21:23:19,40.0688985572374,-88.2096011656802,19.68504,,,726.2257184492,17.716536,0,0.68881563884,3.4333662516,26,10,22.3675,730.1627264492,23.622048,0.447388,1.12924216212,0,0,-0.671082,352.5, 2.9, 2.2,0,0,1024,1024,1118,1024,0,0,14,0,0,0,0,67,,,,,,,8.689,107.96,726.2257184492,19.68504,6,P-GPS,
15800,2023-10-12 21:23:19,40.0688985361769,-88.2096011347548,19.68504,,,726.2257184492,17.716536,0,0.67763125528,3.4449148084,26,10,22.3675,730.1627264492,23.622048,0.447388,1.12924216212,0,0,-0.671082,352.5, 3, 2.3,0,0,1024,1024,1112,1024,0,0,13,0,0,0,0,67,,,,,,,8.689,107.96,726.2257184492,19.68504,6,P-GPS,
15900,2023-10-12 21:23:19,40.0688985056202,-88.2096010950369,19.68504,,,726.2257184492,17.716536,0,0.66271655664,3.4606628404,26,10,22.3675,730.1627264492,23.622048,0.447388,1.12924216212,0,0,-0.671082,352.4, 2.8, 2.5,0,0,1024,1024,1112,1024,0,0,13,0,0,0,0,67,,,,,,,8.689,107.96,726.2257184492,19.68504,6,P-GPS,
16000,2023-10-12 21:23:19,40.0688984817163,-88.2096010495867,19.68504,,,726.2257184492,18.04462,0,0.647473774,3.47604998,26,10,22.384,730.1627264492,23.622048,0.447388,1.12924216212,0,0,-0.447388,352.4, 2.7, 2.6,0,0,1024,1024,1036,1024,0,0,2,0,0,0,0,66,,,,,,,8.569,107.96,726.2257184492,19.68504,6,P-GPS,
16100,2023-10-12 21:23:19,40.0688985017435,-88.2096010609383,20.013124,,,726.5538024492,18.04462,0,0.65356957472,3.4840224212,26,10,22.384,730.1627264492,23.622048,0.447388,1.12924216212,0,0,-0.447388,352.4, 2.6, 2.6,0,0,1024,1024,1024,1024,0,0,0,0,0,0,0,66,,,,,,,8.569,107.96,726.5538024492,20.013124,6,P-GPS,
16200,2023-10-12 21:23:19,40.0688984924085,-88.2096010009451,20.013124,,,726.5538024492,18.372704,0,0.63709319624,3.5011155976,26,10,22.384,730.1627264492,23.622048,0.447388,1.12924216212,0,0,-0.223694,352.4, 2.8, 2.4,0,0,1024,1024,1024,1024,0,0,0,0,0,0,0,66,,,,,,,8.569,107.96,726.5538024492,20.013124,6,P-GPS,
16300,2023-10-12 21:23:19,40.0688984899918,-88.2096009365161,20.013124,,,726.5538024492,18.372704,0,0.62072508548,3.5191274092,26,10,22.384,730.1627264492,23.622048,0.447388,1.12924216212,0,0,0,352.4, 2.9, 2.4,0,0,1024,1024,1024,1024,0,0,0,0,0,0,0,66,,,,,,,8.569,107.96,726.5538024492,20.013124,6,P-GPS,
16400,2023-10-12 21:23:19,40.0688985115287,-88.2096009451371,19.68504,,,726.2257184492,18.372704,0,0.62654857648,3.5273295092,26,10,22.384,730.1627264492,23.622048,0.447388,1.12924216212,0,0,0,352.4, 3, 2.3,0,0,1024,1024,1024,1024,0,0,0,0,0,0,0,66,,,,,,,8.569,107.96,726.2257184492,19.68504,6,P-GPS,
16500,2023-10-12 21:23:20,40.0688984945803,-88.2096009023017,19.68504,,,726.2257184492,18.372704,0,0.61308728996,3.5407809532,26,10,22.384,730.1627264492,23.622048,0.447388,1.12924216212,0,0,0,352.5, 3.3, 2.2,0,0,1024,1024,1024,1024,0,0,0,0,0,0,0,66,,,,,,,8.569,107.96,726.2257184492,19.68504,6,P-GPS,
16600,2023-10-12 21:23:20,40.0688984768296,-88.209600866838,19.68504,,,726.2257184492,18.372704,0,0.60129923184,3.5526247856,26,10,22.384,730.1627264492,23.622048,0.447388,1.12924216212,0,0,0,352.4, 3.4, 2.3,0,0,1024,1024,1024,1024,0,0,0,0,0,0,0,66,,,,,,,8.569,107.96,726.2257184492,19.68504,6,P-GPS,
16700,2023-10-12 21:23:20,40.0688984641282,-88.2096008369645,19.68504,,,726.2257184492,18.372704,0,0.59175854912,3.56217203,26,10,22.384,730.1627264492,23.622048,0.447388,1.12924216212,0,0,0,352.4, 3.2, 2.5,0,0,1024,1024,1024,1024,0,0,0,0,0,0,0,66,,,,,,,8.569,107.96,726.2257184492,19.68504,6,P-GPS,
16800,2023-10-12 21:23:20,40.0688984777841,-88.2096008529388,19.68504,,,726.2257184492,18.372704,0,0.59805120024,3.5688649436,26,10,22.384,730.1627264492,23.622048,0.447388,1.12924216212,0,0,0,352.3, 3.2, 2.6,0,0,1024,1024,1024,1024,0,0,0,0,0,0,0,66,,,,,,,8.569,107.96,726.2257184492,19.68504,6,P-GPS,
16900,2023-10-12 21:23:20,40.0688984800832,-88.2096008046641,19.68504,,,726.2257184492,18.04462,0,0.5866470004,3.582349196,26,10,22.384,730.1627264492,23.622048,0.447388,1.12924216212,0,0,0,352.3, 3.4, 2.5,0,0,1024,1024,1024,1024,0,0,0,0,0,0,0,66,,,,,,,8.569,107.96,726.2257184492,19.68504,6,P-GPS,
17000,2023-10-12 21:23:20,40.0688984796294,-88.209600752737,19.68504,,,726.2257184492,18.04462,0,0.5739501496,3.5968505088,26,10,22.35,730.1627264492,23.622048,0.447388,1.12924216212,0,0,0,352.5, 3.5, 2.2,0,0,1024,1024,1024,1024,0,0,0,0,0,0,0,66,,,,,,,8.36,107.96,726.2257184492,19.68504,6,P-GPS,
17100,2023-10-12 21:23:20,40.0688985643001,-88.2096007679787,19.356956,,,725.8976344492,18.04462,0,0.59354332608,3.6280512972,25,10,22.35,730.1627264492,23.622048,0.447388,1.12924216212,0,0,0,352.6, 3.3, 1.9,0,0,1024,1024,1024,1024,0,0,0,0,0,0,0,66,,,,,,,8.36,107.96,725.8976344492,19.356956,6,P-GPS,
17200,2023-10-12 21:23:20,40.0688985600477,-88.2096007373987,19.356956,,,725.8976344492,18.04462,0,0.58550198724,3.6367127148,25,10,22.35,730.1627264492,23.622048,0.447388,1.12924216212,0,0,0,352.6, 3.2, 1.9,0,0,1024,1024,1024,1024,0,0,0,0,0,0,0,66,,,,,,,8.36,107.96,725.8976344492,19.356956,6,P-GPS,
17300,2023-10-12 21:23:20,40.0688985379262,-88.2096007389841,19.356956,,,725.8976344492,17.716536,0,0.58157154092,3.6448163896,25,10,22.35,730.1627264492,23.622048,0.447388,1.12924216212,0,0,0,352.5, 3, 2.4,0,0,1024,1024,1024,1024,0,0,0,0,0,0,0,66,,,,,,,8.36,107.96,725.8976344492,19.356956,6,P-GPS,
17400,2023-10-12 21:23:20,40.0688985133405,-88.2096007402113,19.356956,,,725.8976344492,18.04462,0,0.57717849616,3.6537730828,25,10,22.35,730.1627264492,23.622048,0.447388,1.12924216212,0,0,0,352.4, 2.9, 2.8,0,0,1024,1024,1024,1024,0,0,0,0,0,0,0,66,,,,,,,8.36,107.96,725.8976344492,19.356956,6,P-GPS,
17500,2023-10-12 21:23:21,40.0688985396806,-88.2096008331039,19.356956,,,725.8976344492,17.716536,0,0.60437337892,3.681430564,25,10,22.35,730.1627264492,23.622048,0.447388,1.12924216212,0,0,0,352.4, 2.9, 2.9,0,0,1024,1024,1024,1024,0,0,0,0,0,0,0,66,,,,,,,8.36,107.96,725.8976344492,19.356956,6,P-GPS,
17600,2023-10-12 21:23:21,40.0688985170821,-88.2096008139873,19.356956,,,725.8976344492,17.716536,0,0.59559713192,3.691273084,25,10,22.35,730.1627264492,23.622048,0.447388,1.12924216212,0,0,0,352.4, 3, 2.7,0,0,1024,1024,1024,1024,0,0,0,0,0,0,0,66,,,,,,,8.36,107.96,725.8976344492,19.356956,6,P-GPS,
17700,2023-10-12 21:23:21,40.0688985026038,-88.209600789251,19.028872,,,725.5695504492,17.716536,0,0.58697180356,3.69996731,25,10,22.35,730.1627264492,23.622048,0.447388,1.12924216212,0,0,0,352.4, 3.2, 2.4,0,0,1024,1024,1024,1024,0,0,0,0,0,0,0,66,,,,,,,8.36,107.96,725.5695504492,19.028872,6,P-GPS,
17800,2023-10-12 21:23:21,40.0688985619373,-88.2096008449757,19.028872,,,725.5695504492,17.388452,0,0.611384534,3.7266077308,25,10,22.35,730.1627264492,23.622048,0.447388,1.12924216212,0,0,0,352.4, 3.1, 2.2,0,0,1024,1024,1024,1024,0,0,0,0,0,0,0,66,,,,,,,8.36,107.96,725.5695504492,19.028872,6,P-GPS,
17900,2023-10-12 21:23:21,40.0688985512978,-88.2096008059078,19.028872,,,725.5695504492,17.388452,0,0.60004267012,3.738189096,25,10,22.35,730.1627264492,23.622048,0.447388,1.12924216212,0,0,0,352.4, 3, 2,0,0,1024,1024,1024,1024,0,0,0,0,0,0,0,66,,,,,,,8.36,107.96,725.5695504492,19.028872,6,P-GPS,
18000,2023-10-12 21:23:21,40.0688985393854,-88.2096007654682,19.028872,,,725.5695504492,17.388452,0,0.58814306344,3.7502953956,25,10,22.35,730.1627264492,23.622048,0.447388,1.12924216212,0,0,0,352.3, 2.8, 2.1,0,0,1024,1024,1024,1024,0,0,0,0,0,0,0,66,,,,,,,8.36,107.96,725.5695504492,19.028872,6,P-GPS,
18100,2023-10-12 21:23:21,40.0688985266103,-88.209600720542,19.028872,,,725.5695504492,17.388452,0,0.57501970344,3.7636812228,25,10,22.3445,730.1627264492,23.622048,0.447388,1.12924216212,0,0,0,352.3, 2.9, 2.2,0,0,1024,1024,1024,1024,0,0,0,0,0,0,0,66,,,,,,,8.733,107.96,725.5695504492,19.028872,6,P-GPS,
18200,2023-10-12 21:23:21,40.0688985548965,-88.2096007088492,19.028872,,,725.5695504492,17.388452,0,0.57777888988,3.7745079948,25,10,22.3445,730.1627264492,23.622048,0.447388,1.12924216212,0,0,0,352.2, 3.1, 2.2,0,0,1024,1024,1024,1024,0,0,0,0,0,0,0,66,,,,,,,8.733,107.96,725.5695504492,19.028872,6,P-GPS,
18300,2023-10-12 21:23:21,40.0688985519066,-88.2096006590842,19.028872,,,725.5695504492,17.388452,0,0.56555448004,3.7884515648,25,10,22.3445,730.1627264492,23.622048,0.447388,1.12924216212,0,0,0,352.2, 3.3, 2,0,0,1024,1024,1024,1024,0,0,0,0,0,0,0,66,,,,,,,8.733,107.96,725.5695504492,19.028872,6,P-GPS,
18400,2023-10-12 21:23:22,40.0688985443771,-88.2096006036027,19.028872,,,725.5695504492,17.388452,0,0.55115815412,3.8041667884,25,10,22.3445,730.1627264492,23.622048,0.447388,1.12924216212,0,0,0,352.3, 3.5, 1.9,0,0,1024,1024,1024,1024,0,0,0,0,0,0,0,66,,,,,,,8.733,107.96,725.5695504492,19.028872,6,P-GPS,
18500,2023-10-12 21:23:22,40.0688985801442,-88.2096006159198,19.028872,,,725.5695504492,17.060368,0,0.5614009366,3.8176510408,25,10,22.3445,730.1627264492,23.622048,0.447388,1.12924216212,0,0,0,352.3, 3.3, 1.8,0,0,1024,1024,1024,1024,0,0,0,0,0,0,0,66,,,,,,,8.733,107.96,725.5695504492,19.028872,6,P-GPS,
18600,2023-10-12 21:23:22,40.0688985652184,-88.2096005522513,18.700788,,,725.2414664492,17.060368,0,0.54375329824,3.8362534036,25,10,22.3445,730.1627264492,23.622048,0.447388,1.12924216212,0,0,0,352.4, 3.2, 1.6,0,0,1024,1024,1024,1024,0,0,0,0,0,0,0,66,,,,,,,8.733,107.96,725.2414664492,18.700788,6,P-GPS,
18700,2023-10-12 21:23:22,40.0688985583599,-88.2096005030926,18.700788,,,725.2414664492,17.388452,0,0.53118111936,3.8501969736,25,10,22.3445,730.1627264492,23.622048,0.447388,1.12924216212,0,0,0,352.4, 3.2, 1.4,0,0,1024,1024,1024,1024,0,0,0,0,0,0,0,66,,,,,,,8.733,107.96,725.2414664492,18.700788,6,P-GPS,
18800,2023-10-12 21:23:22,40.0688985525917,-88.209600466899,18.700788,,,725.2414664492,17.060368,0,0.52180775948,3.8605316196,25,10,22.3445,730.1627264492,23.622048,0.447388,1.12924216212,0,0,0,352.4, 3.4, 1.7,0,0,1024,1024,1024,1024,0,0,0,0,0,0,0,66,,,,,,,8.733,107.96,725.2414664492,18.700788,6,P-GPS,
18900,2023-10-12 21:23:22,40.0688986223423,-88.2096005264006,18.700788,,,725.2414664492,17.060368,0,0.55045277352,3.890912198,25,10,22.3445,730.1627264492,23.622048,0.447388,1.12924216212,0,0,0,352.4, 3.6, 1.9,0,0,1024,1024,1024,1024,0,0,0,0,0,0,0,66,,,,,,,8.733,107.96,725.2414664492,18.700788,6,P-GPS,
19000,2023-10-12 21:23:22,40.0688986159358,-88.2096004883606,18.700788,,,725.2414664492,17.060368,0,0.54065618528,3.9018045868,25,10,22.3445,730.1627264492,23.622048,0.447388,1.12924216212,0,0,0,352.3, 3.6, 2,0,0,1024,1024,1024,1024,0,0,0,0,0,0,0,66,,,,,,,8.733,107.96,725.2414664492,18.700788,6,P-GPS,
19100,2023-10-12 21:23:22,40.0688986274499,-88.2096004579767,18.700788,,,725.2414664492,17.060368,0,0.5366798072,3.911253406,25,10,22.3325,730.1627264492,23.622048,0.447388,1.12924216212,0,0,0,352.4, 3.6, 2,0,0,1024,1024,1024,1024,0,0,0,0,0,0,0,66,,,,,,,8.733,107.96,725.2414664492,18.700788,6,P-GPS,
19200,2023-10-12 21:23:22,40.0688987020047,-88.2096005115547,18.700788,,,725.2414664492,16.732284,0,0.56560369264,3.9423229608,25,10,22.3325,730.1627264492,23.622048,0.447388,1.12924216212,0,0,0,352.4, 3.7, 2,0,0,1024,1024,1024,1024,0,0,0,0,0,0,0,66,,,,,,,8.733,107.96,725.2414664492,18.700788,6,P-GPS,
