time(millisecond),datetime(utc),latitude,longitude,height_above_takeoff(feet),height_above_ground_at_drone_location(feet),ground_elevation_at_drone_location(feet),altitude_above_seaLevel(feet),height_sonar(feet),speed(mph),distance(feet),mileage(feet),satellites,gpslevel,voltage(v),max_altitude(feet),max_ascent(feet),max_speed(mph),max_distance(feet), xSpeed(mph), ySpeed(mph), zSpeed(mph), compass_heading(degrees), pitch(degrees), roll(degrees),isPhoto,isVideo,rc_elevator,rc_aileron,rc_throttle,rc_rudder,rc_elevator(percent),rc_aileron(percent),rc_throttle(percent),rc_rudder(percent),gimbal_heading(degrees),gimbal_pitch(degrees),gimbal_roll(degrees),battery_percent,voltageCell1,voltageCell2,voltageCell3,voltageCell4,voltageCell5,voltageCell6,current(A),battery_temperature(f),altitude(feet),ascent(feet),flycStateRaw,flycState,message
0,2023-10-12 22:11:12,40.0688928081713,-88.2096907151102,0,Available with any HD 360 subscription,Available with any HD 360 subscription,706.38288415281,0.656168,0,0,0,24,10,0,706.38288415281,0,0,0,0,0,0,7.4, -1, -1.6,0,0,364,364,364,1684,-100,-100,-100,100,0,0,0,37,,,,,,,0,109.76,706.38288415281,0,6,P-GPS,"GEO: You are in a Warning Zone (Airport). Fly with caution."
100,2023-10-12 22:11:12,40.0688927559612,-88.2096907688008,0,,,706.38288415281,0.656168,0,0.0242401254476,0.0242401254476,24,10,0,706.38288415281,0,0,0.0242401254476,0,0,0,7.4, -1, -1.6,0,0,364,364,364,1684,-100,-100,-100,100,0,0,0,37,,,,,,,0,109.76,706.38288415281,0,41,Motors_Started,
200,2023-10-12 22:11:13,40.068892767962,-88.209690753024,0,,,706.38288415281,0.656168,0,0.018090879844,0.0304510180348,24,10,0,706.38288415281,0,0,0.0242401254476,0,0,0,7.4, -1, -1.6,0,0,364,364,364,1684,-100,-100,-100,100,0,0,0,37,,,,,,,0,109.76,706.38288415281,0,41,Motors_Started,
300,2023-10-12 22:11:13,40.0688927750915,-88.2096907412776,0,,,706.38288415281,0.656168,0,0.0141083009764,0.034637140216,24,10,0,706.38288415281,0,0,0.0242401254476,0,0,0,7.4, -1, -1.6,0,0,364,364,364,1684,-100,-100,-100,100,0,0,0,37,,,,,,,0,109.76,706.38288415281,0,41,Motors_Started,
400,2023-10-12 22:11:13,40.0688927829453,-88.2096907293789,0,,,706.38288415281,0.656168,0,0.0100289373288,0.039024279464,24,10,0,706.38288415281,0,0,0.0242401254476,0,0,0,7.4, -1, -1.6,0,0,364,364,364,1684,-100,-100,-100,100,0,0,0,37,,,,,,,0,109.76,706.38288415281,0,41,Motors_Started,
500,2023-10-12 22:11:13,40.0688927194239,-88.2096908028312,0,,,706.38288415281,0.656168,0,0.040599410748,0.069971130848,24,10,0,706.38288415281,0,0,0.040599410748,0,0,0,7.4, -1, -1.6,0,0,364,364,364,1684,-100,-100,-100,100,0,0,0,37,,,,,,,0,109.76,706.38288415281,0,41,Motors_Started,
600,2023-10-12 22:11:13,40.0688927313279,-88.2096907877359,0,,,706.38288415281,0.656168,0,0.034600722892,0.076023296396,24,10,0,706.38288415281,0,0,0.040599410748,0,0,0,7.4, -1, -1.6,0,0,364,364,364,1684,-100,-100,-100,100,0,0,0,37,,,,,,,0,109.76,706.38288415281,0,41,Motors_Started,
700,2023-10-12 22:11:13,40.0688927498315,-88.2096907643731,0,,,706.38288415281,0.656168,0,0.0253426517296,0.085410763888,24,10,0,706.38288415281,0,0,0.040599410748,0,0,0,7.4, -1, -1.6,0,0,1024,1024,1024,1024,0,0,0,0,0,0,0,37,,,,,,,0,109.76,706.38288415281,0,41,Motors_Started,
800,2023-10-12 22:11:13,40.0688927058373,-88.2096908139808,0,,,706.38288415281,0.656168,0,0.04643372852,0.106612208136,24,10,0,706.38288415281,0,0,0.04643372852,0,0,0,7.4, -1, -1.6,0,0,1024,1024,1024,1024,0,0,0,0,0,0,0,37,,,,,,,0,109.76,706.38288415281,0,41,Motors_Started,
900,2023-10-12 22:11:13,40.0688927162942,-88.2096907977617,0,,,706.38288415281,0.656168,0,0.040696851696,0.112533468168,24,10,0,706.38288415281,0,0,0.04643372852,0,0,0,7.3, -1, -1.6,0,0,1024,1024,1024,1024,0,0,0,0,0,0,0,37,,,,,,,0,109.76,706.38288415281,0,41,Motors_Started,
1000,2023-10-12 22:11:13,40.0688927264948,-88.2096907779713,0,,,706.38288415281,0.656168,0,0.034584318692,0.119195541872,24,10,0,706.38288415281,0,0,0.04643372852,0,0,0,7.2, -1, -1.6,0,0,1024,1024,1024,1024,0,0,0,0,0,0,0,37,,,,,,,0,109.76,706.38288415281,0,41,Motors_Started,
1100,2023-10-12 22:11:13,40.0688927427455,-88.2096907511943,0,,,706.38288415281,0.656168,0,0.0259096464984,0.128737536928,24,10,0,706.38288415281,0,0,0.04643372852,0,0,0,7.1, -1, -1.5,0,0,1024,1024,1024,1024,0,0,0,0,0,0,0,37,,,,,,,0,109.76,706.38288415281,0,41,Motors_Started,
1200,2023-10-12 22:11:14,40.0688927306578,-88.2096907661814,0,,,706.38288415281,0.656168,0,0.0316723107248,0.134817261532,24,10,0,706.38288415281,0,0,0.04643372852,0,0,0,7.3, -1, -1.6,0,0,1024,1024,1024,1024,0,0,0,0,0,0,0,37,,,,,,,0,109.76,706.38288415281,0,41,Motors_Started,
1300,2023-10-12 22:11:14,40.0688927468409,-88.2096907413525,0,,,706.38288415281,0.656168,0,0.0235454075776,0.143923232952,24,10,0,706.38288415281,0,0,0.04643372852,0,0,0,7.4, -0.9, -1.6,0,0,1024,1024,1024,1024,0,0,0,0,0,0,0,37,,,,,,,0,109.76,706.38288415281,0,41,Motors_Started,
1400,2023-10-12 22:11:14,40.0688927614057,-88.2096907178069,0,,,706.38288415281,0.656168,0,0.0170789703628,0.152376317212,24,10,0,706.38288415281,0,0,0.04643372852,0,0,0,7.4, -0.9, -1.6,0,0,1024,1024,1024,1024,0,0,0,0,0,0,0,37,,,,,,,0,109.76,706.38288415281,0,41,Motors_Started,
1500,2023-10-12 22:11:14,40.0688927128623,-88.2096907684037,0,,,706.38288415281,0.656168,0,0.037823492024,0.175031501664,24,10,0,706.38288415281,0,0,0.04643372852,0,0,-0.223694,7.4, -0.9, -1.6,0,0,1024,1024,1024,1024,0,0,0,0,0,0,0,37,,,,,,,0,109.76,706.38288415281,0,41,Motors_Started,
1600,2023-10-12 22:11:14,40.0688927272705,-88.2096907524888,0,,,706.38288415281,0.656168,0,0.0313073172748,0.181915032068,24,10,0,706.38288415281,0,0,0.04643372852,0,0,-0.223694,7.4, -1, -1.6,0,0,1024,1024,1024,1024,0,0,0,0,0,0,0,37,,,,,,,0,109.76,706.38288415281,0,41,Motors_Started,
1700,2023-10-12 22:11:14,40.0688927483704,-88.2096907361253,0,,,706.38288415281,0.656168,0,0.0225935374684,0.190866804008,24,10,0,706.38288415281,0,0,0.04643372852,0,0,-0.223694,7.4, -1, -1.6,0,0,1024,1024,1024,1024,0,0,0,0,0,0,0,37,,,,,,,0,109.76,706.38288415281,0,41,Motors_Started,
1800,2023-10-12 22:11:14,40.0688927692122,-88.2096907184395,0,,,706.38288415281,0.656168,0,0.0142445542616,0.199933733432,24,10,21.137,706.38288415281,0,0,0.04643372852,0,0,-0.223694,7.4, -0.9, -1.6,0,0,1024,1024,1024,1024,0,0,0,0,0,0,0,37,,,,,,,2.931,109.76,706.38288415281,0,41,Motors_Started,
1900,2023-10-12 22:11:14,40.0688927398696,-88.2096907636632,0,,,706.38288415281,0.656168,0,0.0283685376532,0.216488195904,24,10,21.137,706.38288415281,0,0,0.04643372852,0,0,-0.223694,7.4, -0.9, -1.6,0,0,1024,1024,1024,1024,0,0,0,0,0,0,0,37,,,,,,,2.931,109.76,706.38288415281,0,41,Motors_Started,
2000,2023-10-12 22:11:14,40.0688927591713,-88.2096907460663,0,,,706.38288415281,0.656168,0,0.0198573497168,0.225074810352,24,10,21.137,706.38288415281,0,0,0.04643372852,0,0,-0.223694,7.4, -0.9, -1.5,0,0,1024,1024,1024,1024,0,0,0,0,0,0,0,37,,,,,,,2.931,109.76,706.38288415281,0,41,Motors_Started,
2100,2023-10-12 22:11:14,40.068892779373,-88.2096907344535,0,,,706.38288415281,0.656168,0,0.0118138455224,0.233126975964,24,10,21.137,706.38288415281,0,0,0.04643372852,0,0,-0.223694,7.4, -0.9, -1.5,0,0,1024,1024,1024,1024,0,0,0,0,0,0,0,37,,,,,,,2.931,109.76,706.38288415281,0,10,Assisted_Takeoff,
2200,2023-10-12 22:11:15,40.0688927403903,-88.2096908071245,0,,,706.38288415281,0.656168,0,0.03565944996,0.257905848148,24,10,21.137,706.38288415281,0,0,0.04643372852,0,0,-0.223694,7.4, -0.9, -1.6,0,0,1024,1024,1024,1024,0,0,0,0,0,0,0,37,,,,,,,2.931,109.76,706.38288415281,0,10,Assisted_Takeoff,
2300,2023-10-12 22:11:15,40.0688927603206,-88.2096907968606,0,,,706.38288415281,0.656168,0,0.0287366150928,0.26572179328,24,10,21.137,706.38288415281,0,0,0.04643372852,0,0,-0.223694,7.4, -0.9, -1.6,0,0,1024,1024,1024,1024,0,0,0,0,0,0,0,37,,,,,,,2.931,109.76,706.38288415281,0,10,Assisted_Takeoff,
2400,2023-10-12 22:11:15,40.0688927766471,-88.2096907835467,0,,,706.38288415281,0.656168,0,0.0223025597688,0.272743118964,24,10,21.137,706.38288415281,0,0,0.04643372852,0,0,-0.223694,7.4, -0.9, -1.6,0,0,1024,1024,1067,1006,0,0,7,-3,0,0,0,37,,,,,,,2.931,109.76,706.38288415281,0,10,Assisted_Takeoff,
2500,2023-10-12 22:11:15,40.0688927899283,-88.2096907637181,0.328084,,,706.71096815281,0.656168,0,0.0151160109824,0.280100730748,24,10,21.137,706.71096815281,0.328084,0,0.04643372852,0,0,-0.223694,7.4, -0.9, -1.5,0,0,1024,1024,1684,774,0,0,100,-38,0,0,0,37,,,,,,,2.931,109.76,706.71096815281,0.328084,10,Assisted_Takeoff,
2600,2023-10-12 22:11:15,40.0688927662633,-88.2096907817145,0.328084,,,706.71096815281,0.656168,0,0.0240752304292,0.290090560464,24,10,21.137,706.71096815281,0.328084,0,0.04643372852,0,0,-0.223694,7.3, -0.9, -1.5,0,0,1024,1024,1684,909,0,0,100,-17,0,0,0,37,,,,,,,2.931,109.76,706.71096815281,0.328084,10,Assisted_Takeoff,
2700,2023-10-12 22:11:15,40.0688927875275,-88.209690760432,0.328084,,,706.71096815281,0.656168,0,0.0147261159568,0.299862870488,24,10,21.137,706.71096815281,0.328084,0,0.04643372852,0,0,-0.223694,7.3, -0.9, -1.5,0,0,1024,1024,1684,909,0,0,100,-17,0,0,0,37,,,,,,,2.931,109.76,706.71096815281,0.328084,10,Assisted_Takeoff,
2800,2023-10-12 22:11:15,40.0688928068196,-88.2096907406403,0.328084,,,706.71096815281,0.656168,0,0.0071452758192,0.308811689672,24,10,21.137,706.71096815281,0.328084,0,0.04643372852,0,0,-0.223694,7.3, -0.9, -1.5,0,0,1024,1024,1684,670,0,0,100,-54,0,0,0,37,,,,,,,2.931,109.76,706.71096815281,0.328084,10,Assisted_Takeoff,
2900,2023-10-12 22:11:15,40.0688927656624,-88.209690785993,0.328084,,,706.71096815281,0.656168,0,0.0251441281012,0.32845473492,24,10,21.137,706.71096815281,0.328084,0,0.04643372852,0,0,-0.223694,7.3, -0.8, -1.5,0,0,1024,1024,1684,762,0,0,100,-40,0,0,0,37,,,,,,,2.931,109.76,706.71096815281,0.328084,10,Assisted_Takeoff,
3000,2023-10-12 22:11:15,40.0688927815383,-88.2096907577746,0.328084,,,706.71096815281,0.656168,0,0.0153727695208,0.33823163812,24,10,21.137,706.71096815281,0.328084,0,0.04643372852,0,0,-0.223694,7.2, -0.7, -1.4,0,0,1024,1024,1684,685,0,0,100,-51,0,0,0,37,,,,,,,2.931,109.76,706.71096815281,0.328084,10,Assisted_Takeoff,
3100,2023-10-12 22:11:16,40.0688927894344,-88.209690737113,0.328084,,,706.71096815281,0.656168,0,0.009190945176,0.34468176956,24,10,21.137,706.71096815281,0.328084,0,0.04643372852,0,0,-0.223694,7.2, -0.6, -1.3,0,0,1024,1024,1684,711,0,0,100,-47,0,0,0,37,,,,,,,2.931,109.76,706.71096815281,0.328084,10,Assisted_Takeoff,
3200,2023-10-12 22:11:16,40.0688927825988,-88.2096907247307,0.328084,,,706.71096815281,0.656168,0,0.0097090554288,0.34894358072,24,10,21.137,706.71096815281,0.328084,0,0.04643372852,0,0,-0.223694,7, -0.2, -1.2,0,0,1024,1024,1684,707,0,0,100,-48,0,0,0,37,,,,,,,2.931,109.76,706.71096815281,0.328084,10,Assisted_Takeoff,
3300,2023-10-12 22:11:16,40.0688926894336,-88.209690789039,0.328084,,,706.71096815281,0.656168,0,0.047987534344,0.387385183,24,10,21.137,706.71096815281,0.328084,0,0.047987534344,0,0,-0.447388,6.6, 1.1, -0.9,0,0,1024,1024,1684,658,0,0,100,-55,0,0,0,37,,,,,,,2.931,109.76,706.71096815281,0.328084,10,Assisted_Takeoff,
3400,2023-10-12 22:11:16,40.0688926321135,-88.209690804298,0.328084,,,706.71096815281,0.984252,0,0.06889271874,0.40873032804,24,10,21.137,706.71096815281,0.328084,0,0.06889271874,0,0,-0.671082,5, 2.5, -0.2,0,0,1024,1024,1684,657,0,0,100,-56,0,0,0,37,,,,,,,2.931,109.76,706.71096815281,0.328084,6,P-GPS,
3500,2023-10-12 22:11:16,40.0688925175469,-88.2096908380965,0.328084,,,706.71096815281,0.984252,0.223694,0.111455712228,0.45158137928,24,10,21.137,706.71096815281,0.328084,0.223694,0.111455712228,-0.223694,0,-1.342164,1.7, 2.5, 0.4,0,0,1024,1024,1684,657,0,0,100,-56,0,0,0,37,,,,,,,2.931,109.76,706.71096815281,0.328084,6,P-GPS,
3600,2023-10-12 22:11:16,40.0688922870672,-88.2096909339872,0.656168,,,707.03905215281,1.312336,0.223694,0.199705058884,0.5398294136,24,10,21.137,707.03905215281,0.656168,0.223694,0.199705058884,-0.223694,0,-2.013246,357.8, 1.3, 1,0,0,1024,1024,1684,662,0,0,100,-55,0,0,0,37,,,,,,,2.931,109.76,707.03905215281,0.656168,6,P-GPS,
3700,2023-10-12 22:11:16,40.0688920706006,-88.2096909043822,0.984252,,,707.36713615281,1.312336,0.447388,0.27424213476,0.61923886496,24,10,20.9735,707.36713615281,0.984252,0.447388,0.27424213476,-0.447388,0,-2.460634,353.4, 0.1, 0.1,0,0,1024,1024,1044,1024,0,0,3,0,0,0,0,36,,,,,,,7.582,109.58,707.36713615281,0.984252,6,P-GPS,
3800,2023-10-12 22:11:16,40.0688918470997,-88.2096908444753,1.312336,,,707.69522015281,1.968504,0.447388,0.35250329212,0.70248033744,24,10,20.9735,707.69522015281,1.312336,0.447388,0.35250329212,-0.447388,0,-3.131716,349.7, -1.5, -0.8,0,0,1024,1024,1024,1024,0,0,0,0,0,0,0,36,,,,,,,7.582,109.58,707.69522015281,1.312336,6,P-GPS,
3900,2023-10-12 22:11:16,40.0688916241948,-88.2096907759364,1.968504,,,708.35138815281,2.296588,0.223694,0.43230644428,0.78603020888,24,10,20.9735,708.35138815281,1.968504,0.447388,0.43230644428,-0.223694,0,-3.579104,347.9, -3.3, -2.2,0,0,1024,1024,1024,1024,0,0,0,0,0,0,0,36,,,,,,,7.582,109.58,708.35138815281,1.968504,6,P-GPS,
4000,2023-10-12 22:11:16,40.0688914291834,-88.2096908008196,2.296588,,,708.67947215281,2.952756,0.223694,0.503690961,0.85751643164,24,10,20.9735,708.67947215281,2.296588,0.447388,0.503690961,-0.223694,0,-3.802798,347.1, -4.1, -2.6,0,0,1024,1024,1024,1024,0,0,0,0,0,0,0,37,,,,,,,7.582,109.58,708.67947215281,2.296588,6,P-GPS,
4100,2023-10-12 22:11:16,40.0688913322273,-88.2096908208842,2.952756,,,709.33564015281,3.28084,0,0.53930776004,0.89333336192,24,10,20.9735,709.33564015281,2.952756,0.447388,0.53930776004,0,0,-3.802798,346.6, -3.7, -1.8,0,0,1024,1024,1024,1024,0,0,0,0,0,0,0,37,,,,,,,7.582,109.58,709.33564015281,2.952756,6,P-GPS,
4200,2023-10-12 22:11:17,40.06889128011,-88.2096908667999,3.28084,,,709.66372415281,3.608924,0,0.55911747196,0.91626643352,24,10,20.9735,709.66372415281,3.28084,0.447388,0.55911747196,0,0,-3.579104,346.2, -2.6, -0.9,0,0,1024,1024,1024,1024,0,0,0,0,0,0,0,37,,,,,,,7.582,109.58,709.66372415281,3.28084,6,P-GPS,
4300,2023-10-12 22:11:17,40.0688912340712,-88.2096909813771,3.937008,,,710.31989215281,4.265092,0,0.5791010684,0.95239832444,24,10,20.9735,710.31989215281,3.937008,0.447388,0.5791010684,0,0,-3.35541,345.9, -1.3, -0.1,0,0,1024,1024,1024,1024,0,0,0,0,0,0,0,37,,,,,,,7.582,109.58,710.31989215281,3.937008,6,P-GPS,
4400,2023-10-12 22:11:17,40.0688912039149,-88.2096910336526,4.265092,,,710.64797615281,4.593176,0,0.59203085884,0.97067588408,24,10,20.9735,710.64797615281,4.265092,0.447388,0.59203085884,0,0,-2.908022,345.6, -0.4, 0.5,0,0,1024,1024,1024,1024,0,0,0,0,0,0,0,37,,,,,,,7.582,109.58,710.64797615281,4.265092,6,P-GPS,
4500,2023-10-12 22:11:17,40.0688911487052,-88.2096910880128,4.593176,,,710.97606015281,4.92126,0,0.61434385168,0.995898982,24,10,20.9735,710.97606015281,4.593176,0.447388,0.61434385168,0,0,-2.460634,345.2, -0.4, 1.2,0,0,1024,1024,1024,1024,0,0,0,0,0,0,0,37,,,,,,,7.582,109.58,710.97606015281,4.593176,6,P-GPS,
4600,2023-10-12 22:11:17,40.0688910961709,-88.2096911100728,4.92126,,,711.30414415281,5.249344,0,0.63428151636,1.01603021624,24,10,20.9735,711.30414415281,4.92126,0.447388,0.63428151636,0,0,-1.789552,344.8, -0.9, 1.7,0,0,1024,1024,1024,1024,0,0,0,0,0,0,0,37,,,,,,,7.582,109.58,711.30414415281,4.92126,6,P-GPS,
4700,2023-10-12 22:11:17,40.0688909541056,-88.2096911639915,5.249344,,,711.63222815281,5.249344,0,0.68796590128,1.07000659592,24,10,20.9735,711.63222815281,5.249344,0.447388,0.68796590128,0,0,-1.342164,344.4, -1.5, 1.1,0,0,1024,1024,1024,1024,0,0,0,0,0,0,0,37,,,,,,,7.582,109.58,711.63222815281,5.249344,6,P-GPS,
4800,2023-10-12 22:11:17,40.0688909250884,-88.2096911256965,5.249344,,,711.63222815281,5.249344,0,0.6965387362,1.08505252816,24,10,20.9735,711.63222815281,5.249344,0.447388,0.6965387362,0,0,-0.894776,344.1, -1.8, 0,0,0,1024,1024,1684,1024,0,0,100,0,0,0,0,37,,,,,,,7.582,109.58,711.63222815281,5.249344,6,P-GPS,
4900,2023-10-12 22:11:17,40.0688909088416,-88.2096910892249,5.249344,,,711.63222815281,5.577428,0,0.70079726652,1.0968340246,24,10,20.9735,711.63222815281,5.249344,0.447388,0.70079726652,0,0,-0.447388,343.7, -1.4, -1,0,0,1024,1024,1684,1024,0,0,100,0,0,0,0,37,,,,,,,7.582,109.58,711.63222815281,5.249344,6,P-GPS,
5000,2023-10-12 22:11:17,40.0688907951875,-88.2096912009424,5.249344,,,711.63222815281,5.577428,0,0.74685697928,1.14872379004,24,10,20.9735,711.63222815281,5.249344,0.447388,0.74685697928,0,0,-0.447388,343.4, -0.9, -1.2,0,0,1024,1024,1684,1024,0,0,100,0,0,0,0,37,,,,,,,7.582,109.58,711.63222815281,5.249344,6,P-GPS,
5100,2023-10-12 22:11:17,40.0688908080525,-88.209691222077,5.577428,,,711.96031215281,5.577428,0,0.74334319964,1.15626316036,24,10,20.9735,711.96031215281,5.577428,0.447388,0.74685697928,0,0,-0.671082,343.2, -0.3, -0.9,0,0,1024,1024,1684,1024,0,0,100,0,0,0,0,37,,,,,,,7.582,109.58,711.96031215281,5.577428,6,P-GPS,
5200,2023-10-12 22:11:18,40.068890823623,-88.2096912430319,5.577428,,,711.96031215281,5.577428,0,0.73891406564,1.1644193286,24,10,20.9735,711.96031215281,5.577428,0.447388,0.74685697928,0,0,-1.11847,343.1, 0, -0.5,0,0,1024,1024,1684,1024,0,0,100,0,0,0,0,37,,,,,,,7.582,109.58,711.96031215281,5.577428,6,P-GPS,
5300,2023-10-12 22:11:18,40.0688908413589,-88.209691251589,5.905512,,,712.28839615281,5.905512,0,0.73305776624,1.17131565428,24,10,20.9735,712.28839615281,5.905512,0.447388,0.74685697928,0,0,-1.565858,343.2, 0.1, -0.4,0,0,1024,1024,1684,1024,0,0,100,0,0,0,0,37,,,,,,,7.582,109.58,712.28839615281,5.905512,6,P-GPS,
5400,2023-10-12 22:11:18,40.0688908012022,-88.2096913026901,5.905512,,,712.28839615281,6.233596,0,0.7503937248,1.19176841084,24,10,20.9735,712.28839615281,5.905512,0.447388,0.7503937248,0,0,-2.23694,343.3, -0.1, -0.4,0,0,1024,1024,1684,1024,0,0,100,0,0,0,0,37,,,,,,,7.582,109.58,712.28839615281,5.905512,6,P-GPS,
5500,2023-10-12 22:11:18,40.0688908259093,-88.209691294888,6.233596,,,712.61648015281,6.56168,0,0.74112207096,1.20104006468,24,10,20.9735,712.61648015281,6.233596,0.447388,0.7503937248,0,0,-2.908022,343.4, -0.4, -0.8,0,0,1024,1024,1684,1024,0,0,100,0,0,0,0,37,,,,,,,7.582,109.58,712.61648015281,6.233596,6,P-GPS,
5600,2023-10-12 22:11:18,40.0688908660265,-88.2096912780128,6.889764,,,713.27264815281,6.889764,0,0.72581039068,1.21641736176,24,10,20.9735,713.27264815281,6.889764,0.447388,0.7503937248,0,0,-3.802798,343.5, -0.5, -1.1,0,0,1024,1024,1684,1024,0,0,100,0,0,0,0,37,,,,,,,7.582,109.58,713.27264815281,6.889764,6,P-GPS,
5700,2023-10-12 22:11:18,40.0688908617773,-88.2096913839389,7.217848,,,713.60073215281,7.217848,0,0.7342848004,1.24603350444,24,10,20.8215,713.60073215281,7.217848,0.447388,0.7503937248,0,0,-4.47388,343.6, -0.5, -1.3,0,0,1024,1024,1684,1024,0,0,100,0,0,0,0,36,,,,,,,14.311,109.58,713.60073215281,7.217848,6,P-GPS,
5800,2023-10-12 22:11:18,40.0688909232138,-88.2096913939553,7.874016,,,714.25690015281,7.874016,0,0.71336616456,1.26862208784,24,10,20.8215,714.25690015281,7.874016,0.447388,0.7503937248,0,0,-5.368656,343.6, -0.4, -1.5,0,0,1024,1024,1684,1024,0,0,100,0,0,0,0,36,,,,,,,14.311,109.58,714.25690015281,7.874016,6,P-GPS,
5900,2023-10-12 22:11:18,40.0688909855997,-88.2096914572415,8.858268,,,715.24115215281,8.2021,0,0.69649936612,1.29743770556,24,10,20.8215,715.24115215281,8.858268,0.447388,0.7503937248,0,0,-6.039738,343.6, -0.3, -0.9,0,0,1024,1024,1684,1048,0,0,100,4,0,0,0,36,,,,,,,14.311,109.58,715.24115215281,8.858268,6,P-GPS,
6000,2023-10-12 22:11:18,40.0688910609526,-88.2096915423607,9.514436,,,715.89732015281,9.186352,0.223694,0.67802495608,1.33377957024,24,10,20.8215,715.89732015281,9.514436,0.447388,0.7503937248,0.223694,0,-6.934514,343.6, 0.1, 0.2,0,0,1024,1024,1681,1024,0,0,100,0,0,0,0,37,,,,,,,14.311,109.58,715.89732015281,9.514436,6,P-GPS,
6100,2023-10-12 22:11:18,40.0688910363138,-88.209691784253,10.498688,,,716.88157215281,10.170604,0.223694,0.71205382856,1.40191277452,27,10,20.8215,716.88157215281,10.498688,0.447388,0.7503937248,0.223694,0,-7.82929,343.6, 1, 1,0,0,1024,1024,1024,1024,0,0,0,0,0,0,0,37,,,,,,,14.311,109.58,716.88157215281,10.498688,6,P-GPS,
6200,2023-10-12 22:11:19,40.0688911061956,-88.2096918325197,11.811024,,,718.19390815281,11.154856,0.223694,0.69493440544,1.43075135812,27,10,20.8215,718.19390815281,11.811024,0.447388,0.7503937248,0.223694,0,-8.276678,343.5, 1.3, 0.7,0,0,1024,1024,1024,1024,0,0,0,0,0,0,0,37,,,,,,,14.311,109.58,718.19390815281,11.811024,6,P-GPS,
6300,2023-10-12 22:11:19,40.068891152962,-88.2096918593461,12.795276,,,719.17816015281,12.139108,0,0.6832021216,1.44938652932,27,10,20.8215,719.17816015281,12.795276,0.447388,0.7503937248,0,0,-8.276678,343.5, 1, 0,0,0,1024,1024,1024,1024,0,0,0,0,0,0,0,37,,,,,,,14.311,109.58,719.17816015281,12.795276,6,P-GPS,
6400,2023-10-12 22:11:19,40.0688910598215,-88.2096920432605,14.107612,,,720.49049615281,13.451444,0,0.7378445118,1.51096133444,27,10,20.8215,720.49049615281,14.107612,0.447388,0.7503937248,0,0,-7.82929,343.6, 0.4, 0,0,0,1024,1024,1024,1024,0,0,0,0,0,0,0,37,,,,,,,14.311,109.58,720.49049615281,14.107612,6,P-GPS,
6500,2023-10-12 22:11:19,40.0688911092986,-88.2096920726895,15.091864,,,721.47474815281,14.107612,0,0.72654529884,1.53079729308,27,10,20.8215,721.47474815281,15.091864,0.447388,0.7503937248,0,0,-7.381902,343.7, 0, 0.5,0,0,1024,1024,1024,1024,0,0,0,0,0,0,0,37,,,,,,,14.311,109.58,721.47474815281,15.091864,6,P-GPS,
6600,2023-10-12 22:11:19,40.068891165543,-88.2096921053205,16.076116,,,722.45900015281,15.091864,0,0.71403217508,1.5532480812,27,10,20.8215,722.45900015281,16.076116,0.447388,0.7503937248,0,0,-6.71082,343.8, -0.2, 1.2,0,0,1024,1024,1024,1024,0,0,0,0,0,0,0,37,,,,,,,14.311,109.58,722.45900015281,16.076116,6,P-GPS,
6700,2023-10-12 22:11:19,40.0688912438361,-88.2096921419705,17.060368,,,723.44325215281,16.076116,0.223694,0.69603676768,1.58359257036,27,10,20.983,723.44325215281,17.060368,0.447388,0.7503937248,0.223694,0,-6.039738,344, 0, 1.5,0,0,1024,1024,1024,1024,0,0,0,0,0,0,0,36,,,,,,,10.663,109.58,723.44325215281,17.060368,6,P-GPS,
6800,2023-10-12 22:11:19,40.068891278893,-88.2096922813709,17.716536,,,724.09942015281,16.4042,0.223694,0.70891406468,1.62456041944,27,10,20.983,724.09942015281,17.716536,0.447388,0.7503937248,0.223694,0,-5.368656,344.1, 0.1, 1,0,0,1024,1024,1024,1024,0,0,0,0,0,0,0,36,,,,,,,10.663,109.58,724.09942015281,17.716536,6,P-GPS,
6900,2023-10-12 22:11:19,40.0688913668052,-88.2096923129442,18.372704,,,724.75558815281,17.060368,0.223694,0.68962600632,1.6578248562,27,10,20.983,724.75558815281,18.372704,0.447388,0.7503937248,0.223694,0,-4.47388,344.2, 0.6, 0.2,0,0,1024,1024,1024,1024,0,0,0,0,0,0,0,36,,,,,,,10.663,109.58,724.75558815281,18.372704,6,P-GPS,
7000,2023-10-12 22:11:19,40.0688914606084,-88.2096923398748,19.028872,,,725.41175615281,17.716536,0.223694,0.66897311852,1.6928642274,27,10,20.983,725.41175615281,19.028872,0.447388,0.7503937248,0.223694,0,-3.579104,344.1, 1.2, -0.2,0,0,1024,1024,1024,1024,0,0,0,0,0,0,0,37,,,,,,,10.663,109.58,725.41175615281,19.028872,6,P-GPS,
7100,2023-10-12 22:11:19,40.0688914798415,-88.2096925615068,19.356956,,,725.73984015281,18.04462,0.223694,0.70756563944,1.75514441312,27,10,20.983,725.73984015281,19.356956,0.447388,0.7503937248,0.223694,0,-2.684328,344.1, 1.7, -0.2,0,0,1024,1024,1024,1024,0,0,0,0,0,0,0,37,,,,,,,10.663,109.58,725.73984015281,19.356956,6,P-GPS,
7200,2023-10-12 22:11:20,40.0688915843633,-88.2096925902677,19.68504,,,726.06792415281,18.372704,0.223694,0.68810041572,1.79411423064,27,10,20.983,726.06792415281,19.68504,0.447388,0.7503937248,0.223694,0,-1.789552,344, 2, -0.2,0,0,1024,1024,1024,1024,0,0,0,0,0,0,0,37,,,,,,,10.663,109.58,726.06792415281,19.68504,6,P-GPS,
7300,2023-10-12 22:11:20,40.0688916995522,-88.2096926177353,20.013124,,,726.39600815281,18.700788,0.223694,0.66768702924,1.83683404828,27,10,20.983,726.39600815281,20.013124,0.447388,0.7503937248,0.223694,0,-1.11847,343.9, 2, 0,0,0,1024,1024,1024,1024,0,0,0,0,0,0,0,37,,,,,,,10.663,109.58,726.39600815281,20.013124,6,P-GPS,
7400,2023-10-12 22:11:20,40.0688918027186,-88.2096926353742,20.013124,,,726.39600815281,18.700788,0.223694,0.6496391284,1.87479664792,27,10,20.983,726.39600815281,20.013124,0.447388,0.7503937248,0.223694,0,-0.447388,343.8, 1.9, 0,0,0,1024,1024,1024,1024,0,0,0,0,0,0,0,37,,,,,,,10.663,109.58,726.39600815281,20.013124,6,P-GPS,
7500,2023-10-12 22:11:20,40.0688918729811,-88.2096927865786,20.013124,,,726.39600815281,18.700788,0.223694,0.67151576952,1.92418641328,27,10,20.983,726.39600815281,20.013124,0.447388,0.7503937248,0.223694,0,-0.223694,343.8, 1.6, 0,0,0,1024,1024,1024,1024,0,0,0,0,0,0,0,37,,,,,,,10.663,109.58,726.39600815281,20.013124,6,P-GPS,
7600,2023-10-12 22:11:20,40.0688919687609,-88.2096927768184,20.013124,,,726.39600815281,18.700788,0.223694,0.65204398412,1.95923890784,27,10,20.983,726.39600815281,20.013124,0.447388,0.7503937248,0.223694,0,0,343.6, 1.4, -0.1,0,0,1118,1024,1024,1024,14,0,0,0,0,0,0,37,,,,,,,10.663,109.58,726.39600815281,20.013124,6,P-GPS,
7700,2023-10-12 22:11:20,40.068892072935,-88.2096927505544,20.013124,,,726.39600815281,18.700788,0.223694,0.62844162116,1.99794625816,27,10,20.947,726.39600815281,20.013124,0.447388,0.7503937248,0.223694,0,0,343.5, 1.4, -0.3,0,0,1024,1024,1024,1024,0,0,0,0,0,0,0,36,,,,,,,8.389,109.58,726.39600815281,20.013124,6,P-GPS,
7800,2023-10-12 22:11:20,40.0688921458975,-88.2096928313091,20.013124,,,726.39600815281,18.700788,0.223694,0.63835960048,2.03283471072,27,10,20.947,726.39600815281,20.013124,0.447388,0.7503937248,0.223694,0,0.223694,343.4, 1.2, -0.3,0,0,1024,1024,1024,1024,0,0,0,0,0,0,0,36,,,,,,,8.389,109.58,726.39600815281,20.013124,6,P-GPS,
7900,2023-10-12 22:11:20,40.0688922565428,-88.2096927886028,20.013124,,,726.39600815281,18.372704,0.223694,0.61292324796,2.07492788792,27,10,20.947,726.39600815281,20.013124,0.447388,0.7503937248,0.223694,0,0.223694,343.4, 1, -0.9,0,0,1024,1024,1024,1024,0,0,0,0,0,0,0,36,,,,,,,8.389,109.58,726.39600815281,20.013124,6,P-GPS,
8000,2023-10-12 22:11:20,40.0688923674874,-88.2096927453636,19.68504,,,726.06792415281,18.372704,0.223694,0.58922574064,2.11716542208,27,10,20.947,726.39600815281,20.013124,0.447388,0.7503937248,0.223694,0,0.223694,343.4, 0.9, -1.5,0,0,1024,1024,1024,1024,0,0,0,0,0,0,0,37,,,,,,,8.389,109.58,726.06792415281,19.68504,6,P-GPS,
8100,2023-10-12 22:11:20,40.0688924783617,-88.2096927327889,19.68504,,,726.06792415281,18.372704,0.223694,0.57605972972,2.15777237876,27,10,20.947,726.39600815281,20.013124,0.447388,0.7503937248,0.223694,0,0.223694,343.3, 1.1, -1.9,0,0,1024,1024,1024,1024,0,0,0,0,0,0,0,37,,,,,,,8.389,109.58,726.06792415281,19.68504,6,P-GPS,
8200,2023-10-12 22:11:20,40.0688925349113,-88.2096928138797,19.68504,,,726.06792415281,18.04462,0.223694,0.59441602952,2.188402301,27,10,20.947,726.39600815281,20.013124,0.447388,0.7503937248,0.223694,0,0.223694,343.4, 1.7, -2.2,0,0,1024,1024,1024,1024,0,0,0,0,0,0,0,37,,,,,,,8.389,109.58,726.06792415281,19.68504,6,P-GPS,
8300,2023-10-12 22:11:21,40.0688925866309,-88.2096928557041,19.356956,,,725.73984015281,18.04462,0.223694,0.60311353636,2.21059390276,27,10,20.947,726.39600815281,20.013124,0.447388,0.7503937248,0.223694,0,0.223694,343.4, 2.2, -1.8,0,0,1024,1024,1024,1024,0,0,0,0,0,0,0,37,,,,,,,8.389,109.58,725.73984015281,19.356956,6,P-GPS,
8400,2023-10-12 22:11:21,40.0688926308476,-88.2096929118297,19.356956,,,725.73984015281,18.04462,0,0.61674542656,2.23308406096,27,10,20.947,726.39600815281,20.013124,0.447388,0.7503937248,0,0,0,343.4, 2.6, -1,0,0,1024,1024,1024,1024,0,0,0,0,0,0,0,37,,,,,,,8.389,109.58,725.73984015281,19.356956,6,P-GPS,
8500,2023-10-12 22:11:21,40.0688926036086,-88.2096930808963,19.356956,,,725.73984015281,18.04462,0,0.66475067744,2.28132553232,27,10,20.947,726.39600815281,20.013124,0.447388,0.7503937248,0,0,0,343.4, 2.5, -0.3,0,0,1024,1024,1024,1024,0,0,0,0,0,0,0,37,,,,,,,8.389,109.58,725.73984015281,19.356956,6,P-GPS,
8600,2023-10-12 22:11:21,40.0688926346967,-88.2096931203278,19.356956,,,725.73984015281,17.716536,0,0.67453414232,2.29713261944,27,10,20.947,726.39600815281,20.013124,0.447388,0.7503937248,0,0,0,343.4, 2.5, 0,0,0,1024,1024,1024,1024,0,0,0,0,0,0,0,37,,,,,,,8.389,109.58,725.73984015281,19.356956,6,P-GPS,
8700,2023-10-12 22:11:21,40.0688926449677,-88.2096931345636,19.356956,,,725.73984015281,17.716536,0,0.67815290884,2.30259521804,27,10,20.947,726.39600815281,20.013124,0.447388,0.7503937248,0,0,0,343.5, 2, -0.1,0,0,1024,1024,1024,1024,0,0,0,0,0,0,0,37,,,,,,,8.389,109.58,725.73984015281,19.356956,6,P-GPS,
8800,2023-10-12 22:11:21,40.068892650386,-88.2096931323404,19.356956,,,725.73984015281,17.716536,0,0.6773622264,2.30466542808,27,10,20.947,726.39600815281,20.013124,0.447388,0.7503937248,0,0,0,343.6, 1.4, -0.5,0,0,1024,1024,1024,1024,0,0,0,0,0,0,0,37,,,,,,,8.389,109.58,725.73984015281,19.356956,6,P-GPS,
8900,2023-10-12 22:11:21,40.0688926235803,-88.2096931997501,19.028872,,,725.41175615281,17.716536,0,0.69699477296,2.32587605868,27,10,20.947,726.39600815281,20.013124,0.447388,0.7503937248,0,0,0,343.6, 1.2, -0.7,0,0,1024,1024,1024,1024,0,0,0,0,0,0,0,37,,,,,,,8.389,109.58,725.41175615281,19.028872,6,P-GPS,
9000,2023-10-12 22:11:21,40.0688926321386,-88.2096932123503,19.028872,,,725.41175615281,17.716536,0,0.70020343448,2.33058078324,27,10,20.947,726.39600815281,20.013124,0.447388,0.7503937248,0,0,0,343.6, 1.2, -0.4,0,0,1024,1024,1024,1024,0,0,0,0,0,0,0,37,,,,,,,8.389,109.58,725.41175615281,19.028872,6,P-GPS,
9100,2023-10-12 22:11:21,40.0688926380511,-88.2096932468184,19.028872,,,725.41175615281,17.716536,0,0.70959319856,2.34044298828,27,10,20.947,726.39600815281,20.013124,0.447388,0.7503937248,0,0,0,343.6, 1.2, -0.2,0,0,1024,1024,1024,1024,0,0,0,0,0,0,0,37,,,,,,,8.389,109.58,725.41175615281,19.028872,6,P-GPS,
9200,2023-10-12 22:11:22,40.068892589388,-88.2096934087647,19.028872,,,725.41175615281,17.716536,0,0.756315641,2.38901910532,27,10,20.947,726.39600815281,20.013124,0.447388,0.756315641,0,0,0,343.5, 1.3, 0,0,0,1024,1024,1024,1024,0,0,0,0,0,0,0,37,,,,,,,8.389,109.58,725.41175615281,19.028872,6,P-GPS,
9300,2023-10-12 22:11:22,40.0688925926787,-88.2096934594015,19.028872,,,725.41175615281,17.716536,0,0.77025264932,2.40320873832,27,10,20.947,726.39600815281,20.013124,0.447388,0.77025264932,0,0,0,343.5, 1.3, 0,0,0,1024,1024,1024,1024,0,0,0,0,0,0,0,37,,,,,,,8.389,109.58,725.41175615281,19.028872,6,P-GPS,
9400,2023-10-12 22:11:22,40.0688925981166,-88.2096934965552,19.028872,,,725.41175615281,17.716536,0,0.78037732156,2.41377304312,27,10,20.947,726.39600815281,20.013124,0.447388,0.78037732156,0,0,0,343.5, 1.2, 0,0,0,1024,1024,1024,1024,0,0,0,0,0,0,0,37,,,,,,,8.389,109.58,725.41175615281,19.028872,6,P-GPS,
9500,2023-10-12 22:11:22,40.0688926071021,-88.209693519232,19.028872,,,725.41175615281,17.716536,0,0.78636485456,2.42090230844,27,10,20.947,726.39600815281,20.013124,0.447388,0.78636485456,0,0,0,343.5, 1.2, 0,0,0,1024,1024,1024,1024,0,0,0,0,0,0,0,37,,,,,,,8.389,109.58,725.41175615281,19.028872,6,P-GPS,
9600,2023-10-12 22:11:22,40.068892585498,-88.2096935982158,19.028872,,,725.41175615281,17.716536,0,0.80907810988,2.44432094436,27,10,20.947,726.39600815281,20.013124,0.447388,0.80907810988,0,0,0,343.5, 1.4, -0.2,0,0,1024,1024,1024,1024,0,0,0,0,0,0,0,37,,,,,,,8.389,109.58,725.41175615281,19.028872,6,P-GPS,
9700,2023-10-12 22:11:22,40.0688926002294,-88.2096936183444,19.028872,,,725.41175615281,17.716536,0,0.81415028852,2.45209653516,27,10,20.923,726.39600815281,20.013124,0.447388,0.81415028852,0,0,0,343.6, 1.5, -0.2,0,0,1024,1024,1024,1024,0,0,0,0,0,0,0,36,,,,,,,9.929,109.76,725.41175615281,19.028872,6,P-GPS,
9800,2023-10-12 22:11:22,40.0688926035524,-88.2096936396106,18.700788,,,725.08367215281,17.716536,0,0.81995081364,2.45815624664,27,10,20.923,726.39600815281,20.013124,0.447388,0.81995081364,0,0,0,343.6, 1.3, 0.2,0,0,1024,1024,1024,1024,0,0,0,0,0,0,0,36,,,,,,,9.929,109.76,725.08367215281,18.700788,6,P-GPS,
9900,2023-10-12 22:11:22,40.0688925383894,-88.2096937626829,18.700788,,,725.08367215281,17.716536,0,0.85658139224,2.49994430572,27,10,20.923,726.39600815281,20.013124,0.447388,0.85658139224,0,0,0,343.6, 1, 0.6,0,0,1024,1024,1024,1024,0,0,0,0,0,0,0,36,,,,,,,9.929,109.76,725.08367215281,18.700788,6,P-GPS,
10000,2023-10-12 22:11:22,40.0688925324939,-88.2096937632882,18.700788,,,725.08367215281,17.388452,0,0.85700133976,2.5020998176,27,10,20.923,726.39600815281,20.013124,0.447388,0.85700133976,0,0,0,343.6, 1, 0.4,0,0,1024,1024,1024,1024,0,0,0,0,0,0,0,37,,,,,,,9.929,109.76,725.08367215281,18.700788,6,P-GPS,
10100,2023-10-12 22:11:22,40.068892530844,-88.2096937517093,18.700788,,,725.08367215281,17.388452,0,0.85386157588,2.50539050012,27,10,20.923,726.39600815281,20.013124,0.447388,0.85700133976,0,0,0,343.6, 1.2, 0,0,0,1024,1024,1024,1024,0,0,0,0,0,0,0,37,,,,,,,9.929,109.76,725.08367215281,18.700788,6,P-GPS,
10200,2023-10-12 22:11:23,40.0688925298667,-88.2096937327575,18.700788,,,725.08367215281,17.716536,0,0.84864832112,2.51069233756,27,10,20.923,726.39600815281,20.013124,0.447388,0.85700133976,0,0,0,343.6, 1.3, -0.2,0,0,1024,1024,1024,1024,0,0,0,0,0,0,0,37,,,,,,,9.929,109.76,725.08367215281,18.700788,6,P-GPS,
10300,2023-10-12 22:11:23,40.0688924545483,-88.2096938252838,18.700788,,,725.08367215281,17.716536,0,0.8779199756,2.5484088742,27,10,20.923,726.39600815281,20.013124,0.447388,0.8779199756,0,0,0,343.6, 1.3, -0.4,0,0,1024,1024,1024,1024,0,0,0,0,0,0,0,37,,,,,,,9.929,109.76,725.08367215281,18.700788,6,P-GPS,
10400,2023-10-12 22:11:23,40.0688924427193,-88.2096938000737,18.700788,,,725.08367215281,17.716536,0,0.87160763944,2.55666674848,27,10,20.923,726.39600815281,20.013124,0.447388,0.8779199756,0,0,0,343.6, 1.1, -0.5,0,0,1024,1024,1024,1024,0,0,0,0,0,0,0,37,,,,,,,9.929,109.76,725.08367215281,18.700788,6,P-GPS,
10500,2023-10-12 22:11:23,40.0688924230706,-88.2096937709784,18.700788,,,725.08367215281,17.716536,0,0.8647145946,2.56750008216,27,10,20.923,726.39600815281,20.013124,0.447388,0.8779199756,0,0,0,343.5, 0.8, -0.5,0,0,1024,1024,1024,1024,0,0,0,0,0,0,0,37,,,,,,,9.929,109.76,725.08367215281,18.700788,6,P-GPS,
10600,2023-10-12 22:11:23,40.0688923329571,-88.2096938373531,18.700788,,,725.08367215281,17.716536,0,0.88883204944,2.60524286552,27,10,20.923,726.39600815281,20.013124,0.447388,0.88883204944,0,0,0,343.5, 0.5, -0.5,0,0,1024,1024,1024,1024,0,0,0,0,0,0,0,37,,,,,,,9.929,109.76,725.08367215281,18.700788,6,P-GPS,
10700,2023-10-12 22:11:23,40.0688923282158,-88.20969382318,18.700788,,,725.08367215281,17.716536,0,0.88529202308,2.60956045096,27,10,20.9175,726.39600815281,20.013124,0.447388,0.88883204944,0,0,0,343.5, 0.3, -0.4,0,0,1024,1024,1024,1024,0,0,0,0,0,0,0,36,,,,,,,9.781,109.58,725.08367215281,18.700788,6,P-GPS,
10800,2023-10-12 22:11:23,40.0688923360025,-88.2096938171567,18.700788,,,725.08367215281,17.716536,0,0.88308401776,2.612860976,27,10,20.9175,726.39600815281,20.013124,0.447388,0.88883204944,0,0,-0.223694,343.4, 0.5, -0.2,0,0,1024,1024,1024,1024,0,0,0,0,0,0,0,36,,,,,,,9.781,109.58,725.08367215281,18.700788,6,P-GPS,
10900,2023-10-12 22:11:23,40.0688923594641,-88.2096938093521,18.700788,,,725.08367215281,17.716536,0,0.8793143326,2.62169627812,27,10,20.9175,726.39600815281,20.013124,0.447388,0.88883204944,0,0,-0.223694,343.3, 0.9, 0.1,0,0,1024,1024,1024,1024,0,0,0,0,0,0,0,36,,,,,,,9.781,109.58,725.08367215281,18.700788,6,P-GPS,
11000,2023-10-12 22:11:23,40.0688923530854,-88.2096938359979,18.700788,,,725.08367215281,17.716536,0,0.887057115,2.62949155396,27,10,20.9175,726.39600815281,20.013124,0.447388,0.88883204944,0,0,-0.223694,343.4, 1.3, 0.2,0,0,1024,1024,1024,1024,0,0,0,0,0,0,0,37,,,,,,,9.781,109.58,725.08367215281,18.700788,6,P-GPS,
11100,2023-10-12 22:11:23,40.0688923892104,-88.2096938015548,18.700788,,,725.08367215281,17.716536,0,0.8752132826,2.64580717128,27,10,20.9175,726.39600815281,20.013124,0.447388,0.88883204944,0,0,0,343.3, 1.4, -0.3,0,0,1024,1024,1024,1024,0,0,0,0,0,0,0,37,,,,,,,9.781,109.58,725.08367215281,18.700788,6,P-GPS,
11200,2023-10-12 22:11:24,40.0688924214269,-88.2096937649316,18.700788,,,725.08367215281,17.388452,0,0.86314963392,2.6613845996,27,10,20.9175,726.39600815281,20.013124,0.447388,0.88883204944,0,0,0,343.3, 1.4, -0.6,0,0,1024,1024,1024,1024,0,0,0,0,0,0,0,37,,,,,,,9.781,109.58,725.08367215281,18.700788,6,P-GPS,
11300,2023-10-12 22:11:24,40.0688923784069,-88.209693814364,18.700788,,,725.08367215281,17.716536,0,0.879429162,2.68228683124,27,10,20.9175,726.39600815281,20.013124,0.447388,0.88883204944,0,0,0,343.3, 1.4, -0.7,0,0,1024,1024,1024,1024,0,0,0,0,0,0,0,37,,,,,,,9.781,109.58,725.08367215281,18.700788,6,P-GPS,
11400,2023-10-12 22:11:24,40.0688924091855,-88.209693791844,18.700788,,,725.08367215281,17.716536,0,0.87129595964,2.69515756656,27,10,20.9175,726.39600815281,20.013124,0.447388,0.88883204944,0,0,0,343.3, 1.5, -0.6,0,0,1024,1024,1024,1024,0,0,0,0,0,0,0,37,,,,,,,9.781,109.58,725.08367215281,18.700788,6,P-GPS,
11500,2023-10-12 22:11:24,40.0688924479844,-88.2096937709511,18.700788,,,725.08367215281,17.716536,0,0.86327758668,2.710465966,27,10,20.9175,726.39600815281,20.013124,0.447388,0.88883204944,0,0,0,343.3, 1.7, -0.5,0,0,1024,1024,1024,1024,0,0,0,0,0,0,0,37,,,,,,,9.781,109.58,725.08367215281,18.700788,6,P-GPS,
11600,2023-10-12 22:11:24,40.0688924838631,-88.2096937509939,18.700788,,,725.08367215281,17.716536,0,0.85586288828,2.72469496908,27,10,20.9175,726.39600815281,20.013124,0.447388,0.88883204944,0,0,0,343.4, 1.7, -0.3,0,0,1024,1024,1024,1024,0,0,0,0,0,0,0,37,,,,,,,9.781,109.58,725.08367215281,18.700788,6,P-GPS,
11700,2023-10-12 22:11:24,40.0688924665222,-88.2096938032721,18.700788,,,725.08367215281,17.716536,0,0.87120409612,2.74060376224,27,10,20.9315,726.39600815281,20.013124,0.447388,0.88883204944,0,0,0,343.4, 1.8, -0.2,0,0,1024,1024,1024,1024,0,0,0,0,0,0,0,36,,,,,,,9.69,109.76,725.08367215281,18.700788,6,P-GPS,
11800,2023-10-12 22:11:24,40.0688925035921,-88.2096937716966,18.700788,,,725.08367215281,17.716536,0,0.8606299488,2.75674877588,27,10,20.9315,726.39600815281,20.013124,0.447388,0.88883204944,0,0,0,343.4, 2, -0.4,0,0,1024,1024,1024,1024,0,0,0,0,0,0,0,36,,,,,,,9.69,109.76,725.08367215281,18.700788,6,P-GPS,
11900,2023-10-12 22:11:24,40.0688925468006,-88.2096937334106,18.700788,,,725.08367215281,17.716536,0,0.8481135442,2.77579405208,27,10,20.9315,726.39600815281,20.013124,0.447388,0.88883204944,0,0,0,343.4, 2, -0.6,0,0,1024,1024,1024,1024,0,0,0,0,0,0,0,36,,,,,,,9.69,109.76,725.08367215281,18.700788,6,P-GPS,
12000,2023-10-12 22:11:24,40.0688925384742,-88.2096937914383,18.700788,,,725.08367215281,17.716536,0,0.86455383344,2.79227699224,27,10,20.9315,726.39600815281,20.013124,0.447388,0.88883204944,0,0,0,343.4, 2.1, -0.8,0,0,1024,1024,1024,1024,0,0,0,0,0,0,0,37,,,,,,,9.69,109.76,725.08367215281,18.700788,6,P-GPS,
12100,2023-10-12 22:11:24,40.0688925663073,-88.2096937692845,18.700788,,,725.08367215281,17.388452,0,0.85730645788,2.80417003724,27,10,20.9315,726.39600815281,20.013124,0.447388,0.88883204944,0,0,0,343.5, 2, -0.9,0,0,1024,1024,1024,1024,0,0,0,0,0,0,0,37,,,,,,,9.69,109.76,725.08367215281,18.700788,6,P-GPS,
12200,2023-10-12 22:11:25,40.0688925851631,-88.2096937574101,18.700788,,,725.08367215281,17.388452,0,0.85332351812,2.81180455192,27,10,20.9315,726.39600815281,20.013124,0.447388,0.88883204944,0,0,0,343.5, 1.9, -0.8,0,0,1024,1024,1024,1024,0,0,0,0,0,0,0,37,,,,,,,9.69,109.76,725.08367215281,18.700788,6,P-GPS,
12300,2023-10-12 22:11:25,40.0688925976268,-88.2096937523099,18.700788,,,725.08367215281,17.388452,0,0.85148624772,2.81657161244,27,10,20.9315,726.39600815281,20.013124,0.447388,0.88883204944,0,0,0,343.5, 1.9, -0.4,0,0,1024,1024,1024,1024,0,0,0,0,0,0,0,37,,,,,,,9.69,109.76,725.08367215281,18.700788,6,P-GPS,
12400,2023-10-12 22:11:25,40.0688925723868,-88.2096938008419,18.372704,,,724.75558815281,17.388452,0,0.8658464844,2.8329561274,27,10,20.9315,726.39600815281,20.013124,0.447388,0.88883204944,0,0,0,343.6, 2.1, 0,0,0,1024,1024,1024,1024,0,0,0,0,0,0,0,37,,,,,,,9.69,109.76,724.75558815281,18.372704,6,P-GPS,
12500,2023-10-12 22:11:25,40.0688925706966,-88.2096937921715,18.372704,,,724.75558815281,17.388452,0,0.8635006838,2.83545284664,27,10,20.9315,726.39600815281,20.013124,0.447388,0.88883204944,0,0,0,343.6, 2.2, 0,0,0,1024,1024,1024,1024,0,0,0,0,0,0,0,37,,,,,,,9.69,109.76,724.75558815281,18.372704,6,P-GPS,
12600,2023-10-12 22:11:25,40.0688925682646,-88.2096937755926,18.372704,,,724.75558815281,17.388452,0,0.85898296712,2.84016741372,27,10,20.9315,726.39600815281,20.013124,0.447388,0.88883204944,0,0,0,343.6, 2, -0.5,0,0,1024,1024,1024,1024,0,0,0,0,0,0,0,37,,,,,,,9.69,109.76,724.75558815281,18.372704,6,P-GPS,
12700,2023-10-12 22:11:25,40.0688925052068,-88.209693859729,18.372704,,,724.75558815281,17.388452,0,0.88493441152,2.8730479922,27,10,20.9085,726.39600815281,20.013124,0.447388,0.88883204944,0,0,0,343.6, 1.9, -0.7,0,0,1024,1024,1024,1024,0,0,0,0,0,0,0,36,,,,,,,9.467,109.58,724.75558815281,18.372704,6,P-GPS,
12800,2023-10-12 22:11:25,40.0688925046628,-88.2096938517163,18.372704,,,724.75558815281,17.388452,0,0.88273952956,2.87529208676,27,10,20.9085,726.39600815281,20.013124,0.447388,0.88883204944,0,0,0,343.5, 1.8, -0.6,0,0,1024,1024,1024,1024,0,0,0,0,0,0,0,36,,,,,,,9.467,109.58,724.75558815281,18.372704,6,P-GPS,
12900,2023-10-12 22:11:25,40.0688925123805,-88.209693849746,18.372704,,,724.75558815281,17.388452,0,0.88184714108,2.87816282176,27,10,20.9085,726.39600815281,20.013124,0.447388,0.88883204944,0,0,-0.223694,343.5, 1.9, -0.4,0,0,1024,1024,1024,1024,0,0,0,0,0,0,0,36,,,,,,,9.467,109.58,724.75558815281,18.372704,6,P-GPS,
13000,2023-10-12 22:11:25,40.0688925261641,-88.2096938411753,18.372704,,,724.75558815281,17.388452,0,0.87886813836,2.88373040724,27,10,20.9085,726.39600815281,20.013124,0.447388,0.88883204944,0,0,-0.223694,343.5, 2.1, -0.1,0,0,1024,1024,1024,1024,0,0,0,0,0,0,0,37,,,,,,,9.467,109.58,724.75558815281,18.372704,6,P-GPS,
13100,2023-10-12 22:11:25,40.0688924862119,-88.2096939494976,18.372704,,,724.75558815281,17.388452,0,0.91067588216,2.9173065238,27,10,20.9085,726.39600815281,20.013124,0.447388,0.91067588216,0,0,0,343.5, 2.2, 0,0,0,1024,1024,1024,1024,0,0,0,0,0,0,0,37,,,,,,,9.467,109.58,724.75558815281,18.372704,6,P-GPS,
13200,2023-10-12 22:11:26,40.0688924979127,-88.2096939498464,18.372704,,,724.75558815281,17.388452,0,0.91023296876,2.92157489664,27,10,20.9085,726.39600815281,20.013124,0.447388,0.91067588216,0,0,0,343.5, 2.2, -0.2,0,0,1024,1024,1024,1024,0,0,0,0,0,0,0,37,,,,,,,9.467,109.58,724.75558815281,18.372704,6,P-GPS,
13300,2023-10-12 22:11:26,40.068892531225,-88.2096939279897,18.372704,,,724.75558815281,17.388452,0,0.90273624936,2.93517397844,27,10,20.9085,726.39600815281,20.013124,0.447388,0.91067588216,0,0,0,343.5, 2.1, -0.3,0,0,1024,1024,1024,1024,0,0,0,0,0,0,0,37,,,,,,,9.467,109.58,724.75558815281,18.372704,6,P-GPS,
13400,2023-10-12 22:11:26,40.0688925390607,-88.2096940007383,18.372704,,,724.75558815281,17.388452,0,0.92261485892,2.95568907096,27,10,20.9085,726.39600815281,20.013124,0.447388,0.92261485892,0,0,0,343.5, 2.1, -0.4,0,0,1024,1024,1024,1024,0,0,0,0,0,0,0,37,,,,,,,9.467,109.58,724.75558815281,18.372704,6,P-GPS,
13500,2023-10-12 22:11:26,40.0688925687922,-88.209693985489,18.372704,,,724.75558815281,17.388452,0,0.91728677476,2.9673393338,27,10,20.9085,726.39600815281,20.013124,0.447388,0.92261485892,0,0,-0.223694,343.4, 2.1, -0.3,0,0,1024,1024,1024,1024,0,0,0,0,0,0,0,37,,,,,,,9.467,109.58,724.75558815281,18.372704,6,P-GPS,
13600,2023-10-12 22:11:26,40.0688925998049,-88.2096939714866,18.372704,,,724.75558815281,17.388452,0,0.91238191896,2.97931111896,27,10,20.9085,726.39600815281,20.013124,0.447388,0.92261485892,0,0,-0.223694,343.4, 2.2, 0,0,0,1024,1024,1024,1024,0,0,0,0,0,0,0,37,,,,,,,9.467,109.58,724.75558815281,18.372704,6,P-GPS,
13700,2023-10-12 22:11:26,40.068892634713,-88.2096939500262,18.372704,,,724.75558815281,17.388452,0,0.905429819,2.99338592256,27,10,20.8985,726.39600815281,20.013124,0.447388,0.92261485892,0,0,-0.223694,343.4, 2.4, -0.1,0,0,1024,1024,1024,1024,0,0,0,0,0,0,0,36,,,,,,,9.435,109.76,724.75558815281,18.372704,6,P-GPS,
13800,2023-10-12 22:11:26,40.0688926409928,-88.2096939778188,18.372704,,,724.75558815281,17.388452,0,0.91301512108,3.00147975484,27,10,20.8985,726.39600815281,20.013124,0.447388,0.92261485892,0,0,0,343.4, 2.4, -0.2,0,0,1024,1024,1024,1024,0,0,0,0,0,0,0,36,,,,,,,9.435,109.76,724.75558815281,18.372704,6,P-GPS,
13900,2023-10-12 22:11:26,40.0688926627985,-88.2096939499251,18.372704,,,724.75558815281,17.388452,0,0.90474412344,3.01261164496,27,10,20.8985,726.39600815281,20.013124,0.447388,0.92261485892,0,0,-0.223694,343.4, 2.2, -0.4,0,0,1024,1024,1024,1024,0,0,0,0,0,0,0,36,,,,,,,9.435,109.76,724.75558815281,18.372704,6,P-GPS,
14000,2023-10-12 22:11:26,40.068892688543,-88.2096939230344,18.372704,,,724.75558815281,17.388452,0,0.89674215468,3.02463592356,27,10,20.8985,726.39600815281,20.013124,0.447388,0.92261485892,0,0,-0.223694,343.5, 2, -0.6,0,0,1024,1024,1024,1024,0,0,0,0,0,0,0,37,,,,,,,9.435,109.76,724.75558815281,18.372704,6,P-GPS,
14100,2023-10-12 22:11:26,40.0688926702957,-88.2096940192674,18.372704,,,724.75558815281,17.388452,0,0.92392063324,3.05231965148,27,10,20.8985,726.39600815281,20.013124,0.447388,0.92392063324,0,0,0,343.5, 2.1, -0.8,0,0,1024,1024,1024,1024,0,0,0,0,0,0,0,37,,,,,,,9.435,109.76,724.75558815281,18.372704,6,P-GPS,
14200,2023-10-12 22:11:27,40.0688926993823,-88.2096940184377,18.372704,,,724.75558815281,17.388452,0,0.92317260172,3.06293316888,27,10,20.8985,726.39600815281,20.013124,0.447388,0.92392063324,0,0,0,343.6, 2.3, -0.8,0,0,1024,1024,1024,364,0,0,0,-100,0,0,0,37,,,,,,,9.435,109.76,724.75558815281,18.372704,6,P-GPS,
14300,2023-10-12 22:11:27,40.0688927183016,-88.2096940354126,18.372704,,,724.75558815281,17.388452,0,0.92763782496,3.07130587256,27,10,20.8985,726.39600815281,20.013124,0.447388,0.92763782496,0,0,0,343.6, 2.6, -0.5,0,0,1024,1024,1024,364,0,0,0,-100,0,0,0,37,,,,,,,9.435,109.76,724.75558815281,18.372704,6,P-GPS,
14400,2023-10-12 22:11:27,40.0688927359482,-88.2096940594585,18.372704,,,724.75558815281,17.388452,0,0.93414373068,3.08060705396,27,10,20.8985,726.39600815281,20.013124,0.447388,0.93414373068,0,0,0,342, 2.9, -0.1,0,0,1024,1024,1024,364,0,0,0,-100,0,0,0,37,,,,,,,9.435,109.76,724.75558815281,18.372704,6,P-GPS,
14500,2023-10-12 22:11:27,40.0688926689556,-88.2096942292377,18.372704,,,724.75558815281,17.388452,0,0.98249018892,3.13394366984,27,10,20.8985,726.39600815281,20.013124,0.447388,0.98249018892,0,0,-0.223694,336.5, 2.8, 1.1,0,0,1024,1024,1024,364,0,0,0,-100,0,0,0,37,,,,,,,9.435,109.76,724.75558815281,18.372704,6,P-GPS,
14600,2023-10-12 22:11:27,40.0688926780161,-88.2096942529086,18.372704,,,724.75558815281,17.388452,0,0.98892391616,3.14133212152,27,10,20.8985,726.39600815281,20.013124,0.447388,0.98892391616,0,0,-0.223694,329.4, 2.8, 1.7,0,0,1024,1024,1024,1024,0,0,0,0,0,0,0,37,,,,,,,9.435,109.76,724.75558815281,18.372704,6,P-GPS,
14700,2023-10-12 22:11:27,40.0688927072298,-88.2096942230074,18.372704,,,724.75558815281,17.388452,0,0.98012798412,3.1548721482,27,10,20.8985,726.39600815281,20.013124,0.447388,0.98892391616,0,0,-0.223694,322.1, 2.8, 0.5,0,0,1024,1024,1024,1024,0,0,0,0,0,0,0,37,,,,,,,9.435,109.76,724.75558815281,18.372704,6,P-GPS,
14800,2023-10-12 22:11:27,40.0688926847535,-88.2096942806456,18.372704,,,724.75558815281,17.388452,0.223694,0.99654530748,3.1729331724,27,10,20.8985,726.39600815281,20.013124,0.447388,0.99654530748,0,0.223694,-0.223694,318.8, 2.9, -2.4,0,0,1024,1024,935,1684,0,0,-13,100,0,0,0,37,,,,,,,9.435,109.76,724.75558815281,18.372704,6,P-GPS,
14900,2023-10-12 22:11:27,40.0688927291075,-88.20969419997,18.372704,,,724.75558815281,17.388452,0.223694,0.97343178968,3.20066939376,27,10,20.8985,726.39600815281,20.013124,0.447388,0.99654530748,0,0.223694,-0.223694,318.1, 2.2, -4.6,0,0,1024,1024,1024,1684,0,0,0,100,0,0,0,37,,,,,,,9.435,109.76,724.75558815281,18.372704,6,P-GPS,
15000,2023-10-12 22:11:27,40.0688927573855,-88.2096941437024,18.372704,,,724.75558815281,17.388452,0,0.95747050308,3.21946532612,27,10,20.8985,726.39600815281,20.013124,0.447388,0.99654530748,0,0,-0.223694,322, 2.5, -5.2,0,0,1024,1024,1024,1684,0,0,0,100,0,0,0,37,,,,,,,9.435,109.76,724.75558815281,18.372704,6,P-GPS,
15100,2023-10-12 22:11:27,40.0688927568856,-88.209694110844,18.372704,,,724.75558815281,17.388452,0,0.94830383612,3.2286418356,27,10,20.8985,726.39600815281,20.013124,0.447388,0.99654530748,0,0,-0.223694,328.5, 3.5, -4.7,0,0,1024,1024,1024,1684,0,0,0,100,0,0,0,37,,,,,,,9.435,109.76,724.75558815281,18.372704,6,P-GPS,
15200,2023-10-12 22:11:28,40.0688926982202,-88.2096941707753,18.372704,,,724.75558815281,17.388452,0,0.96568572644,3.25581047164,27,10,20.8985,726.39600815281,20.013124,0.447388,0.99654530748,0,0,0,335.9, 3.7, -2.9,0,0,1024,1024,1076,1684,0,0,8,100,0,0,0,37,,,,,,,9.435,109.76,724.75558815281,18.372704,6,P-GPS,
15300,2023-10-12 22:11:28,40.06889271985,-88.209694190213,18.372704,,,724.75558815281,17.388452,0,0.97081367936,3.2653872436,27,10,20.8985,726.39600815281,20.013124,0.447388,0.99654530748,0,0,0,343.9, 2.9, -0.8,0,0,1024,1024,1076,1684,0,0,8,100,0,0,0,37,,,,,,,9.435,109.76,724.75558815281,18.372704,6,P-GPS,
15400,2023-10-12 22:11:28,40.0688927380261,-88.2096942205138,18.372704,,,724.75558815281,17.060368,0,0.97907483448,3.27613527544,27,10,20.8985,726.39600815281,20.013124,0.447388,0.99654530748,0,0,0,352, 2, 0.3,0,0,1024,1024,1080,1684,0,0,8,100,0,0,0,37,,,,,,,9.435,109.76,724.75558815281,18.372704,6,P-GPS,
15500,2023-10-12 22:11:28,40.0688928459148,-88.2096943342937,18.372704,,,724.75558815281,17.060368,0,1.01060042604,3.3267061432,27,10,20.8985,726.39600815281,20.013124,0.447388,1.01060042604,0,0,0,0.2, 1.3, 0.7,0,0,1024,1024,1024,1024,0,0,0,0,0,0,0,37,,,,,,,9.435,109.76,724.75558815281,18.372704,6,P-GPS,
15600,2023-10-12 22:11:28,40.0688928832098,-88.2096943844078,18.04462,,,724.42750415281,17.060368,0,1.02486551836,3.3462271412,27,10,20.8985,726.39600815281,20.013124,0.447388,1.02486551836,0,0,0,5.5, 1.1, 1.5,0,0,1024,1024,1024,1024,0,0,0,0,0,0,0,37,,,,,,,9.435,109.76,724.42750415281,18.04462,6,P-GPS,
15700,2023-10-12 22:11:28,40.0688929134377,-88.2096944520833,18.04462,,,724.42750415281,17.060368,0,1.04410108328,3.368110344,27,10,20.8845,726.39600815281,20.013124,0.447388,1.04410108328,0,0,0,7.7, 1.2, 2.8,0,0,1024,1024,1024,1024,0,0,0,0,0,0,0,36,,,,,,,11.739,109.76,724.42750415281,18.04462,6,P-GPS,
15800,2023-10-12 22:11:28,40.0688929361288,-88.2096945050695,18.04462,,,724.42750415281,16.732284,0,1.059219194,3.3850722868,27,10,20.8845,726.39600815281,20.013124,0.447388,1.059219194,0,0,0.223694,8.7, 1.3, 3.1,0,0,1684,1024,1024,1024,100,0,0,0,0,0,0,36,,,,,,,11.739,109.76,724.42750415281,18.04462,6,P-GPS,
15900,2023-10-12 22:11:28,40.0688929158738,-88.2096946642036,18.04462,,,724.42750415281,16.732284,0,1.10332024528,3.43011822,27,10,20.8845,726.39600815281,20.013124,0.447388,1.10332024528,0,0,0,9.4, 1.2, 2.4,0,0,1684,1024,1024,1024,100,0,0,0,0,0,0,36,,,,,,,11.739,109.76,724.42750415281,18.04462,6,P-GPS,
16000,2023-10-12 22:11:28,40.0688929084056,-88.2096947155135,17.716536,,,724.09942015281,16.732284,0,1.11754596752,3.4446851496,27,10,20.8845,726.39600815281,20.013124,0.447388,1.11754596752,0,0,0.223694,9.7, -3, 1.3,0,0,1684,1024,1024,1024,100,0,0,0,0,0,0,37,,,,,,,11.739,109.76,724.09942015281,17.716536,6,P-GPS,
16100,2023-10-12 22:11:28,40.0688929352573,-88.2096947992172,17.716536,,,724.09942015281,16.732284,0,1.14125987904,3.4700460428,27,10,20.8845,726.39600815281,20.013124,0.447388,1.14125987904,0,0,0,9.6, -13.1, 0.7,0,0,1684,1024,1024,1024,100,0,0,0,0,0,0,37,,,,,,,11.739,109.76,724.09942015281,17.716536,6,P-GPS,
16200,2023-10-12 22:11:29,40.0688930245145,-88.2096950251441,17.716536,,,724.09942015281,16.732284,0.671082,1.20598429056,3.541010612,27,10,20.8845,726.39600815281,20.013124,0.671082,1.20598429056,0.671082,0,0,9.6, -20.7, 0.5,0,0,1684,1024,1024,1024,100,0,0,0,0,0,0,37,,,,,,,11.739,109.76,724.09942015281,17.716536,6,P-GPS,
16300,2023-10-12 22:11:29,40.0688936103377,-88.2096949911075,17.716536,,,724.09942015281,16.4042,1.789552,1.22924544616,3.7549869968,27,10,20.8845,726.39600815281,20.013124,1.789552,1.22924544616,1.789552,0,0,9.4, -23.7, 0.7,0,0,1684,1024,1024,1024,100,0,0,0,0,0,0,37,,,,,,,11.739,109.76,724.09942015281,17.716536,6,P-GPS,
16400,2023-10-12 22:11:29,40.06889454588,-88.2096949000366,17.716536,,,724.09942015281,16.4042,2.684328,1.32938980632,4.0972442256,27,10,20.8845,726.39600815281,20.013124,2.684328,1.32938980632,2.684328,0.223694,0,9.2, -24.2, 1.4,0,0,1684,1070,1024,1024,100,7,0,0,0,0,0,37,,,,,,,11.739,109.76,724.09942015281,17.716536,6,P-GPS,
16500,2023-10-12 22:11:29,40.0688959491909,-88.2096947309857,17.716536,,,724.09942015281,16.732284,3.6014734,1.60329401456,4.6114174704,27,10,20.8845,726.39600815281,20.013124,3.6014734,1.60329401456,3.579104,0.447388,0,9.2, -23.9, 2.1,0,0,1684,1070,1024,1024,100,7,0,0,0,0,0,37,,,,,,,11.739,109.76,724.09942015281,17.716536,6,P-GPS,
16600,2023-10-12 22:11:29,40.0688975362791,-88.2096945532701,17.388452,,,723.77133615281,16.732284,4.4962494,2.03081699412,5.192585468,27,10,20.8845,726.39600815281,20.013124,4.4962494,2.03081699412,4.47388,0.447388,0,9.2, -23.5, 2,0,0,1684,1070,1024,1024,100,7,0,0,0,0,0,37,,,,,,,11.739,109.76,723.77133615281,17.388452,6,P-GPS,
16700,2023-10-12 22:11:29,40.0688997012555,-88.2096941714028,17.388452,,,723.77133615281,16.732284,5.4133948,2.69373040116,5.9896327376,27,10,20.8475,726.39600815281,20.013124,5.4133948,2.69373040116,5.368656,0.671082,0,9.3, -23.1, 1.7,0,0,1684,1024,1024,1024,100,0,0,0,0,0,0,36,,,,,,,9.856,109.76,723.77133615281,17.388452,6,P-GPS,
16800,2023-10-12 22:11:29,40.068902101871,-88.2096937129612,17.388452,,,723.77133615281,16.732284,6.5542342,3.4925854136,6.8748033696,27,10,20.8475,726.39600815281,20.013124,6.5542342,3.4925854136,6.487126,0.894776,0,9.5, -22.6, 1.5,0,0,1684,1053,1024,1024,100,4,0,0,0,0,0,36,,,,,,,9.856,109.76,723.77133615281,17.388452,6,P-GPS,
16900,2023-10-12 22:11:29,40.0689048739114,-88.2096932437191,17.388452,,,723.77133615281,16.4042,7.4713796,4.4584319012,7.8946524836,27,10,20.8475,726.39600815281,20.013124,7.4713796,4.4584319012,7.381902,1.11847,0,9.6, -22, 1.5,0,0,1684,1053,1024,1024,100,4,0,0,0,0,0,36,,,,,,,9.856,109.76,723.77133615281,17.388452,6,P-GPS,
17000,2023-10-12 22:11:29,40.0689078860308,-88.2096926057239,17.388452,,,723.77133615281,16.4042,8.1200922,5.526410938,9.0079399208,27,10,20.8475,726.39600815281,20.013124,8.1200922,5.526410938,8.052984,1.11847,0,9.7, -21.7, 1.7,0,0,1684,1061,1024,1024,100,6,0,0,0,0,0,37,,,,,,,9.856,109.76,723.77133615281,17.388452,6,P-GPS,
17100,2023-10-12 22:11:29,40.0689113507971,-88.2096918323438,17.388452,,,723.77133615281,16.4042,9.0372376,6.7724411616,10.2903874684,27,10,20.8475,726.39600815281,20.013124,9.0372376,6.7724411616,8.94776,1.342164,0,9.7, -21.4, 2,0,0,1684,1093,1024,1024,100,10,0,0,0,0,0,37,,,,,,,9.856,109.76,723.77133615281,17.388452,6,P-GPS,
17200,2023-10-12 22:11:30,40.0689149328818,-88.2096910175116,17.388452,,,723.77133615281,16.4042,9.7530584,8.0726380536,11.616962314,27,10,20.8475,726.39600815281,20.013124,9.7530584,8.0726380536,9.618842,1.565858,0,9.8, -21.3, 2.2,0,0,1684,1137,1024,1024,100,17,0,0,0,0,0,37,,,,,,,9.856,109.76,723.77133615281,17.388452,6,P-GPS,
17300,2023-10-12 22:11:30,40.0689189134427,-88.2096900944917,17.388452,,,723.77133615281,16.4042,10.6702038,9.526082982,13.0919623612,27,10,20.8475,726.39600815281,20.013124,10.6702038,9.526082982,10.513618,1.789552,0,9.9, -21.1, 2.3,0,0,1684,1144,1024,1024,100,18,0,0,0,0,0,37,,,,,,,9.856,109.76,723.77133615281,17.388452,6,P-GPS,
17400,2023-10-12 22:11:30,40.0689230664244,-88.209689105208,17.060368,,,723.44325215281,16.732284,11.3189164,11.0488520596,14.6321198908,27,10,20.8475,726.39600815281,20.013124,11.3189164,11.0488520596,11.1847,1.789552,0,9.9, -21.4, 2.6,0,0,1666,1024,1024,1024,97,0,0,0,0,0,0,37,,,,,,,9.856,109.76,723.44325215281,17.060368,6,P-GPS,
17500,2023-10-12 22:11:30,40.0689277306421,-88.2096879509022,17.060368,,,723.44325215281,16.732284,12.0347372,12.7647969964,16.3641081352,27,10,20.8475,726.39600815281,20.013124,12.0347372,12.7647969964,11.855782,2.013246,0,9.7, -21.6, 3,0,0,1666,1024,1024,1024,97,0,0,0,0,0,0,37,,,,,,,9.856,109.76,723.44325215281,17.060368,6,P-GPS,
17600,2023-10-12 22:11:30,40.0689324233571,-88.2096866971159,17.060368,,,723.44325215281,16.732284,12.7281886,14.497047708,18.1116803696,27,10,20.8475,726.39600815281,20.013124,12.7281886,14.497047708,12.526864,2.23694,0,9.7, -21.8, 2.7,0,0,1024,1024,1024,1024,0,0,0,0,0,0,0,37,,,,,,,9.856,109.76,723.44325215281,17.060368,6,P-GPS,
17700,2023-10-12 22:11:30,40.0689376733373,-88.209685280473,17.060368,,,723.44325215281,16.732284,13.42164,16.4392065628,20.0675531356,27,10,20.857,726.39600815281,20.013124,13.42164,16.4392065628,13.197946,2.460634,0,9.8, -18, 2.3,0,0,1024,1024,1024,1024,0,0,0,0,0,0,0,36,,,,,,,10.811,109.76,723.44325215281,17.060368,6,P-GPS,
17800,2023-10-12 22:11:30,40.0689428934367,-88.2096838329002,17.060368,,,723.44325215281,16.4042,13.9137668,18.37434442,22.0145020168,27,10,20.857,726.39600815281,20.013124,13.9137668,18.37434442,13.645334,2.684328,-0.223694,10.3, -4.6, 1.6,0,0,1024,1024,1024,1024,0,0,0,0,0,0,0,36,,,,,,,10.811,109.76,723.44325215281,17.060368,6,P-GPS,
17900,2023-10-12 22:11:30,40.0689483868457,-88.2096822759168,17.060368,,,723.44325215281,16.732284,13.6900728,20.4143051152,24.0653879092,27,10,20.857,726.39600815281,20.013124,13.9137668,20.4143051152,13.42164,2.684328,-0.223694,10.7, 13.3, 1,0,0,1024,1024,1024,1024,0,0,0,0,0,0,0,36,,,,,,,10.811,109.76,723.44325215281,17.060368,6,P-GPS,
18000,2023-10-12 22:11:30,40.0689533104157,-88.2096808215353,17.060368,,,723.44325215281,13.451444,12.9966214,22.246391788,25.9070546348,27,10,20.857,726.39600815281,20.013124,13.9137668,22.246391788,12.750558,2.460634,0,11, 23.1, 1.8,0,0,1024,1024,1024,1024,0,0,0,0,0,0,0,37,,,,,,,10.811,109.76,723.44325215281,17.060368,6,P-GPS,
18100,2023-10-12 22:11:30,40.0689577588181,-88.209679492912,17.060368,,,723.44325215281,13.451444,11.855782,23.9034456468,27.5719168928,27,10,20.857,726.39600815281,20.013124,13.9137668,23.9034456468,11.632088,2.23694,0,11.2, 28.2, 2.9,0,0,1024,1024,1024,1024,0,0,0,0,0,0,0,37,,,,,,,10.811,109.76,723.44325215281,17.060368,6,P-GPS,
18200,2023-10-12 22:11:31,40.0689616510198,-88.2096782500897,17.060368,,,723.44325215281,13.12336,10.5359874,25.3572514676,29.0337607716,27,10,20.857,726.39600815281,20.013124,13.9137668,25.3572514676,10.289924,2.23694,0,11.3, 29.8, 2.3,0,0,1024,1024,1340,1024,0,0,48,0,0,0,0,37,,,,,,,10.811,109.76,723.44325215281,17.060368,6,P-GPS,
18300,2023-10-12 22:11:31,40.0689655687161,-88.2096768717451,17.060368,,,723.44325215281,13.12336,9.171454,26.8265428532,30.5140429712,27,10,20.857,726.39600815281,20.013124,13.9137668,26.8265428532,8.94776,2.013246,0,11, 29.1, -0.8,0,0,1024,1024,1340,1024,0,0,48,0,0,0,0,37,,,,,,,10.811,109.76,723.44325215281,17.060368,6,P-GPS,
18400,2023-10-12 22:11:31,40.0689687836132,-88.2096757978883,17.060368,,,723.44325215281,12.795276,9.171454,28.0307423668,31.7247057396,27,10,20.857,726.39600815281,20.013124,13.9137668,28.0307423668,7.605596,1.565858,0,10.7, 27.4, -2.7,0,0,1024,1024,1340,1024,0,0,48,0,0,0,0,37,,,,,,,10.811,109.76,723.44325215281,17.060368,6,P-GPS,
18500,2023-10-12 22:11:31,40.0689715672857,-88.209674894357,17.060368,,,723.44325215281,12.467192,6.151585,29.0727699592,32.7711952744,27,10,20.857,726.39600815281,20.013124,13.9137668,29.0727699592,6.039738,1.11847,-0.223694,10.4, 25.4, -2.9,0,0,1024,1024,1684,1013,0,0,100,-2,0,0,0,37,,,,,,,10.811,109.76,723.44325215281,17.060368,6,P-GPS,
18600,2023-10-12 22:11:31,40.0689737566224,-88.2096742579215,17.060368,,,723.44325215281,12.795276,6.151585,29.8893054184,33.589568004,27,10,20.857,726.39600815281,20.013124,13.9137668,29.8893054184,4.697574,0.671082,-0.671082,10.3, 18.9, -1.3,0,0,1024,1024,1684,921,0,0,100,-16,0,0,0,37,,,,,,,10.811,109.76,723.44325215281,17.060368,6,P-GPS,
18700,2023-10-12 22:11:31,40.0689760113749,-88.2096735813639,17.060368,,,723.44325215281,12.795276,3.8251674,30.7312673876,34.433400052,27,10,20.6945,726.39600815281,20.013124,13.9137668,30.7312673876,3.802798,0.447388,-1.565858,9.9, 10.9, 0,0,0,1024,1024,1684,711,0,0,100,-47,0,0,0,36,,,,,,,12.785,109.76,723.44325215281,17.060368,6,P-GPS,
