time(millisecond),datetime(utc),latitude,longitude,height_above_takeoff(feet),height_above_ground_at_drone_location(feet),ground_elevation_at_drone_location(feet),altitude_above_seaLevel(feet),height_sonar(feet),speed(mph),distance(feet),mileage(feet),satellites,gpslevel,voltage(v),max_altitude(feet),max_ascent(feet),max_speed(mph),max_distance(feet), xSpeed(mph), ySpeed(mph), zSpeed(mph), compass_heading(degrees), pitch(degrees), roll(degrees),isPhoto,isVideo,rc_elevator,rc_aileron,rc_throttle,rc_rudder,rc_elevator(percent),rc_aileron(percent),rc_throttle(percent),rc_rudder(percent),gimbal_heading(degrees),gimbal_pitch(degrees),gimbal_roll(degrees),battery_percent,voltageCell1,voltageCell2,voltageCell3,voltageCell4,voltageCell5,voltageCell6,current(A),battery_temperature(f),altitude(feet),ascent(feet),flycStateRaw,flycState,message
356600,2023-10-12 21:47:23,40.0688956831914,-88.2096968502633,0,Available with any HD 360 subscription,Available with any HD 360 subscription,706.36941761694,0.656168,0,0,0,26,10,0,706.36941761694,0,0,0,0,0,0,0.7, -2.1, -1.2,0,0,1024,1024,1024,1024,0,0,0,0,0,0,0,43,,,,,,,0,109.94,706.36941761694,0,41,Motors_Started,"GEO: You are in a Warning Zone (Airport). Fly with caution."
356700,2023-10-12 21:47:23,40.0688956863232,-88.2096968489395,0,,,706.36941761694,0.656168,0,0.00120092851612,0.00120092851612,26,10,0,706.36941761694,0,0,0.00120092851612,0,0,0,0.7, -2.1, -1.2,0,0,1024,1024,1024,1024,0,0,0,0,0,0,0,43,,,,,,,0,109.94,706.36941761694,0,41,Motors_Started,
356800,2023-10-12 21:47:23,40.0688956891699,-88.2096968476942,0,,,706.36941761694,0.656168,0,0.002296177895,0.0022962107034,26,10,0,706.36941761694,0,0,0.002296177895,0,0,0,0.7, -2.1, -1.2,0,0,1024,1024,1024,1024,0,0,0,0,0,0,0,43,,,,,,,0,109.94,706.36941761694,0,41,Motors_Started,"Home Point recorded. Return-to-Home Altitude:100.0 m"
356900,2023-10-12 21:47:23,40.0688956971853,-88.209696826881,0,,,706.36941761694,0.656168,0,0.008757874296,0.0088017719352,26,10,0,706.36941761694,0,0,0.008757874296,0,0,0,0.7, -2.1, -1.2,0,0,1024,1024,1024,1024,0,0,0,0,0,0,0,43,,,,,,,0,109.94,706.36941761694,0,41,Motors_Started,
357000,2023-10-12 21:47:24,40.0688956993339,-88.2096968164954,0,,,706.36941761694,0.656168,0,0.0115983271428,0.0118056434224,26,10,21.313,706.36941761694,0,0,0.0115983271428,0,0,0,0.7, -2.1, -1.2,0,0,1024,1024,1024,1024,0,0,0,0,0,0,0,42,,,,,,,0.179,109.94,706.36941761694,0,41,Motors_Started,
357100,2023-10-12 21:47:24,40.0688956903396,-88.209696822336,0,,,706.36941761694,0.656168,0,0.0087120409612,0.0154700464268,26,10,21.313,706.36941761694,0,0,0.0115983271428,0,0,0,0.7, -2.1, -1.2,0,0,1024,1024,1024,1024,0,0,0,0,0,0,0,42,,,,,,,0.179,109.94,706.36941761694,0,41,Motors_Started,
357200,2023-10-12 21:47:24,40.0688956740645,-88.2096968364018,0,,,706.36941761694,0.656168,0,0.0053556760244,0.022589239568,26,10,21.313,706.36941761694,0,0,0.0115983271428,0,0,0,0.7, -2.1, -1.2,0,0,1024,1024,1024,1024,0,0,0,0,0,0,0,42,,,,,,,0.179,109.94,706.36941761694,0,41,Motors_Started,
357300,2023-10-12 21:47:24,40.0688956684306,-88.209696844473,0,,,706.36941761694,0.656168,0,0.0056078413868,0.0256394037076,26,10,21.313,706.36941761694,0,0,0.0115983271428,0,0,0,0.8, -2.1, -1.2,0,0,1024,1024,1024,1024,0,0,0,0,0,0,0,42,,,,,,,0.179,109.94,706.36941761694,0,41,Motors_Started,
357400,2023-10-12 21:47:24,40.0688956642401,-88.2096968530983,0,,,706.36941761694,0.656168,0,0.0067471786936,0.0284919956624,26,10,21.313,706.36941761694,0,0,0.0115983271428,0,0,0,0.7, -2.1, -1.2,0,0,1024,1024,1024,1024,0,0,0,0,0,0,0,42,,,,,,,0.179,109.94,706.36941761694,0,41,Motors_Started,
357500,2023-10-12 21:47:24,40.0688956619975,-88.2096968593895,0,,,706.36941761694,0.656168,0,0.0078408467076,0.030429791,26,10,21.313,706.36941761694,0,0,0.0115983271428,0,0,0,0.6, -2.2, -1.2,0,0,1024,1024,1024,1024,0,0,0,0,0,0,0,42,,,,,,,0.179,109.94,706.36941761694,0,41,Motors_Started,
357600,2023-10-12 21:47:24,40.0688956595712,-88.2096968789797,0,,,706.36941761694,0.656168,0,0.0113325462944,0.035970801676,26,10,21.313,706.36941761694,0,0,0.0115983271428,0,0,0,0.5, -2.3, -1.2,0,0,1024,1024,1024,1024,0,0,0,0,0,0,0,42,,,,,,,0.179,109.94,706.36941761694,0,41,Motors_Started,
357700,2023-10-12 21:47:24,40.0688956590142,-88.2096968884362,0,,,706.36941761694,0.656168,0,0.0133713258872,0.03861876764,26,10,21.313,706.36941761694,0,0,0.0133713258872,0,0,0,0.5, -2.4, -1.3,0,0,1024,1024,1024,1024,0,0,0,0,0,0,0,42,,,,,,,0.179,109.94,706.36941761694,0,41,Motors_Started,
357800,2023-10-12 21:47:24,40.0688956584935,-88.209696891663,0,,,706.36941761694,0.656168,0,0.0141881894304,0.039539699428,26,10,21.313,706.36941761694,0,0,0.0141881894304,0,0,0,0.7, -2.2, -1.2,0,0,1024,1024,1024,1024,0,0,0,0,0,0,0,43,,,,,,,0.179,109.94,706.36941761694,0,41,Motors_Started,
357900,2023-10-12 21:47:24,40.0688956584937,-88.2096968730355,0,,,706.36941761694,0.656168,0,0.0106244754056,0.044740486996,26,10,21.313,706.36941761694,0,0,0.0141881894304,0,0,0,0.7, -2, -1.2,0,0,1024,1024,1024,1024,0,0,0,0,0,0,0,43,,,,,,,0.179,109.94,706.36941761694,0,41,Motors_Started,
358000,2023-10-12 21:47:25,40.0688956612419,-88.2096968712556,0,,,706.36941761694,0.656168,0,0.0095157155276,0.04585958152,26,10,21.313,706.36941761694,0,0,0.0141881894304,0,0,0,0.7, -2.1, -1.2,0,0,1024,1024,1024,1024,0,0,0,0,0,0,0,43,,,,,,,0.179,109.94,706.36941761694,0,41,Motors_Started,
358100,2023-10-12 21:47:25,40.0688956708046,-88.2096968706539,0,,,706.36941761694,0.656168,0,0.0068027889316,0.049352691868,26,10,21.313,706.36941761694,0,0,0.0141881894304,0,0,0,0.8, -2, -1.2,0,0,1024,1024,1024,1024,0,0,0,0,0,0,0,43,,,,,,,0.179,109.94,706.36941761694,0,41,Motors_Started,
358200,2023-10-12 21:47:25,40.0688956768317,-88.2096968677797,0,,,706.36941761694,0.656168,0,0.0049244752232,0.051693571208,26,10,21.313,706.36941761694,0,0,0.0141881894304,0,0,0,0.8, -2, -1.2,0,0,1024,1024,1024,1024,0,0,0,0,0,0,0,43,,,,,,,0.179,109.94,706.36941761694,0,41,Motors_Started,
358300,2023-10-12 21:47:25,40.0688956770397,-88.209696869999,0,,,706.36941761694,0.656168,0,0.0054597114608,0.05231791506,26,10,21.313,706.36941761694,0,0,0.0141881894304,0,0,0,0.8, -2, -1.2,0,0,1024,1024,1024,1024,0,0,0,0,0,0,0,43,,,,,,,0.179,109.94,706.36941761694,0,41,Motors_Started,
358400,2023-10-12 21:47:25,40.068895673771,-88.2096968778995,0,,,706.36941761694,0.656168,0,0.0079574805696,0.054825461072,26,10,21.313,706.36941761694,0,0,0.0141881894304,0,0,0,0.8, -2, -1.2,0,0,1024,1024,1024,1024,0,0,0,0,0,0,0,43,,,,,,,0.179,109.94,706.36941761694,0,41,Motors_Started,
358500,2023-10-12 21:47:25,40.0688956656034,-88.2096968765282,0,,,706.36941761694,0.656168,0,0.009285925494,0.05782972626,26,10,21.313,706.36941761694,0,0,0.0141881894304,0,0,0,0.8, -1.9, -1.1,0,0,1024,1024,1024,1024,0,0,0,0,0,0,0,43,,,,,,,0.179,109.94,706.36941761694,0,41,Motors_Started,
358600,2023-10-12 21:47:25,40.0688956574335,-88.2096968777287,0,,,706.36941761694,0.656168,0,0.0117065948628,0.060829398272,26,10,21.313,706.36941761694,0,0,0.0141881894304,0,0,0,0.8, -2, -1.2,0,0,1024,1024,1024,1024,0,0,0,0,0,0,0,43,,,,,,,0.179,109.94,706.36941761694,0,11,AutoTakeoff,
358700,2023-10-12 21:47:25,40.0688956599553,-88.209696880144,0,,,706.36941761694,0.656168,0,0.0114499347496,0.06197014634,26,10,21.313,706.36941761694,0,0,0.0141881894304,0,0,0,0.8, -1.9, -1.1,0,0,1024,1024,1024,1024,0,0,0,0,0,0,0,43,,,,,,,0.179,109.94,706.36941761694,0,11,AutoTakeoff,
358800,2023-10-12 21:47:25,40.0688956565617,-88.2096968775245,0,,,706.36941761694,0.656168,0,0.0119244754472,0.063408138512,26,10,21.313,706.36941761694,0,0,0.0141881894304,0,0,0,0.7, -1.9, -1.1,0,0,1024,1024,1024,1024,0,0,0,0,0,0,0,43,,,,,,,0.179,109.94,706.36941761694,0,11,AutoTakeoff,
358900,2023-10-12 21:47:25,40.0688956598644,-88.2096968697667,0,,,706.36941761694,0.656168,0,0.0097136486048,0.065886813132,26,10,21.29,706.36941761694,0,0,0.0141881894304,0,0,0,0.7, -1.8, -1.1,0,0,1024,1024,1024,1024,0,0,0,0,0,0,0,42,,,,,,,1.944,109.94,706.36941761694,0,11,AutoTakeoff,
359000,2023-10-12 21:47:26,40.0688956665073,-88.2096968529975,0,,,706.36941761694,0.656168,0,0.0059195868036,0.071159123012,26,10,21.29,706.36941761694,0,0,0.0141881894304,0,0,0,0.7, -1.8, -1,0,0,1024,1024,1024,1024,0,0,0,0,0,0,0,42,,,,,,,1.944,109.94,706.36941761694,0,11,AutoTakeoff,
359100,2023-10-12 21:47:26,40.0688956635419,-88.2096968491746,0,,,706.36941761694,0.656168,0,0.0070350067868,0.0726788081,26,10,21.29,706.36941761694,0,0,0.0141881894304,0,0,0,0.7, -1.8, -1,0,0,1024,1024,1024,1024,0,0,0,0,0,0,0,42,,,,,,,1.944,109.94,706.36941761694,0,11,AutoTakeoff,
359200,2023-10-12 21:47:26,40.068895655621,-88.2096968417667,0,,,706.36941761694,0.656168,0,0.0102808074156,0.076232613988,26,10,21.29,706.36941761694,0,0,0.0141881894304,0,0,0,0.7, -1.7, -0.9,0,0,1024,1024,1024,1024,0,0,0,0,0,0,0,42,,,,,,,1.944,109.94,706.36941761694,0,11,AutoTakeoff,
359300,2023-10-12 21:47:26,40.068895657667,-88.2096968411231,0,,,706.36941761694,0.656168,0,0.0096201118564,0.077000330548,26,10,21.29,706.36941761694,0,0,0.0141881894304,0,0,0,0.6, -1.6, -0.9,0,0,1024,1024,1024,1024,0,0,0,0,0,0,0,42,,,,,,,1.944,109.94,706.36941761694,0,11,AutoTakeoff,
359400,2023-10-12 21:47:26,40.0688956516232,-88.2096968412602,0,,,706.36941761694,0.656168,0,0.0117250003752,0.07920603928,26,10,21.29,706.36941761694,0,0,0.0141881894304,0,0,0,0.5, -1.4, -0.8,0,0,1024,1024,1024,1024,0,0,0,0,0,0,0,42,,,,,,,1.944,109.94,706.36941761694,0,11,AutoTakeoff,
359500,2023-10-12 21:47:26,40.0688956415868,-88.2096968360464,0,,,706.36941761694,0.656168,0,0.015643537246,0.08314632812,26,10,21.29,706.36941761694,0,0,0.015643537246,0,0,0,0.3, -0.8, -0.7,0,0,1024,1024,1024,1024,0,0,0,0,0,0,0,42,,,,,,,1.944,109.94,706.36941761694,0,11,AutoTakeoff,
359600,2023-10-12 21:47:26,40.0688956129763,-88.2096968329679,0,,,706.36941761694,0.656168,0,0.0259859916452,0.09362040982,26,10,21.29,706.36941761694,0,0,0.0259859916452,0,0,0,0.1, 0.5, -0.4,0,0,1024,1024,1024,1024,0,0,0,0,0,0,0,42,,,,,,,1.944,109.94,706.36941761694,0,11,AutoTakeoff,
359700,2023-10-12 21:47:26,40.0688955436114,-88.2096968442799,0,,,706.36941761694,0.656168,0,0.050794949132,0.119124347644,26,10,21.29,706.36941761694,0,0,0.050794949132,0,0,-0.223694,359.8, 3.4, 0.6,0,0,1024,1024,1024,1024,0,0,0,0,0,0,0,42,,,,,,,1.944,109.94,706.36941761694,0,11,AutoTakeoff,
359800,2023-10-12 21:47:26,40.0688954045797,-88.2096968308774,0,,,706.36941761694,0.656168,0.223694,0.101645672544,0.169987866332,26,10,21.29,706.36941761694,0,0.223694,0.101645672544,-0.223694,0,-0.447388,359.5, 4, 1,0,0,1024,1024,1024,1024,0,0,0,0,0,0,0,43,,,,,,,1.944,109.94,706.36941761694,0,11,AutoTakeoff,
359900,2023-10-12 21:47:26,40.0688952024783,-88.209696784012,0,,,706.36941761694,0.656168,0.447388,0.176234913776,0.244876320172,26,10,21.1895,706.36941761694,0,0.447388,0.176234913776,-0.447388,0,-0.894776,359.2, 2.2, 0.9,0,0,1024,1024,1024,1024,0,0,0,0,0,0,0,42,,,,,,,5.114,109.94,706.36941761694,0,11,AutoTakeoff,
360000,2023-10-12 21:47:27,40.0688949526964,-88.209696707697,0.328084,,,706.69750161694,0.984252,0.447388,0.269371399696,0.3384678586,26,10,21.1895,706.69750161694,0.328084,0.447388,0.269371399696,-0.447388,0,-1.11847,359.1, -0.1, 0.1,0,0,1024,1024,1024,1024,0,0,0,0,0,0,0,42,,,,,,,5.114,109.94,706.69750161694,0.328084,11,AutoTakeoff,
360100,2023-10-12 21:47:27,40.0688947253513,-88.2096966198573,0.328084,,,706.69750161694,1.312336,0.447388,0.3552493552,0.42496392436,26,10,21.1895,706.69750161694,0.328084,0.447388,0.3552493552,-0.447388,0,-1.11847,359.2, -2.5, -0.9,0,0,1024,1024,1024,1024,0,0,0,0,0,0,0,42,,,,,,,5.114,109.94,706.69750161694,0.328084,11,AutoTakeoff,
360200,2023-10-12 21:47:27,40.068894526758,-88.2096965426942,0.656168,,,707.02558561694,1.312336,0.223694,0.4304954206,0.50055447796,26,10,21.1895,707.02558561694,0.656168,0.447388,0.4304954206,-0.223694,0,-1.11847,359.4, -4.2, -1.4,0,0,1024,1024,1024,1024,0,0,0,0,0,0,0,42,,,,,,,5.114,109.94,707.02558561694,0.656168,11,AutoTakeoff,
360300,2023-10-12 21:47:27,40.0688943995991,-88.2096964867054,0.656168,,,707.02558561694,1.64042,0.223694,0.4791174694,0.54951117244,26,10,21.1895,707.02558561694,0.656168,0.447388,0.4791174694,-0.223694,0,-1.342164,359.6, -4.3, -2,0,0,1024,1024,1024,1024,0,0,0,0,0,0,0,42,,,,,,,5.114,109.94,707.02558561694,0.656168,11,AutoTakeoff,
360400,2023-10-12 21:47:27,40.0688943439688,-88.209696458697,0.984252,,,707.35366961694,1.64042,0,0.50062665644,0.57126314164,26,10,21.1895,707.35366961694,0.984252,0.447388,0.50062665644,0,0,-1.342164,359.8, -2.8, -2,0,0,1024,1024,1024,1024,0,0,0,0,0,0,0,42,,,,,,,5.114,109.94,707.35366961694,0.984252,11,AutoTakeoff,
360500,2023-10-12 21:47:27,40.0688943325066,-88.2096964871196,1.312336,,,707.68175361694,1.968504,0,0.50304135468,0.5802329582,26,10,21.1895,707.68175361694,1.312336,0.447388,0.50304135468,0,0,-1.342164,359.9, -1.3, -1.3,0,0,1024,1024,1024,1024,0,0,0,0,0,0,0,42,,,,,,,5.114,109.94,707.68175361694,1.312336,11,AutoTakeoff,
360600,2023-10-12 21:47:27,40.0688943325088,-88.2096965447064,1.312336,,,707.68175361694,2.296588,0,0.5000328244,0.59631235504,26,10,21.1895,707.68175361694,1.312336,0.447388,0.50304135468,0,0,-1.342164,359.8, -0.4, 0,0,0,1024,1024,1024,1024,0,0,0,0,0,0,0,42,,,,,,,5.114,109.94,707.68175361694,1.312336,11,AutoTakeoff,
360700,2023-10-12 21:47:27,40.068894328154,-88.209696603922,1.64042,,,708.00983761694,2.296588,0,0.49903544904,0.61292324796,26,10,21.1895,708.00983761694,1.64042,0.447388,0.50304135468,0,0,-1.342164,359.6, -0.3, 1,0,0,1024,1024,1024,1024,0,0,0,0,0,0,0,42,,,,,,,5.114,109.94,708.00983761694,1.64042,11,AutoTakeoff,
360800,2023-10-12 21:47:27,40.0688943235942,-88.209696638356,1.64042,,,708.00983761694,2.624672,0,0.49944555404,0.62268046612,26,10,21.1895,708.00983761694,1.64042,0.447388,0.50304135468,0,0,-1.11847,359.4, -0.8, 0.8,0,0,1024,1024,1024,1024,0,0,0,0,0,0,0,43,,,,,,,5.114,109.94,708.00983761694,1.64042,11,AutoTakeoff,
360900,2023-10-12 21:47:27,40.0688942984063,-88.2096966512324,1.968504,,,708.33792161694,2.624672,0,0.50815946508,0.632545952,26,10,21.1065,708.33792161694,1.968504,0.447388,0.50815946508,0,0,-1.11847,359.3, -1.1, 0,0,0,1024,1024,1024,1024,0,0,0,0,0,0,0,42,,,,,,,10.095,109.94,708.33792161694,1.968504,11,AutoTakeoff,
361000,2023-10-12 21:47:28,40.0688942943805,-88.2096966647468,2.296588,,,708.66600561694,2.952756,0,0.5092191764,0.6365977894,26,10,21.1065,708.66600561694,2.296588,0.447388,0.5092191764,0,0,-1.11847,359.3, -1.1, -0.5,0,0,1024,1024,1024,1024,0,0,0,0,0,0,0,42,,,,,,,10.095,109.94,708.66600561694,2.296588,11,AutoTakeoff,
361100,2023-10-12 21:47:28,40.0688943439825,-88.2096967454668,2.296588,,,708.66600561694,2.952756,0,0.489337286,0.6655019898,26,10,21.1065,708.66600561694,2.296588,0.447388,0.5092191764,0,0,-1.11847,359.3, -0.7, -0.6,0,0,1024,1024,1024,1024,0,0,0,0,0,0,0,42,,,,,,,10.095,109.94,708.66600561694,2.296588,11,AutoTakeoff,
361200,2023-10-12 21:47:28,40.068894414547,-88.20969679995,2.624672,,,708.99408961694,3.28084,0,0.46291668148,0.69540356556,26,10,21.1065,708.99408961694,2.624672,0.447388,0.5092191764,0,0,-1.11847,359.3, -0.2, -0.2,0,0,1024,1024,1024,1024,0,0,0,0,0,0,0,42,,,,,,,10.095,109.94,708.99408961694,2.624672,11,AutoTakeoff,
361300,2023-10-12 21:47:28,40.0688944914789,-88.2096968325985,2.624672,,,708.99408961694,3.28084,0,0.43465224488,0.72491472136,26,10,21.1065,708.99408961694,2.624672,0.447388,0.5092191764,0,0,-0.894776,359.3, 0.4, 0.3,0,0,1024,1024,1024,1024,0,0,0,0,0,0,0,42,,,,,,,10.095,109.94,708.99408961694,2.624672,11,AutoTakeoff,
361400,2023-10-12 21:47:28,40.0688945750436,-88.2096968464124,2.952756,,,709.32217361694,3.608924,0,0.4041338712,0.75564634964,26,10,21.1065,709.32217361694,2.952756,0.447388,0.5092191764,0,0,-0.894776,359.2, 0.9, 0.4,0,0,1024,1024,1024,1024,0,0,0,0,0,0,0,42,,,,,,,10.095,109.94,709.32217361694,2.952756,14,Waypoint,
361500,2023-10-12 21:47:28,40.0688946478647,-88.2096968661118,2.952756,,,709.32217361694,3.608924,0,0.37758531392,0.78277889644,26,10,21.1065,709.32217361694,2.952756,0.447388,0.5092191764,0,0,-0.894776,359.1, 1, 0.1,0,0,1024,1024,1024,1024,0,0,0,0,0,0,0,42,,,,,,,10.095,109.94,709.32217361694,2.952756,14,Waypoint,
361600,2023-10-12 21:47:28,40.0688947218384,-88.2096968772978,3.28084,,,709.65025761694,3.937008,0,0.35064633668,0.80995081332,26,10,21.1065,709.65025761694,3.28084,0.447388,0.5092191764,0,0,-0.671082,358.9, 1, 0.1,0,0,1024,1024,1024,1024,0,0,0,0,0,0,0,42,,,,,,,10.095,109.94,709.65025761694,3.28084,14,Waypoint,
361700,2023-10-12 21:47:28,40.068894776908,-88.2096968726297,3.28084,,,709.65025761694,3.937008,0,0.33053150664,0.83008204756,26,10,21.1065,709.65025761694,3.28084,0.447388,0.5092191764,0,0,-0.447388,358.8, 0.8, 0,0,0,1024,1024,1024,1024,0,0,0,0,0,0,0,42,,,,,,,10.095,109.94,709.65025761694,3.28084,14,Waypoint,
361800,2023-10-12 21:47:28,40.068894826332,-88.2096968662881,3.28084,,,709.65025761694,3.937008,0,0.312475075616,0.84820212688,26,10,21.1065,709.65025761694,3.28084,0.447388,0.5092191764,0,0,-0.447388,358.7, 0.8, -0.1,0,0,1024,1024,1024,1024,0,0,0,0,0,0,0,43,,,,,,,10.095,109.94,709.65025761694,3.28084,14,Waypoint,
361900,2023-10-12 21:47:28,40.0688948813047,-88.2096968705364,3.28084,,,709.65025761694,3.937008,0,0.292438657652,0.86829399104,26,10,21.1065,709.65025761694,3.28084,0.447388,0.5092191764,0,0,-0.447388,358.8, 0.7, -0.5,0,0,1024,1024,1024,1024,0,0,0,0,0,0,0,43,,,,,,,10.095,109.94,709.65025761694,3.28084,14,Waypoint,
362000,2023-10-12 21:47:29,40.0688949377335,-88.2096968795171,3.28084,,,709.65025761694,3.937008,0,0.271913722612,0.88903546152,26,10,21.1065,709.65025761694,3.28084,0.447388,0.5092191764,0,0,-0.447388,358.8, 0.7, -0.9,0,0,1024,1024,1024,1024,0,0,0,0,0,0,0,43,,,,,,,10.095,109.94,709.65025761694,3.28084,14,Waypoint,
362100,2023-10-12 21:47:29,40.0688949595849,-88.2096968362339,3.608924,,,709.97834161694,4.265092,0,0.26386811868,0.90351380844,26,10,21.1065,709.97834161694,3.608924,0.447388,0.5092191764,0,0,-0.671082,358.8, 0.7, -1.2,0,0,1024,1024,1024,1024,0,0,0,0,0,0,0,43,,,,,,,10.095,109.94,709.97834161694,3.608924,14,Waypoint,
362200,2023-10-12 21:47:29,40.0688950040025,-88.2096968311684,3.608924,,,709.97834161694,4.265092,0,0.247693905564,0.91978021316,26,10,21.1065,709.97834161694,3.608924,0.447388,0.5092191764,0,0,-0.894776,358.8, 0.7, -0.9,0,0,1024,1024,1024,1024,0,0,0,0,0,0,0,43,,,,,,,10.095,109.94,709.97834161694,3.608924,14,Waypoint,
362300,2023-10-12 21:47:29,40.0688950482111,-88.2096968565713,3.937008,,,710.30642561694,4.593176,0,0.231500335492,0.93739832396,26,10,21.1065,710.30642561694,3.937008,0.447388,0.5092191764,0,0,-1.342164,358.7, 0.8, -0.5,0,0,1024,1024,1024,1024,0,0,0,0,0,0,0,43,,,,,,,10.095,109.94,710.30642561694,3.937008,14,Waypoint,
362400,2023-10-12 21:47:29,40.0688950886722,-88.2096968933225,4.265092,,,710.63450961694,4.593176,0,0.217042985948,0.95537732716,26,10,21.1065,710.63450961694,4.265092,0.447388,0.5092191764,0,0,-1.789552,358.8, 0.9, -0.3,0,0,1024,1024,1024,1024,0,0,0,0,0,0,0,43,,,,,,,10.095,109.94,710.63450961694,4.265092,14,Waypoint,
362500,2023-10-12 21:47:29,40.0688951082881,-88.2096969245717,4.593176,,,710.96259361694,5.249344,0,0.210557421436,0.96666341676,26,10,21.1065,710.96259361694,4.593176,0.447388,0.5092191764,0,0,-2.460634,358.8, 0.9, 0,0,0,1024,1024,1024,1024,0,0,0,0,0,0,0,43,,,,,,,10.095,109.94,710.96259361694,4.593176,14,Waypoint,
362600,2023-10-12 21:47:29,40.068895128639,-88.2096969764018,4.92126,,,711.29067761694,5.577428,0,0.205119429136,0.98292654064,26,10,21.1065,711.29067761694,4.92126,0.447388,0.5092191764,0,0,-2.908022,358.8, 0.8, 0.3,0,0,1024,1024,1024,1024,0,0,0,0,0,0,0,43,,,,,,,10.095,109.94,711.29067761694,4.92126,14,Waypoint,
362700,2023-10-12 21:47:29,40.06889514995,-88.2096969773561,5.249344,,,711.61876161694,5.905512,0,0.19750820842,0.99070869312,26,10,21.1065,711.61876161694,5.249344,0.447388,0.5092191764,0,0,-3.35541,358.8, 0.6, 0.6,0,0,1024,1024,1024,1024,0,0,0,0,0,0,0,43,,,,,,,10.095,109.94,711.61876161694,5.249344,14,Waypoint,
362800,2023-10-12 21:47:29,40.06889517352,-88.2096969322875,5.905512,,,712.27492961694,6.233596,0,0.187128614912,1.00594819492,26,10,21.1065,712.27492961694,5.905512,0.447388,0.5092191764,0,0,-4.026492,358.7, 0.5, 0.6,0,0,1024,1024,1024,1024,0,0,0,0,0,0,0,43,,,,,,,10.095,109.94,712.27492961694,5.905512,14,Waypoint,
362900,2023-10-12 21:47:30,40.0688951956761,-88.209696918566,6.56168,,,712.93109761694,6.889764,0,0.1786663443,1.0148950456,26,10,20.9905,712.93109761694,6.56168,0.447388,0.5092191764,0,0,-4.47388,358.7, 0.7, 0.5,0,0,1024,1024,1024,1024,0,0,0,0,0,0,0,42,,,,,,,11.933,109.94,712.93109761694,6.56168,14,Waypoint,
363000,2023-10-12 21:47:30,40.0688952197035,-88.20969688976,7.217848,,,713.58726561694,7.545932,0,0.169258207516,1.02679137144,26,10,20.9905,713.58726561694,7.217848,0.447388,0.5092191764,0,0,-4.921268,358.7, 0.8, 0.7,0,0,1024,1024,1024,1024,0,0,0,0,0,0,0,42,,,,,,,11.933,109.94,713.58726561694,7.217848,14,Waypoint,
363100,2023-10-12 21:47:30,40.0688952411945,-88.2096968760608,7.874016,,,714.24343361694,8.530184,0,0.161228023532,1.035515125,26,10,20.9905,714.24343361694,7.874016,0.447388,0.5092191764,0,0,-5.368656,358.8, 1, 0.6,0,0,1024,1024,1024,1024,0,0,0,0,0,0,0,42,,,,,,,11.933,109.94,714.24343361694,7.874016,14,Waypoint,
363200,2023-10-12 21:47:30,40.0688952581352,-88.2096968705784,8.858268,,,715.22768561694,9.186352,0,0.154993771364,1.04188323544,26,10,20.9905,715.22768561694,8.858268,0.447388,0.5092191764,0,0,-5.59235,358.9, 1, 0,0,0,1024,1024,1024,1024,0,0,0,0,0,0,0,42,,,,,,,11.933,109.94,715.22768561694,8.858268,14,Waypoint,
363300,2023-10-12 21:47:30,40.0688952413556,-88.2096968032636,9.514436,,,715.88385361694,9.84252,0,0.161599742704,1.06165029644,26,10,20.9905,715.88385361694,9.514436,0.447388,0.5092191764,0,0,-5.816044,359.1, 0.6, -0.7,0,0,1024,1024,1024,1024,0,0,0,0,0,0,0,42,,,,,,,11.933,109.94,715.88385361694,9.514436,14,Waypoint,
363400,2023-10-12 21:47:30,40.0688952241513,-88.2096967440312,10.498688,,,716.86810561694,10.826772,0,0.169994428012,1.07934058572,26,10,20.9905,716.86810561694,10.498688,0.447388,0.5092191764,0,0,-6.039738,359.2, 0.2, -0.9,0,0,1024,1024,1024,1024,0,0,0,0,0,0,0,42,,,,,,,11.933,109.94,716.86810561694,10.498688,14,Waypoint,
363500,2023-10-12 21:47:30,40.0688951980829,-88.2096967250651,11.48294,,,717.85235761694,11.48294,0,0.180327761676,1.09022641284,26,10,20.9905,717.85235761694,11.48294,0.447388,0.5092191764,0,0,-6.263432,359.2, 0.2, -0.6,0,0,1024,1024,1024,1024,0,0,0,0,0,0,0,42,,,,,,,11.933,109.94,717.85235761694,11.48294,14,Waypoint,
363600,2023-10-12 21:47:30,40.0688951998392,-88.2096967025923,12.467192,,,718.83660961694,12.139108,0,0.181040688208,1.09653218732,26,10,20.9905,718.83660961694,12.467192,0.447388,0.5092191764,0,0,-6.487126,359.2, 0.3, -0.3,0,0,1024,1024,1024,1024,0,0,0,0,0,0,0,42,,,,,,,11.933,109.94,718.83660961694,12.467192,14,Waypoint,
363700,2023-10-12 21:47:30,40.0688952054098,-88.2096966749729,13.451444,,,719.82086161694,13.12336,0,0.181014113404,1.10450790936,26,10,20.9905,719.82086161694,13.451444,0.447388,0.5092191764,0,0,-6.487126,359.3, 0.5, -0.3,0,0,1024,1024,1024,1024,0,0,0,0,0,0,0,42,,,,,,,11.933,109.94,719.82086161694,13.451444,14,Waypoint,
363800,2023-10-12 21:47:30,40.0688952128204,-88.2096966484786,14.435696,,,720.80511361694,13.779528,0,0.180602696068,1.11238192536,26,10,20.9905,720.80511361694,14.435696,0.447388,0.5092191764,0,0,-6.487126,359.4, 0.4, -0.2,0,0,1024,1024,1024,1024,0,0,0,0,0,0,0,43,,,,,,,11.933,109.94,720.80511361694,14.435696,14,Waypoint,
363900,2023-10-12 21:47:30,40.0688951860023,-88.2096965960328,15.419948,,,721.78936561694,14.435696,0,0.194796922244,1.12999347448,26,10,21.01,721.78936561694,15.419948,0.447388,0.5092191764,0,0,-6.487126,359.4, 0.4, -0.2,0,0,1024,1024,1024,1024,0,0,0,0,0,0,0,42,,,,,,,12.935,109.94,721.78936561694,15.419948,14,Waypoint,
364000,2023-10-12 21:47:31,40.0688951879576,-88.209696561123,16.4042,,,722.77361761694,15.419948,0,0.19792815594,1.13976709684,26,10,21.01,722.77361761694,16.4042,0.447388,0.5092191764,0,0,-6.263432,359.4, 0.4, -0.4,0,0,1024,1024,1024,1024,0,0,0,0,0,0,0,42,,,,,,,12.935,109.94,722.77361761694,16.4042,14,Waypoint,
364100,2023-10-12 21:47:31,40.068895204047,-88.2096965290063,17.060368,,,723.42978561694,16.076116,0,0.196538064032,1.15048560112,26,10,21.01,723.42978561694,17.060368,0.447388,0.5092191764,0,0,-6.039738,359.5, 0.3, -0.5,0,0,1024,1024,1024,1024,0,0,0,0,0,0,0,42,,,,,,,12.935,109.94,723.42978561694,17.060368,14,Waypoint,
364200,2023-10-12 21:47:31,40.0688952267111,-88.2096964997021,18.04462,,,724.41403761694,16.732284,0,0.193260504872,1.16211945976,26,10,21.01,724.41403761694,18.04462,0.447388,0.5092191764,0,0,-5.816044,359.5, 0.3, -0.7,0,0,1024,1024,1024,1024,0,0,0,0,0,0,0,42,,,,,,,12.935,109.94,724.41403761694,18.04462,14,Waypoint,
364300,2023-10-12 21:47:31,40.0688952595662,-88.2096964849003,19.028872,,,725.39828961694,17.388452,0,0.185295937688,1.17479990636,26,10,21.01,725.39828961694,19.028872,0.447388,0.5092191764,0,0,-5.59235,359.5, 0.6, -0.5,0,0,1024,1024,1024,1024,0,0,0,0,0,0,0,42,,,,,,,12.935,109.94,725.39828961694,19.028872,14,Waypoint,
364400,2023-10-12 21:47:31,40.0688952961491,-88.2096964793171,19.68504,,,726.05445761694,18.04462,0,0.17525263028,1.18823494616,26,10,21.01,726.05445761694,19.68504,0.447388,0.5092191764,0,0,-5.144962,359.6, 1, 0,0,0,1024,1024,1024,1024,0,0,0,0,0,0,0,42,,,,,,,12.935,109.94,726.05445761694,19.68504,14,Waypoint,
364500,2023-10-12 21:47:31,40.0688953226563,-88.2096964951544,20.341208,,,726.71062561694,18.700788,0,0.164859257244,1.19887142944,26,10,21.01,726.71062561694,20.341208,0.447388,0.5092191764,0,0,-4.697574,359.6, 1.1, 0.2,0,0,1024,1024,1024,1024,0,0,0,0,0,0,0,42,,,,,,,12.935,109.94,726.71062561694,20.341208,14,Waypoint,
364600,2023-10-12 21:47:31,40.0688953452806,-88.2096965033627,20.997376,,,727.36679361694,19.356956,0,0.156928810796,1.20743770268,26,10,21.01,727.36679361694,20.997376,0.447388,0.5092191764,0,0,-4.250186,359.5, 1.1, 0.1,0,0,1024,1024,1024,1024,0,0,0,0,0,0,0,42,,,,,,,12.935,109.94,727.36679361694,20.997376,14,Waypoint,
364700,2023-10-12 21:47:31,40.0688953482429,-88.2096964976312,21.653544,,,728.02296161694,20.013124,0,0.15708497878,1.2093668366,26,10,21.01,728.02296161694,21.653544,0.447388,0.5092191764,0,0,-3.802798,359.4, 1, 0.1,0,0,1024,1024,1024,1024,0,0,0,0,0,0,0,42,,,,,,,12.935,109.94,728.02296161694,21.653544,14,Waypoint,
364800,2023-10-12 21:47:31,40.0688953498375,-88.2096964884545,22.309712,,,728.67912961694,20.341208,0,0.158264112676,1.21199478944,26,10,21.01,728.67912961694,22.309712,0.447388,0.5092191764,0,0,-3.35541,359.4, 0.8, 0.2,0,0,1024,1024,1024,1024,0,0,0,0,0,0,0,43,,,,,,,12.935,109.94,728.67912961694,22.309712,14,Waypoint,
364900,2023-10-12 21:47:31,40.0688953223937,-88.2096964744392,22.637796,,,729.00721361694,20.669292,0,0.168491475208,1.22274610212,26,10,21.097,729.00721361694,22.637796,0.447388,0.5092191764,0,0,-2.908022,359.4, 0.7, 0.3,0,0,1024,1024,1024,1024,0,0,0,0,0,0,0,42,,,,,,,7.461,109.94,729.00721361694,22.637796,14,Waypoint,
365000,2023-10-12 21:47:32,40.0688953180229,-88.2096964539086,23.293964,,,729.66338161694,20.997376,0,0.17335630476,1.22869754588,26,10,21.097,729.66338161694,23.293964,0.447388,0.5092191764,0,0,-2.23694,359.4, 0.6, 0,0,0,1024,1024,1024,1024,0,0,0,0,0,0,0,42,,,,,,,7.461,109.94,729.66338161694,23.293964,14,Waypoint,
365100,2023-10-12 21:47:32,40.0688953306604,-88.2096964014572,23.622048,,,729.99146561694,20.997376,0,0.179766081868,1.24404859624,26,10,21.097,729.99146561694,23.622048,0.447388,0.5092191764,0,0,-1.789552,359.4, 0.6, -0.3,0,0,1024,1024,1024,1024,0,0,0,0,0,0,0,42,,,,,,,7.461,109.94,729.99146561694,23.622048,14,Waypoint,
365200,2023-10-12 21:47:32,40.0688953461548,-88.20969634799,23.622048,,,729.99146561694,20.997376,0,0.186744428548,1.26001316368,26,10,21.097,729.99146561694,23.622048,0.447388,0.5092191764,0,0,-1.11847,359.4, 0.6, -0.7,0,0,1024,1024,1024,1024,0,0,0,0,0,0,0,42,,,,,,,7.461,109.94,729.99146561694,23.622048,14,Waypoint,
365300,2023-10-12 21:47:32,40.0688953766289,-88.2096963018634,23.950132,,,730.31954961694,20.997376,0,0.189885504764,1.27702759992,26,10,21.097,730.31954961694,23.950132,0.447388,0.5092191764,0,0,-0.671082,359.3, 0.7, -0.8,0,0,1024,1024,1024,1024,0,0,0,0,0,0,0,42,,,,,,,7.461,109.94,730.31954961694,23.950132,14,Waypoint,
365400,2023-10-12 21:47:32,40.0688953890517,-88.2096962859842,23.950132,,,730.31954961694,20.997376,0,0.190909126844,1.2833661828,26,10,21.097,730.31954961694,23.950132,0.447388,0.5092191764,0,0,-0.447388,359.2, 0.9, -0.7,0,0,1024,1024,1024,1024,0,0,0,0,0,0,0,42,,,,,,,7.461,109.94,730.31954961694,23.950132,14,Waypoint,
365500,2023-10-12 21:47:32,40.0688954012276,-88.2096962681486,23.950132,,,730.31954961694,20.997376,0,0.192646331624,1.29003941136,26,10,21.097,730.31954961694,23.950132,0.447388,0.5092191764,0,0,0,358.7, 1.1, -0.2,0,0,1024,1024,1024,1024,0,0,0,0,0,0,0,42,,,,,,,7.461,109.94,730.31954961694,23.950132,14,Waypoint,
365600,2023-10-12 21:47:32,40.0688954148026,-88.2096962585159,23.950132,,,730.31954961694,20.997376,0,0.192363523216,1.29567589448,26,10,21.097,730.31954961694,23.950132,0.447388,0.5092191764,0,0,0,354.2, 2.1, 0.8,0,0,1024,1024,1024,1024,0,0,0,0,0,0,0,42,,,,,,,7.461,109.94,730.31954961694,23.950132,14,Waypoint,
365700,2023-10-12 21:47:32,40.0688954112168,-88.2096962583955,23.950132,,,730.31954961694,20.997376,0,0.193060701716,1.29698494964,26,10,21.097,730.31954961694,23.950132,0.447388,0.5092191764,0,0,0.223694,350, 2.5, 1.1,0,0,1024,1024,1024,1024,0,0,0,0,0,0,0,42,,,,,,,7.461,109.94,730.31954961694,23.950132,14,Waypoint,
365800,2023-10-12 21:47:32,40.0688953852522,-88.2096962123278,23.950132,,,730.31954961694,20.997376,0,0.208967198288,1.3129593596,26,10,21.097,730.31954961694,23.950132,0.447388,0.5092191764,0,0,0.223694,346.9, 2.1, 0,0,0,1024,1024,1024,1024,0,0,0,0,0,0,0,43,,,,,,,7.461,109.94,730.31954961694,23.950132,14,Waypoint,
365900,2023-10-12 21:47:32,40.068895341827,-88.2096961453489,23.950132,,,730.31954961694,20.997376,0,0.233208012712,1.33747051524,26,10,21.0945,730.31954961694,23.950132,0.447388,0.5092191764,0,0,0.223694,344.7, 1.5, -1.5,0,0,1024,1024,1024,1024,0,0,0,0,0,0,0,42,,,,,,,7.223,109.94,730.31954961694,23.950132,14,Waypoint,
366000,2023-10-12 21:47:33,40.0688953188194,-88.2096961065658,23.950132,,,730.31954961694,20.997376,0,0.246848433096,1.35117130308,26,10,21.0945,730.31954961694,23.950132,0.447388,0.5092191764,0,0,0.223694,343.4, 0.7, -2,0,0,1024,1024,1024,1024,0,0,0,0,0,0,0,42,,,,,,,7.223,109.94,730.31954961694,23.950132,14,Waypoint,
366100,2023-10-12 21:47:33,40.0688952691577,-88.2096960920663,23.622048,,,729.99146561694,20.997376,0,0.26033629442,1.36973757664,26,10,21.0945,730.31954961694,23.950132,0.447388,0.5092191764,0,0,0.223694,342.7, 0.1, -1.9,0,0,1024,1024,1024,1024,0,0,0,0,0,0,0,42,,,,,,,7.223,109.94,729.99146561694,23.622048,14,Waypoint,
366200,2023-10-12 21:47:33,40.0688952277183,-88.2096960958472,23.622048,,,729.99146561694,20.997376,0,0.268550533528,1.3848917766,26,10,21.0945,730.31954961694,23.950132,0.447388,0.5092191764,0,0,0.223694,342.4, 0, -1.5,0,0,1024,1024,1024,1024,0,0,0,0,0,0,0,42,,,,,,,7.223,109.94,729.99146561694,23.622048,14,Waypoint,
366300,2023-10-12 21:47:33,40.0688952448887,-88.2096960955869,23.622048,,,729.99146561694,20.997376,0,0.26478183262,1.391158181,26,10,21.0945,730.31954961694,23.950132,0.447388,0.5092191764,0,0,0.223694,342, -0.1, -1.1,0,0,1024,1024,1024,1024,0,0,0,0,0,0,0,42,,,,,,,7.223,109.94,729.99146561694,23.622048,14,Waypoint,
366400,2023-10-12 21:47:33,40.0688952517566,-88.2096961011673,23.622048,,,729.99146561694,20.997376,0,0.262029535944,1.39410765616,26,10,21.0945,730.31954961694,23.950132,0.447388,0.5092191764,0,0,0.223694,341.7, -0.5, -0.5,0,0,1024,1024,1024,1024,0,0,0,0,0,0,0,42,,,,,,,7.223,109.94,729.99146561694,23.622048,14,Waypoint,
366500,2023-10-12 21:47:33,40.0688952696723,-88.209696132257,23.622048,,,729.99146561694,20.997376,0,0.251163393864,1.40497379824,26,10,21.0945,730.31954961694,23.950132,0.447388,0.5092191764,0,0,0.223694,341.4, -1.5, -0.2,0,0,1024,1024,1024,1024,0,0,0,0,0,0,0,42,,,,,,,7.223,109.94,729.99146561694,23.622048,14,Waypoint,
366600,2023-10-12 21:47:33,40.0688953276542,-88.2096961738777,23.622048,,,729.99146561694,20.997376,0,0.22938977112,1.42911093812,26,10,21.0945,730.31954961694,23.950132,0.447388,0.5092191764,0,0,0,341.1, -2.4, -0.2,0,0,1024,1024,1024,1024,0,0,0,0,0,0,0,42,,,,,,,7.223,109.94,729.99146561694,23.622048,14,Waypoint,
366700,2023-10-12 21:47:33,40.0688954386902,-88.2096962135787,23.622048,,,729.99146561694,20.997376,0.223694,0.19922572816,1.4711122518,26,10,21.0945,730.31954961694,23.950132,0.447388,0.5092191764,0.223694,0,0,340.7, -2.8, -0.3,0,0,1024,1024,1024,1024,0,0,0,0,0,0,0,42,,,,,,,7.223,109.94,729.99146561694,23.622048,14,Waypoint,
366800,2023-10-12 21:47:33,40.0688956122293,-88.209696277314,23.622048,,,729.99146561694,20.997376,0.223694,0.162478023572,1.53687997044,26,10,21.0945,730.31954961694,23.950132,0.447388,0.5092191764,0.447388,0,0,340.5, -3.5, -0.5,0,0,1024,1024,1024,1024,0,0,0,0,0,0,0,43,,,,,,,7.223,109.94,729.99146561694,23.622048,14,Waypoint,
366900,2023-10-12 21:47:33,40.0688958596973,-88.2096963818166,23.622048,,,729.99146561694,20.997376,0.447388,0.146276907568,1.63176842492,26,10,21.0945,730.31954961694,23.950132,0.447388,0.5092191764,0.447388,0,0,340.3, -4.3, -0.5,0,0,1024,1024,1024,1024,0,0,0,0,0,0,0,43,,,,,,,7.223,109.94,729.99146561694,23.622048,14,Waypoint,
367000,2023-10-12 21:47:33,40.0688962080744,-88.2096965442082,23.293964,,,729.66338161694,20.997376,0.447388,0.210051187824,1.7667159358,26,10,21.0505,730.31954961694,23.950132,0.447388,0.5092191764,0.671082,-0.223694,0,340.2, -5.7, -0.3,0,0,1024,1024,1024,1024,0,0,0,0,0,0,0,42,,,,,,,9.226,109.94,729.66338161694,23.293964,14,Waypoint,
367100,2023-10-12 21:47:34,40.0688966098593,-88.2096967218354,23.293964,,,729.66338161694,20.997376,0.9171454,0.34021326548,1.92146987776,26,10,21.0505,730.31954961694,23.950132,0.9171454,0.5092191764,0.894776,-0.223694,0,340.1, -7.3, 0,0,0,1024,1024,1024,1024,0,0,0,0,0,0,0,42,,,,,,,9.226,109.94,729.66338161694,23.293964,14,Waypoint,
367200,2023-10-12 21:47:34,40.0688971488084,-88.209696948273,23.293964,,,729.66338161694,20.997376,1.3645334,0.5355807258,2.1280184408,26,10,21.0505,730.31954961694,23.950132,1.3645334,0.5355807258,1.342164,-0.223694,0,340.1, -9.1, 0.1,0,0,1024,1024,1024,1024,0,0,0,0,0,0,0,42,,,,,,,9.226,109.94,729.66338161694,23.293964,14,Waypoint,
367300,2023-10-12 21:47:34,40.0688977957632,-88.2096972187773,23.293964,,,729.66338161694,20.997376,1.6329662,0.77771984116,2.37584981356,26,10,21.0505,730.31954961694,23.950132,1.6329662,0.77771984116,1.565858,-0.447388,0,340, -11.1, 0.1,0,0,1024,1024,1024,1024,0,0,0,0,0,0,0,42,,,,,,,9.226,109.94,729.66338161694,23.293964,14,Waypoint,
367400,2023-10-12 21:47:34,40.0688986353278,-88.2096975888027,23.293964,,,729.66338161694,20.997376,2.0579848,1.09673231856,2.69911754044,26,10,21.0505,730.31954961694,23.950132,2.0579848,1.09673231856,2.013246,-0.447388,0,340, -13, 0.2,0,0,1024,1024,1024,1024,0,0,0,0,0,0,0,42,,,,,,,9.226,109.94,729.66338161694,23.293964,14,Waypoint,
367500,2023-10-12 21:47:34,40.0688996441661,-88.2096979822608,23.293964,,,729.66338161694,20.997376,2.7738056,1.47939309196,3.08323828764,26,10,21.0505,730.31954961694,23.950132,2.7738056,1.47939309196,2.684328,-0.671082,0,340, -14.7, 0.3,0,0,1024,1024,1024,1024,0,0,0,0,0,0,0,42,,,,,,,9.226,109.94,729.66338161694,23.293964,14,Waypoint,
367600,2023-10-12 21:47:34,40.0689009274559,-88.2096984759704,23.293964,,,729.66338161694,20.997376,2.7738056,1.966535496,3.5713255736,26,10,21.0505,730.31954961694,23.950132,2.7738056,1.966535496,3.131716,-0.894776,0,340, -15.8, 0.3,0,0,1024,1024,1024,1024,0,0,0,0,0,0,0,42,,,,,,,9.226,109.94,729.66338161694,23.293964,14,Waypoint,
367700,2023-10-12 21:47:34,40.0689023514188,-88.20969905525,23.293964,,,729.66338161694,20.997376,3.9593838,2.50964246876,4.1154528876,26,10,21.0505,730.31954961694,23.950132,3.9593838,2.50964246876,3.802798,-1.11847,0,340, -16.1, 0.3,0,0,1024,1024,1024,1024,0,0,0,0,0,0,0,42,,,,,,,9.226,109.94,729.66338161694,23.293964,14,Waypoint,
367800,2023-10-12 21:47:34,40.0689041135162,-88.2096997368828,23.293964,,,729.66338161694,20.997376,3.9593838,3.17969498364,4.78592535,26,10,21.0505,730.31954961694,23.950132,3.9593838,3.17969498364,4.47388,-1.11847,0,340, -16.2, 0.5,0,0,1024,1024,1024,1024,0,0,0,0,0,0,0,43,,,,,,,9.226,109.94,729.66338161694,23.293964,14,Waypoint,
367900,2023-10-12 21:47:34,40.0689060328617,-88.2097004760969,23.293964,,,729.66338161694,20.997376,5.3239172,3.9094817524,5.5159778668,26,10,21.0505,730.31954961694,23.950132,5.3239172,3.9094817524,5.144962,-1.342164,0,340.1, -16.2, 0.7,0,0,1024,1024,1024,1024,0,0,0,0,0,0,0,43,,,,,,,9.226,109.94,729.66338161694,23.293964,14,Waypoint,
368000,2023-10-12 21:47:35,40.0689082891199,-88.2097013312374,23.293964,,,729.66338161694,20.997376,5.816044,4.7664371604,6.3730973168,26,10,21.028,730.31954961694,23.950132,5.816044,4.7664371604,5.59235,-1.565858,0,340.1, -15.9, 0.9,0,0,1024,1024,1024,1024,0,0,0,0,0,0,0,42,,,,,,,9.706,109.94,729.66338161694,23.293964,14,Waypoint,
368100,2023-10-12 21:47:35,40.0689106582435,-88.2097022041574,23.293964,,,729.66338161694,20.997376,5.816044,5.6645014936,7.27116165,26,10,21.028,730.31954961694,23.950132,5.816044,5.6645014936,6.263432,-1.789552,0,340.1, -15.5, 0.9,0,0,1024,1024,1024,1024,0,0,0,0,0,0,0,42,,,,,,,9.706,109.94,729.66338161694,23.293964,14,Waypoint,
368200,2023-10-12 21:47:35,40.0689133913684,-88.2097031899842,23.293964,,,729.66338161694,20.997376,7.158208,6.6989503456,8.3056433104,26,10,21.028,730.31954961694,23.950132,7.158208,6.6989503456,6.934514,-1.789552,0,340.2, -15, 0.7,0,0,1024,1024,1024,1024,0,0,0,0,0,0,0,42,,,,,,,9.706,109.94,729.66338161694,23.293964,14,Waypoint,
368300,2023-10-12 21:47:35,40.0689161972518,-88.2097041870334,23.293964,,,729.66338161694,20.997376,7.6503348,7.7598755764,9.3665357328,26,10,21.028,730.31954961694,23.950132,7.6503348,7.7598755764,7.381902,-2.013246,0,340.2, -14.5, 0.4,0,0,1024,1024,1024,1024,0,0,0,0,0,0,0,42,,,,,,,9.706,109.94,729.66338161694,23.293964,14,Waypoint,
368400,2023-10-12 21:47:35,40.0689193685116,-88.2097053051109,22.96588,,,729.33529761694,20.997376,8.1424616,8.9582680032,10.564960968,26,10,21.028,730.31954961694,23.950132,8.1424616,8.9582680032,7.82929,-2.23694,0,340.1, -13.9, 0.1,0,0,1024,1024,1024,1024,0,0,0,0,0,0,0,42,,,,,,,9.706,109.94,729.33529761694,22.96588,14,Waypoint,
368500,2023-10-12 21:47:35,40.0689225549623,-88.2097064370667,22.96588,,,729.33529761694,20.997376,8.5674802,10.1630252596,11.7697182244,26,10,21.028,730.31954961694,23.950132,8.5674802,10.1630252596,8.276678,-2.23694,0,340, -13.3, -0.2,0,0,1024,1024,1024,1024,0,0,0,0,0,0,0,42,,,,,,,9.706,109.94,729.33529761694,22.96588,14,Waypoint,
368600,2023-10-12 21:47:35,40.0689260797976,-88.2097077089021,22.96588,,,729.33529761694,20.997376,9.059607,11.4971788456,13.1038718104,26,10,21.028,730.31954961694,23.950132,9.059607,11.4971788456,8.724066,-2.460634,0,339.9, -12.7, -0.7,0,0,1024,1024,1024,1024,0,0,0,0,0,0,0,42,,,,,,,9.706,109.94,729.33529761694,22.96588,14,Waypoint,
368700,2023-10-12 21:47:35,40.0689296192179,-88.2097089983883,22.96588,,,729.33529761694,20.997376,9.5517338,12.837762878,14.4444886512,26,10,21.028,730.31954961694,23.950132,9.5517338,12.837762878,9.171454,-2.684328,0,339.8, -12, -1.1,0,0,1024,1024,1024,1024,0,0,0,0,0,0,0,42,,,,,,,9.706,109.94,729.33529761694,22.96588,14,Waypoint,
368800,2023-10-12 21:47:35,40.0689335047264,-88.2097103966422,22.96588,,,729.33529761694,20.997376,10.0438606,14.3081697492,15.9148955224,26,10,21.028,730.31954961694,23.950132,10.0438606,14.3081697492,9.618842,-2.908022,0,339.8, -10.7, -1.2,0,0,1024,1024,1024,1024,0,0,0,0,0,0,0,43,,,,,,,9.706,109.94,729.33529761694,22.96588,14,Waypoint,
368900,2023-10-12 21:47:35,40.0689373148368,-88.2097118641726,22.96588,,,729.33529761694,20.997376,10.2675546,15.7571855436,17.3641409756,26,10,21.028,730.31954961694,23.950132,10.2675546,15.7571855436,9.842536,-2.908022,0,339.8, -9, -1.1,0,0,1024,1024,1024,1024,0,0,0,0,0,0,0,43,,,,,,,9.706,109.94,729.33529761694,22.96588,14,Waypoint,
369000,2023-10-12 21:47:36,40.0689414167822,-88.209713484932,22.96588,,,729.33529761694,20.997376,10.5359874,17.3202761448,18.927658086,26,10,21.0255,730.31954961694,23.950132,10.5359874,17.3202761448,10.06623,-3.131716,0,340, -7.2, -0.5,0,0,1024,1024,1024,1024,0,0,0,0,0,0,0,42,,,,,,,9.645,109.94,729.33529761694,22.96588,14,Waypoint,
369100,2023-10-12 21:47:36,40.0689455073981,-88.2097151154418,22.96588,,,729.33529761694,20.997376,10.8267896,18.8801843312,20.4879927816,26,10,21.0255,730.31954961694,23.950132,10.8267896,18.8801843312,10.289924,-3.35541,0,340.2, -4.8, 0.1,0,0,1024,1024,1024,1024,0,0,0,0,0,0,0,42,,,,,,,9.645,109.94,729.33529761694,22.96588,14,Waypoint,
369200,2023-10-12 21:47:36,40.068949766552,-88.2097168611364,22.96588,,,729.33529761694,20.997376,11.0281142,20.5080715224,22.1166017576,26,10,21.0255,730.31954961694,23.950132,11.0281142,20.5080715224,10.513618,-3.35541,0,340.5, -2.3, 0.7,0,0,1024,1024,1024,1024,0,0,0,0,0,0,0,42,,,,,,,9.645,109.94,729.33529761694,22.96588,14,Waypoint,
369300,2023-10-12 21:47:36,40.0689538505715,-88.2097185180258,22.96588,,,729.33529761694,20.997376,11.0281142,22.0678484752,23.6768052196,26,10,21.0255,730.31954961694,23.950132,11.0281142,22.0678484752,10.513618,-3.35541,0,340.9, -0.1, 1.2,0,0,1024,1024,1024,1024,0,0,0,0,0,0,0,42,,,,,,,9.645,109.94,729.33529761694,22.96588,14,Waypoint,
369400,2023-10-12 21:47:36,40.0689581194531,-88.2097202312567,22.96588,,,729.33529761694,20.997376,10.7596814,23.6968183436,25.306103172,26,10,21.0255,730.31954961694,23.950132,11.0281142,23.6968183436,10.289924,-3.131716,0,341.1, 1, 1.3,0,0,1024,1024,1024,1024,0,0,0,0,0,0,0,42,,,,,,,9.645,109.94,729.33529761694,22.96588,14,Waypoint,
369500,2023-10-12 21:47:36,40.0689622873968,-88.2097218539528,22.96588,,,729.33529761694,20.013124,10.7596814,25.2834981844,26.8928486296,26,10,21.0255,730.31954961694,23.950132,11.0281142,25.2834981844,10.289924,-3.131716,0,341.2, 1.7, 0.9,0,0,1024,1024,1024,1024,0,0,0,0,0,0,0,42,,,,,,,9.645,109.94,729.33529761694,22.96588,14,Waypoint,
369600,2023-10-12 21:47:36,40.0689664786207,-88.2097234841996,22.96588,,,729.33529761694,20.013124,10.5359874,26.8788722512,28.4883211216,26,10,21.0255,730.31954961694,23.950132,11.0281142,26.8788722512,10.06623,-3.131716,0,341.3, 2.7, 0.5,0,0,1024,1024,1024,1024,0,0,0,0,0,0,0,42,,,,,,,9.645,109.94,729.33529761694,22.96588,14,Waypoint,
369700,2023-10-12 21:47:36,40.0689703965995,-88.2097249685273,22.96588,,,729.33529761694,19.68504,10.3346628,28.3672253172,29.9766413792,26,10,21.0255,730.31954961694,23.950132,11.0281142,28.3672253172,9.842536,-3.131716,0,341.3, 3.9, 0.3,0,0,1024,1024,1024,1024,0,0,0,0,0,0,0,42,,,,,,,9.645,109.94,729.33529761694,22.96588,14,Waypoint,
369800,2023-10-12 21:47:36,40.0689744944458,-88.2097264926735,22.96588,,,729.33529761694,19.68504,10.0438606,29.9216873092,31.5311361796,26,10,21.0255,730.31954961694,23.950132,11.0281142,29.9216873092,9.618842,-2.908022,0,341.3, 5.4, 0.2,0,0,1024,1024,1024,1024,0,0,0,0,0,0,0,43,,,,,,,9.645,109.94,729.33529761694,22.96588,14,Waypoint,
369900,2023-10-12 21:47:36,40.0689780120917,-88.2097278078313,22.96588,,,729.33529761694,19.68504,9.842536,31.2565954884,32.866142784,26,10,21.0255,730.31954961694,23.950132,11.0281142,31.2565954884,9.395148,-2.908022,0,341.2, 6.9, 0,0,0,1024,1024,1024,1024,0,0,0,0,0,0,0,43,,,,,,,9.645,109.94,729.33529761694,22.96588,14,Waypoint,
370000,2023-10-12 21:47:37,40.0689815517284,-88.209729112265,22.96588,,,729.33529761694,19.356956,9.5517338,32.5983934316,34.208006344,26,10,21.0255,730.31954961694,23.950132,11.0281142,32.5983934316,9.171454,-2.684328,0,341.1, 8.1, 0,0,0,1024,1024,1024,1024,0,0,0,0,0,0,0,43,,,,,,,9.645,109.94,729.33529761694,22.96588,14,Waypoint,
370100,2023-10-12 21:47:37,40.068985087176,-88.2097304246914,22.96588,,,729.33529761694,19.356956,9.1267152,33.939305548,35.548885652,26,10,21.0175,730.31954961694,23.950132,11.0281142,33.939305548,8.724066,-2.684328,0,341.1, 9.1, 0,0,0,1024,1024,1024,1024,0,0,0,0,0,0,0,42,,,,,,,9.362,109.94,729.33529761694,22.96588,14,Waypoint,
370200,2023-10-12 21:47:37,40.0689886532926,-88.2097317091598,22.96588,,,729.33529761694,19.356956,8.6345884,35.28871504,36.898295144,26,10,21.0175,730.31954961694,23.950132,11.0281142,35.28871504,8.276678,-2.460634,0,341, 10.8, -0.3,0,0,1024,1024,1024,1024,0,0,0,0,0,0,0,42,,,,,,,9.362,109.94,729.33529761694,22.96588,14,Waypoint,
370300,2023-10-12 21:47:37,40.0689918659193,-88.2097328842085,22.96588,,,729.33529761694,19.356956,8.1424616,36.50590668,38.115486784,26,10,21.0175,730.31954961694,23.950132,11.0281142,36.50590668,7.82929,-2.23694,0,341, 12.7, -0.6,0,0,1024,1024,1024,1024,0,0,0,0,0,0,0,42,,,,,,,9.362,109.94,729.33529761694,22.96588,14,Waypoint,
370400,2023-10-12 21:47:37,40.0689950259804,-88.2097340339691,22.637796,,,729.00721361694,19.356956,7.493749,37.702757112,39.312337216,26,10,21.0175,730.31954961694,23.950132,11.0281142,37.702757112,7.158208,-2.23694,0,341, 14.4, -0.9,0,0,1024,1024,1024,1024,0,0,0,0,0,0,0,42,,,,,,,9.362,109.94,729.00721361694,22.637796,14,Waypoint,
370500,2023-10-12 21:47:37,40.0689979460782,-88.2097351022735,22.637796,,,729.00721361694,19.356956,7.0016222,38.80905636,40.418636464,26,10,21.0175,730.31954961694,23.950132,11.0281142,38.80905636,6.71082,-2.013246,0,341, 15.9, -1.1,0,0,1024,1024,1024,1024,0,0,0,0,0,0,0,42,,,,,,,9.362,109.94,729.00721361694,22.637796,14,Waypoint,
370600,2023-10-12 21:47:37,40.0690005786929,-88.2097360568932,22.637796,,,729.00721361694,19.356956,6.3081708,39.805775552,41.41568374,26,10,21.0175,730.31954961694,23.950132,11.0281142,39.805775552,6.039738,-1.789552,0,341, 17.2, -1.1,0,0,1024,1024,1024,1024,0,0,0,0,0,0,0,42,,,,,,,9.362,109.94,729.00721361694,22.637796,14,Waypoint,
370700,2023-10-12 21:47:37,40.0690027740435,-88.2097368562521,22.637796,,,729.00721361694,19.68504,5.368656,40.637468492,42.247048596,26,10,21.0175,730.31954961694,23.950132,11.0281142,40.637468492,5.144962,-1.565858,0,340.9, 17.7, -1,0,0,1024,1024,1024,1024,0,0,0,0,0,0,0,42,,,,,,,9.362,109.94,729.00721361694,22.637796,14,Waypoint,
370800,2023-10-12 21:47:37,40.0690048059146,-88.2097375915007,22.637796,,,729.00721361694,19.68504,4.6752046,41.406497388,43.016405576,26,10,21.0175,730.31954961694,23.950132,11.0281142,41.406497388,4.47388,-1.342164,0,340.9, 17.5, -1.1,0,0,1024,1024,1024,1024,0,0,0,0,0,0,0,43,,,,,,,9.362,109.94,729.00721361694,22.637796,14,Waypoint,
370900,2023-10-12 21:47:37,40.0690064696382,-88.2097382419628,22.637796,,,729.00721361694,19.68504,3.9593838,42.040027592,43.64993578,26,10,21.0175,730.31954961694,23.950132,11.0281142,42.040027592,3.802798,-1.11847,0,340.8, 16.7, -1.2,0,0,1024,1024,1024,1024,0,0,0,0,0,0,0,43,,,,,,,9.362,109.94,729.00721361694,22.637796,14,Waypoint,
371000,2023-10-12 21:47:38,40.0690079578118,-88.2097387984926,22.637796,,,729.00721361694,19.68504,3.2659324,42.60498824,44.214568344,26,10,21.0175,730.31954961694,23.950132,11.0281142,42.60498824,3.131716,-0.894776,0,340.8, 16.3, -1.2,0,0,1024,1024,1024,1024,0,0,0,0,0,0,0,43,,,,,,,9.362,109.94,729.00721361694,22.637796,14,Waypoint,
371100,2023-10-12 21:47:38,40.0690091096633,-88.2097392175664,22.637796,,,729.00721361694,19.68504,2.8185444,43.041011876,44.650920064,26,10,20.997,730.31954961694,23.950132,11.0281142,43.041011876,2.684328,-0.894776,0,340.8, 16.1, -1.1,0,0,1024,1024,1024,1024,0,0,0,0,0,0,0,42,,,,,,,10.588,109.94,729.00721361694,22.637796,14,Waypoint,
371200,2023-10-12 21:47:38,40.069010038882,-88.2097395591301,22.637796,,,729.00721361694,19.68504,2.125093,43.393374092,45.002954196,26,10,20.997,730.31954961694,23.950132,11.0281142,43.393374092,2.013246,-0.671082,0,340.8, 15.9, -1,0,0,1024,1024,1024,1024,0,0,0,0,0,0,0,42,,,,,,,10.588,109.94,729.00721361694,22.637796,14,Waypoint,
371300,2023-10-12 21:47:38,40.0690107365584,-88.2097398216278,22.637796,,,729.00721361694,19.68504,1.4092722,43.65813788,45.268046068,26,10,20.997,730.31954961694,23.950132,11.0281142,43.65813788,1.342164,-0.447388,0,340.7, 14.6, -1,0,0,1024,1024,1024,1024,0,0,0,0,0,0,0,42,,,,,,,10.588,109.94,729.00721361694,22.637796,14,Waypoint,
371400,2023-10-12 21:47:38,40.0690112787484,-88.2097400269891,22.637796,,,729.00721361694,20.013124,0.9171454,43.864174632,45.473754736,26,10,20.997,730.31954961694,23.950132,11.0281142,43.864174632,0.894776,-0.223694,0,340.6, 12.9, -0.8,0,0,1024,1024,1024,1024,0,0,0,0,0,0,0,42,,,,,,,10.588,109.94,729.00721361694,22.637796,14,Waypoint,
371500,2023-10-12 21:47:38,40.069011593688,-88.2097401703839,22.637796,,,729.00721361694,20.013124,0.4921268,43.985565712,45.5954739,26,10,20.997,730.31954961694,23.950132,11.0281142,43.985565712,0.447388,-0.223694,0,340.6, 11.6, -0.5,0,0,1024,1024,1024,1024,0,0,0,0,0,0,0,42,,,,,,,10.588,109.94,729.00721361694,22.637796,14,Waypoint,
371600,2023-10-12 21:47:38,40.0690116662485,-88.2097402667062,22.637796,,,729.00721361694,20.013124,0,44.018374112,45.63320356,26,10,20.997,730.31954961694,23.950132,11.0281142,44.018374112,0,0,0,340.6, 10.5, -0.6,0,0,1024,1024,1024,1024,0,0,0,0,0,0,0,42,,,,,,,10.588,109.94,729.00721361694,22.637796,14,Waypoint,
371700,2023-10-12 21:47:38,40.0690116969604,-88.2097403059762,22.637796,,,729.00721361694,20.013124,0,44.03215364,45.648951592,26,10,20.997,730.31954961694,23.950132,11.0281142,44.03215364,0,0,0.223694,340.7, 9.5, -0.6,0,0,1024,1024,1024,1024,0,0,0,0,0,0,0,42,,,,,,,10.588,109.94,729.00721361694,22.637796,14,Waypoint,
371800,2023-10-12 21:47:38,40.0690116330439,-88.2097403161631,22.637796,,,729.00721361694,20.013124,0.223694,44.010500096,45.67257364,26,10,20.997,730.31954961694,23.950132,11.0281142,44.03215364,-0.223694,0,0.447388,340.8, 8.4, -0.5,0,0,1024,1024,1024,1024,0,0,0,0,0,0,0,43,,,,,,,10.588,109.94,729.00721361694,22.637796,14,Waypoint,
371900,2023-10-12 21:47:38,40.0690112814987,-88.2097403069725,22.637796,,,729.00721361694,19.68504,0.447388,43.886484344,45.800854484,26,10,20.997,730.31954961694,23.950132,11.0281142,44.03215364,-0.447388,0,0.671082,340.8, 7.3, -0.1,0,0,1024,1024,1024,1024,0,0,0,0,0,0,0,43,,,,,,,10.588,109.94,729.00721361694,22.637796,14,Waypoint,
372000,2023-10-12 21:47:39,40.0690110218918,-88.2097402654805,22.309712,,,728.67912961694,19.68504,0.671082,43.792324236,45.896326928,26,10,20.997,730.31954961694,23.950132,11.0281142,44.03215364,-0.671082,0,0.894776,340.7, 6.4, 0.1,0,0,1024,1024,1024,1024,0,0,0,0,0,0,0,43,,,,,,,10.588,109.94,728.67912961694,22.309712,14,Waypoint,
372100,2023-10-12 21:47:39,40.0690106848073,-88.2097402075662,22.309712,,,728.67912961694,19.356956,0.894776,43.66962082,46.02034268,26,10,21.046,730.31954961694,23.950132,11.0281142,44.03215364,-0.894776,0,1.342164,340.6, 5.7, 0.3,0,0,1024,1024,1024,1024,0,0,0,0,0,0,0,42,,,,,,,7.507,109.94,728.67912961694,22.309712,14,Waypoint,
372200,2023-10-12 21:47:39,40.0690102926727,-88.209740127224,21.981628,,,728.35104561694,19.356956,0.894776,43.526248112,46.165027724,26,10,21.046,730.31954961694,23.950132,11.0281142,44.03215364,-0.894776,0,1.565858,340.5, 5, 0.4,0,0,1024,1024,1024,1024,0,0,0,0,0,0,0,42,,,,,,,7.507,109.94,728.35104561694,21.981628,14,Waypoint,
372300,2023-10-12 21:47:39,40.0690096784023,-88.2097400353851,21.653544,,,728.02296161694,19.028872,1.1408394,43.30380716,46.390749516,26,10,21.046,730.31954961694,23.950132,11.0281142,44.03215364,-1.11847,0.223694,1.789552,340.3, 4.2, 0.5,0,0,1024,1024,1024,1024,0,0,0,0,0,0,0,42,,,,,,,7.507,109.94,728.02296161694,21.653544,14,Waypoint,
372400,2023-10-12 21:47:39,40.069009208396,-88.2097399162207,21.32546,,,727.69487761694,18.700788,1.1408394,43.129594556,46.565290204,26,10,21.046,730.31954961694,23.950132,11.0281142,44.03215364,-1.11847,0.223694,1.789552,340.2, 3.3, 0.6,0,0,1024,1024,1024,1024,0,0,0,0,0,0,0,42,,,,,,,7.507,109.94,727.69487761694,21.32546,14,Waypoint,
372500,2023-10-12 21:47:39,40.0690087061016,-88.2097397662661,21.32546,,,727.69487761694,18.372704,1.1408394,42.941930508,46.753282336,26,10,21.046,730.31954961694,23.950132,11.0281142,44.03215364,-1.11847,0.223694,2.013246,340, 2.8, 0.5,0,0,1024,1024,1024,1024,0,0,0,0,0,0,0,42,,,,,,,7.507,109.94,727.69487761694,21.32546,14,Waypoint,
372600,2023-10-12 21:47:39,40.0690080625414,-88.2097395746403,20.997376,,,727.36679361694,18.372704,1.1408394,42.70177302,46.994095992,26,10,21.046,730.31954961694,23.950132,11.0281142,44.03215364,-1.11847,0.223694,2.013246,339.8, 2.5, 0.4,0,0,1024,1024,1024,1024,0,0,0,0,0,0,0,42,,,,,,,7.507,109.94,727.36679361694,20.997376,14,Waypoint,
372700,2023-10-12 21:47:39,40.0690075620032,-88.209739425861,20.669292,,,727.03870961694,17.716536,1.1408394,42.51476514,47.181431956,26,10,21.046,730.31954961694,23.950132,11.0281142,44.03215364,-1.11847,0.223694,2.013246,339.7, 1.8, 0.3,0,0,1024,1024,1024,1024,0,0,0,0,0,0,0,42,,,,,,,7.507,109.94,727.03870961694,20.669292,14,Waypoint,
372800,2023-10-12 21:47:39,40.0690070488804,-88.2097392709081,20.341208,,,726.71062561694,17.716536,1.1408394,42.322836,47.37368918,26,10,21.046,730.31954961694,23.950132,11.0281142,44.03215364,-1.11847,0.223694,1.789552,339.7, 1.7, 0.5,0,0,1024,1024,1024,1024,0,0,0,0,0,0,0,42,,,,,,,7.507,109.94,726.71062561694,20.341208,14,Waypoint,
372900,2023-10-12 21:47:39,40.0690065805702,-88.209739147932,20.013124,,,726.38254161694,17.388452,1.1408394,42.149279564,47.547901784,26,10,21.046,730.31954961694,23.950132,11.0281142,44.03215364,-1.11847,0.223694,1.789552,339.6, 2.1, 0.5,0,0,1024,1024,1024,1024,0,0,0,0,0,0,0,42,,,,,,,7.507,109.94,726.38254161694,20.013124,14,Waypoint,
373000,2023-10-12 21:47:40,40.0690060054499,-88.2097390295008,19.68504,,,726.05445761694,17.060368,1.1408394,41.938649636,47.760172132,26,10,21.046,730.31954961694,23.950132,11.0281142,44.03215364,-1.11847,0.223694,1.565858,339.6, 2.3, 0.5,0,0,1024,1024,1024,1024,0,0,0,0,0,0,0,42,,,,,,,7.507,109.94,726.05445761694,19.68504,14,Waypoint,
373100,2023-10-12 21:47:40,40.0690055332933,-88.209738831746,19.68504,,,726.05445761694,16.732284,1.1408394,41.757547268,47.9412745,26,10,21.046,730.31954961694,23.950132,11.0281142,44.03215364,-1.11847,0.223694,1.11847,339.7, 2.5, 0.2,0,0,1024,1024,1024,1024,0,0,0,0,0,0,0,42,,,,,,,7.507,109.94,726.05445761694,19.68504,14,Waypoint,
373200,2023-10-12 21:47:40,40.0690050366015,-88.2097386048298,19.356956,,,725.72637361694,16.732284,1.2079476,41.565946212,48.13320364,26,10,21.046,730.31954961694,23.950132,11.0281142,44.03215364,-1.11847,0.447388,0.894776,340, 2.4, 0,0,0,1024,1024,1024,1024,0,0,0,0,0,0,0,42,,,,,,,7.507,109.94,725.72637361694,19.356956,14,Waypoint,
373300,2023-10-12 21:47:40,40.0690044978556,-88.209738356801,19.356956,,,725.72637361694,16.732284,1.2079476,41.357940956,48.34153698,26,10,21.046,730.31954961694,23.950132,11.0281142,44.03215364,-1.11847,0.447388,0.671082,340.3, 2.1, -0.6,0,0,1024,1024,1024,1024,0,0,0,0,0,0,0,42,,,,,,,7.507,109.94,725.72637361694,19.356956,14,Waypoint,
373400,2023-10-12 21:47:40,40.0690039953384,-88.2097381353869,19.028872,,,725.39828961694,16.4042,1.1408394,41.16469948,48.53510654,26,10,21.046,730.31954961694,23.950132,11.0281142,44.03215364,-1.11847,0.223694,0.223694,340.6, 1.6, -0.9,0,0,1024,1024,1024,1024,0,0,0,0,0,0,0,42,,,,,,,7.507,109.94,725.39828961694,19.028872,14,Waypoint,
373500,2023-10-12 21:47:40,40.0690035100575,-88.2097379584985,19.028872,,,725.39828961694,16.4042,1.1408394,40.980644356,48.71883358,26,10,21.046,730.31954961694,23.950132,11.0281142,44.03215364,-1.11847,0.223694,0,337.8, 1.6, 0,0,0,1024,1024,1024,1024,0,0,0,0,0,0,0,42,,,,,,,7.507,109.94,725.39828961694,19.028872,14,Waypoint,
373600,2023-10-12 21:47:40,40.0690029892846,-88.20973780668,19.028872,,,725.39828961694,16.4042,1.1408394,40.786418628,48.913387392,26,10,21.046,730.31954961694,23.950132,11.0281142,44.03215364,-1.11847,0.223694,0,331.2, 1.5, 1.5,0,0,1024,1024,1024,1024,0,0,0,0,0,0,0,42,,,,,,,7.507,109.94,725.39828961694,19.028872,14,Waypoint,
373700,2023-10-12 21:47:40,40.0690024963622,-88.2097376329204,19.028872,,,725.39828961694,16.732284,1.1408394,40.600395,49.099739104,26,10,21.046,730.31954961694,23.950132,11.0281142,44.03215364,-1.11847,0.223694,0,323.7, 1.4, 2.1,0,0,1024,1024,1024,1024,0,0,0,0,0,0,0,42,,,,,,,7.507,109.94,725.39828961694,19.028872,14,Waypoint,
373800,2023-10-12 21:47:40,40.0690020236488,-88.2097374146128,19.028872,,,725.39828961694,16.732284,1.2079476,40.417652212,49.282809976,26,10,21.046,730.31954961694,23.950132,11.0281142,44.03215364,-1.11847,0.447388,0,315.8, 1.2, 1.7,0,0,1024,1024,1024,1024,0,0,0,0,0,0,0,42,,,,,,,7.507,109.94,725.39828961694,19.028872,14,Waypoint,
373900,2023-10-12 21:47:41,40.0690015942317,-88.2097371751029,19.028872,,,725.39828961694,17.060368,1.006623,40.248360868,49.453085572,26,10,21.046,730.31954961694,23.950132,11.0281142,44.03215364,-0.894776,0.447388,0,307.6, 0.8, 0.9,0,0,1024,1024,1024,1024,0,0,0,0,0,0,0,42,,,,,,,7.507,109.94,725.39828961694,19.028872,14,Waypoint,
374000,2023-10-12 21:47:41,40.0690011523072,-88.2097369159133,19.028872,,,725.39828961694,17.388452,1.006623,40.073492096,49.629922848,26,10,21.046,730.31954961694,23.950132,11.0281142,44.03215364,-0.894776,0.447388,-0.223694,299.3, 0.2, 0.3,0,0,1024,1024,1024,1024,0,0,0,0,0,0,0,42,,,,,,,7.507,109.94,725.39828961694,19.028872,14,Waypoint,
374100,2023-10-12 21:47:41,40.069000769596,-88.2097366579774,19.356956,,,725.72637361694,17.388452,0.8052984,39.919292616,49.786747,26,10,21.046,730.31954961694,23.950132,11.0281142,44.03215364,-0.671082,0.447388,0,290.9, -0.2, 0,0,0,1024,1024,1024,1024,0,0,0,0,0,0,0,42,,,,,,,7.507,109.94,725.72637361694,19.356956,14,Waypoint,
374200,2023-10-12 21:47:41,40.0690004114458,-88.2097363907166,19.356956,,,725.72637361694,17.716536,0.8052984,39.772967152,49.937337556,26,10,20.965,730.31954961694,23.950132,11.0281142,44.03215364,-0.671082,0.447388,0,282.4, -0.5, -0.1,0,0,1024,1024,1024,1024,0,0,0,0,0,0,0,41,,,,,,,10.17,109.94,725.72637361694,19.356956,14,Waypoint,
374300,2023-10-12 21:47:41,40.0690001532181,-88.2097361248551,19.356956,,,725.72637361694,17.716536,0.6263432,39.66207476,50.0574163,26,10,20.965,730.31954961694,23.950132,11.0281142,44.03215364,-0.447388,0.447388,0,273.8, -0.6, -0.4,0,0,1024,1024,1024,1024,0,0,0,0,0,0,0,41,,,,,,,10.17,109.94,725.72637361694,19.356956,14,Waypoint,
374400,2023-10-12 21:47:41,40.0689998914952,-88.2097358548516,19.356956,,,725.72637361694,17.716536,0.6263432,39.549213864,50.17880738,26,10,20.965,730.31954961694,23.950132,11.0281142,44.03215364,-0.447388,0.447388,0,265.2, -0.6, -0.5,0,0,1024,1024,1024,1024,0,0,0,0,0,0,0,41,,,,,,,10.17,109.94,725.72637361694,19.356956,14,Waypoint,
374500,2023-10-12 21:47:41,40.0689997293351,-88.2097356177653,19.356956,,,725.72637361694,17.716536,0.3131716,39.474410712,50.267718144,26,10,20.965,730.31954961694,23.950132,11.0281142,44.03215364,-0.223694,0.223694,0,256.7, -0.5, -0.6,0,0,1024,1024,1024,1024,0,0,0,0,0,0,0,41,,,,,,,10.17,109.94,725.72637361694,19.356956,14,Waypoint,
374600,2023-10-12 21:47:41,40.0689995966532,-88.2097353932167,19.356956,,,725.72637361694,17.716536,0.3131716,39.410434332,50.347114472,26,10,20.965,730.31954961694,23.950132,11.0281142,44.03215364,-0.223694,0.223694,0,248.2, -0.3, -1,0,0,1024,1024,1024,1024,0,0,0,0,0,0,0,41,,,,,,,10.17,109.94,725.72637361694,19.356956,14,Waypoint,
374700,2023-10-12 21:47:41,40.0689995537167,-88.2097350934194,19.356956,,,725.72637361694,17.716536,0.223694,39.372704672,50.432088228,26,10,20.965,730.31954961694,23.950132,11.0281142,44.03215364,0,0.223694,0,239.5, -0.2, -1.5,0,0,1024,1024,1024,1024,0,0,0,0,0,0,0,41,,,,,,,10.17,109.94,725.72637361694,19.356956,14,Waypoint,
374800,2023-10-12 21:47:41,40.0689994942976,-88.2097348621318,19.356956,,,725.72637361694,18.04462,0.223694,39.334318844,50.5003297,26,10,20.965,730.31954961694,23.950132,11.0281142,44.03215364,0,0.223694,0,230.8, -0.4, -1.7,0,0,1024,1024,1024,1024,0,0,0,0,0,0,0,42,,,,,,,10.17,109.94,725.72637361694,19.356956,14,Waypoint,
374900,2023-10-12 21:47:42,40.0689994649993,-88.2097346411934,19.356956,,,725.72637361694,18.04462,0.223694,39.307415956,50.562993744,26,10,20.965,730.31954961694,23.950132,11.0281142,44.03215364,0,0.223694,0,222, -1, -1.8,0,0,1024,1024,1024,1024,0,0,0,0,0,0,0,42,,,,,,,10.17,109.94,725.72637361694,19.356956,14,Waypoint,
