time(millisecond),datetime(utc),latitude,longitude,height_above_takeoff(feet),height_above_ground_at_drone_location(feet),ground_elevation_at_drone_location(feet),altitude_above_seaLevel(feet),height_sonar(feet),speed(mph),distance(feet),mileage(feet),satellites,gpslevel,voltage(v),max_altitude(feet),max_ascent(feet),max_speed(mph),max_distance(feet), xSpeed(mph), ySpeed(mph), zSpeed(mph), compass_heading(degrees), pitch(degrees), roll(degrees),isPhoto,isVideo,rc_elevator,rc_aileron,rc_throttle,rc_rudder,rc_elevator(percent),rc_aileron(percent),rc_throttle(percent),rc_rudder(percent),gimbal_heading(degrees),gimbal_pitch(degrees),gimbal_roll(degrees),battery_percent,voltageCell1,voltageCell2,voltageCell3,voltageCell4,voltageCell5,voltageCell6,current(A),battery_temperature(f),altitude(feet),ascent(feet),flycStateRaw,flycState,message
0,2023-10-12 21:40:09,40.0688974212686,-88.2096621064247,0,Available with any HD 360 subscription,Available with any HD 360 subscription,706.43314596544,0.656168,0,0,0,25,10,0,706.43314596544,0,0,0,0,0,0,356.5, 0.8, 0,0,0,364,364,364,1684,-100,-100,-100,100,0,0,0,58,,,,,,,0,110.48,706.43314596544,0,41,Motors_Started,"Your aircraft is flying in an Altitude Zone (500m). Please fly with caution."
100,2023-10-12 21:40:10,40.0688974129306,-88.2096620893874,0,,,706.43314596544,0.656168,0,0.0056465224904,0.0056465224904,25,10,0,706.43314596544,0,0,0.0056465224904,0,0,0,356.5, 0.8, 0,0,0,364,364,364,1684,-100,-100,-100,100,0,0,0,58,,,,,,,0,110.48,706.43314596544,0,41,Motors_Started,
200,2023-10-12 21:40:10,40.068897406099,-88.2096620772673,0,,,706.43314596544,0.656168,0,0.00984416042,0.009849409764,25,10,0,706.43314596544,0,0,0.00984416042,0,0,0,356.5, 0.8, 0,0,0,1024,1024,527,1248,0,0,-75,34,0,0,0,58,,,,,,,0,110.48,706.43314596544,0,41,Motors_Started,
300,2023-10-12 21:40:10,40.0688974150382,-88.2096621013547,0,,,706.43314596544,0.656168,0,0.002677903629,0.0173238850688,25,10,0,706.43314596544,0,0,0.00984416042,0,0,0,356.5, 0.8, 0,0,0,1024,1024,1024,1024,0,0,0,0,0,0,0,58,,,,,,,0,110.48,706.43314596544,0,41,Motors_Started,
400,2023-10-12 21:40:10,40.0688974134716,-88.2096620823714,0,,,706.43314596544,0.656168,0,0.0072935369788,0.0226548891764,25,10,0,706.43314596544,0,0,0.00984416042,0,0,0,356.5, 0.8, 0,0,0,1024,1024,1024,1024,0,0,0,0,0,0,0,58,,,,,,,0,110.48,706.43314596544,0,41,Motors_Started,
500,2023-10-12 21:40:10,40.0688974089796,-88.2096620559499,0,,,706.43314596544,0.656168,0,0.014789042468,0.0302118776072,25,10,0,706.43314596544,0,0,0.014789042468,0,0,0,356.5, 0.8, 0,0,0,1024,1024,1024,1024,0,0,0,0,0,0,0,58,,,,,,,0,110.48,706.43314596544,0,41,Motors_Started,
600,2023-10-12 21:40:10,40.0688974044791,-88.2096620344993,0,,,706.43314596544,0.656168,0,0.0209956699632,0.036421917176,25,10,0,706.43314596544,0,0,0.0209956699632,0,0,0,356.5, 0.8, 0,0,0,1024,1024,1024,1024,0,0,0,0,0,0,0,58,,,,,,,0,110.48,706.43314596544,0,41,Motors_Started,
700,2023-10-12 21:40:10,40.0688974389021,-88.2096620715259,0,,,706.43314596544,0.656168,0,0.0116763783264,0.052688978064,25,10,0,706.43314596544,0,0,0.0209956699632,0,0,0,356.5, 0.8, 0,0,0,1024,1024,1024,1024,0,0,0,0,0,0,0,58,,,,,,,0,110.48,706.43314596544,0,41,Motors_Started,
800,2023-10-12 21:40:10,40.0688974390741,-88.2096620559641,0,,,706.43314596544,0.656168,0,0.015514600234,0.057034450644,25,10,0,706.43314596544,0,0,0.0209956699632,0,0,0,356.5, 0.8, 0,0,0,1024,1024,1024,1024,0,0,0,0,0,0,0,58,,,,,,,0,110.48,706.43314596544,0,41,Motors_Started,
900,2023-10-12 21:40:10,40.0688974327385,-88.2096620327964,0,,,706.43314596544,0.656168,0,0.0209792657632,0.063903545352,25,10,0,706.43314596544,0,0,0.0209956699632,0,0,0,356.5, 0.8, 0,0,0,1024,1024,1024,1024,0,0,0,0,0,0,0,58,,,,,,,0,110.48,706.43314596544,0,41,Motors_Started,"Setting new Return-To-Home altitude to 100m (328 ft). Data Recorder File Index is 46. Setting new Maximum Flight Altitude to 120m (394 ft)"
1000,2023-10-12 21:40:10,40.0688974636748,-88.2096620905999,0,,,706.43314596544,0.656168,0,0.0160904204624,0.083598099788,25,10,22.163,706.43314596544,0,0,0.0209956699632,0,0,0,356.3, 0.8, 0,0,0,1024,1024,1024,1024,0,0,0,0,0,0,0,58,,,,,,,0.284,110.48,706.43314596544,0,41,Motors_Started,
1100,2023-10-12 21:40:11,40.0688974565274,-88.2096620678526,0,,,706.43314596544,0.656168,0,0.0167771330828,0.090463913656,25,10,22.163,706.43314596544,0,0,0.0209956699632,0,0,0,356.2, 0.7, 0,0,0,1024,1024,1024,1024,0,0,0,0,0,0,0,58,,,,,,,0.284,110.48,706.43314596544,0,41,Motors_Started,
1200,2023-10-12 21:40:11,40.0688974581254,-88.2096620649519,0,,,706.43314596544,0.656168,0,0.0177457682844,0.091461945184,25,10,22.163,706.43314596544,0,0,0.0209956699632,0,0,0,356.3, 0.8, 0,0,0,1024,1024,1024,1024,0,0,0,0,0,0,0,58,,,,,,,0.284,110.48,706.43314596544,0,41,Motors_Started,
1300,2023-10-12 21:40:11,40.0688974683572,-88.2096620592699,0,,,706.43314596544,0.656168,0,0.0216449481992,0.095518047676,25,10,22.163,706.43314596544,0,0,0.0216449481992,0,0,0,356.4, 0.9, 0,0,0,1024,1024,1024,1024,0,0,0,0,0,0,0,58,,,,,,,0.284,110.48,706.43314596544,0,41,Motors_Started,
1400,2023-10-12 21:40:11,40.0688975109269,-88.2096621385699,0,,,706.43314596544,0.656168,0,0.03392060476,0.122563652216,25,10,22.163,706.43314596544,0,0,0.03392060476,0,0,0,356.3, 0.8, 0,0,0,1024,1024,1024,1024,0,0,0,0,0,0,0,58,,,,,,,0.284,110.48,706.43314596544,0,41,Motors_Started,
1500,2023-10-12 21:40:11,40.0688975088149,-88.2096621211238,0,,,706.43314596544,0.656168,0,0.0322037739964,0.12749508282,25,10,22.163,706.43314596544,0,0,0.03392060476,0,0,0,356.4, 0.8, 0,0,0,1024,1024,1024,1024,0,0,0,0,0,0,0,58,,,,,,,0.284,110.48,706.43314596544,0,41,Motors_Started,
1600,2023-10-12 21:40:11,40.0688975122652,-88.2096621044831,0,,,706.43314596544,0.656168,0,0.033204397388,0.132309059352,25,10,22.163,706.43314596544,0,0,0.03392060476,0,0,0,356.3, 0.8, 0,0,0,1024,1024,1024,1024,0,0,0,0,0,0,0,58,,,,,,,0.284,110.48,706.43314596544,0,41,Motors_Started,
1700,2023-10-12 21:40:11,40.0688975397307,-88.2096621137203,0,,,706.43314596544,0.656168,0,0.043268702172,0.142656172544,25,10,22.163,706.43314596544,0,0,0.043268702172,0,0,0,356.3, 0.8, 0,0,0,1024,1024,1024,1024,0,0,0,0,0,0,0,58,,,,,,,0.284,110.48,706.43314596544,0,41,Motors_Started,
1800,2023-10-12 21:40:11,40.0688975362596,-88.2096621060112,0,,,706.43314596544,0.656168,0,0.041954397668,0.145153547952,25,10,22.163,706.43314596544,0,0,0.043268702172,0,0,0,356.4, 0.8, 0,0,0,1024,1024,1024,1024,0,0,0,0,0,0,0,58,,,,,,,0.284,110.48,706.43314596544,0,41,Motors_Started,
1900,2023-10-12 21:40:11,40.0688975278829,-88.20966209023,0,,,706.43314596544,0.656168,0,0.03916010624,0.150516080932,25,10,22.163,706.43314596544,0,0,0.043268702172,0,0,0,356.4, 0.8, 0,0,0,1024,1024,1024,1024,0,0,0,0,0,0,0,58,,,,,,,0.284,110.48,706.43314596544,0,41,Motors_Started,
2000,2023-10-12 21:40:11,40.0688975236594,-88.2096620692216,0,,,706.43314596544,0.656168,0,0.03877460754,0.156580713672,25,10,22.115,706.43314596544,0,0,0.043268702172,0,0,0,356.4, 0.8, 0,0,0,1024,1024,1024,1024,0,0,0,0,0,0,0,58,,,,,,,2.738,110.48,706.43314596544,0,10,Assisted_Takeoff,
2100,2023-10-12 21:40:12,40.068897533552,-88.2096621383629,0,,,706.43314596544,0.656168,0,0.04192585436,0.176220149996,25,10,22.115,706.43314596544,0,0,0.043268702172,0,0,0,356.3, 0.8, 0,0,0,1024,1024,1024,1024,0,0,0,0,0,0,0,58,,,,,,,2.738,110.48,706.43314596544,0,10,Assisted_Takeoff,
2200,2023-10-12 21:40:12,40.0688975257686,-88.2096621294222,0,,,706.43314596544,0.656168,0,0.038663715148,0.180001318096,25,10,22.115,706.43314596544,0,0,0.043268702172,0,0,0,356.4, 0.8, 0,0,0,1024,1024,1024,1024,0,0,0,0,0,0,0,58,,,,,,,2.738,110.48,706.43314596544,0,10,Assisted_Takeoff,
2300,2023-10-12 21:40:12,40.0688975127144,-88.2096620981159,0,,,706.43314596544,0.656168,0,0.033444554876,0.18995571474,25,10,22.115,706.43314596544,0,0,0.043268702172,0,0,0,356.4, 0.8, 0,0,0,1024,1024,1024,1024,0,0,0,0,0,0,0,58,,,,,,,2.738,110.48,706.43314596544,0,10,Assisted_Takeoff,
2400,2023-10-12 21:40:12,40.0688975023453,-88.2096621200635,0,,,706.43314596544,0.656168,0,0.0298248697208,0.19715715854,25,10,22.115,706.43314596544,0,0,0.043268702172,0,0,0,356.4, 0.8, 0,0,0,1024,1024,1024,1024,0,0,0,0,0,0,0,58,,,,,,,2.738,110.48,706.43314596544,0,10,Assisted_Takeoff,
2500,2023-10-12 21:40:12,40.0688974945156,-88.2096620875222,0,,,706.43314596544,0.656168,0,0.0272402895856,0.20668143706,25,10,22.115,706.43314596544,0,0,0.043268702172,0,0,-0.223694,356.4, 0.8, 0,0,0,1024,1024,1024,1024,0,0,0,0,0,0,0,58,,,,,,,2.738,110.48,706.43314596544,0,10,Assisted_Takeoff,
2600,2023-10-12 21:40:12,40.0688974998288,-88.2096620711913,0,,,706.43314596544,0.656168,0,0.030303806744,0.211636161628,25,10,22.115,706.43314596544,0,0,0.043268702172,0,0,0,356.3, 0.8, 0,0,0,1024,1024,1024,1024,0,0,0,0,0,0,0,58,,,,,,,2.738,110.48,706.43314596544,0,10,Assisted_Takeoff,
2700,2023-10-12 21:40:12,40.0688975041267,-88.2096620497511,0,,,706.43314596544,0.656168,0,0.034121720252,0.217824482036,25,10,22.115,706.43314596544,0,0,0.043268702172,0,0,-0.223694,356.3, 0.8, 0,0,0,1024,1024,1024,1024,0,0,0,0,0,0,0,58,,,,,,,2.738,110.48,706.43314596544,0,10,Assisted_Takeoff,
2800,2023-10-12 21:40:12,40.068897522829,-88.2096621091651,0,,,706.43314596544,0.656168,0,0.03706200906,0.235761818568,25,10,22.115,706.43314596544,0,0,0.043268702172,0,0,0,356.3, 0.8, 0,0,0,1024,1024,1024,1024,0,0,0,0,0,0,0,58,,,,,,,2.738,110.48,706.43314596544,0,10,Assisted_Takeoff,
2900,2023-10-12 21:40:12,40.0688975215725,-88.2096620900582,0,,,706.43314596544,0.656168,0,0.03687992244,0.241116477532,25,10,22.115,706.43314596544,0,0,0.043268702172,0,0,-0.223694,356.4, 0.8, 0,0,0,1024,1024,1024,1024,0,0,0,0,0,0,0,58,,,,,,,2.738,110.48,706.43314596544,0,10,Assisted_Takeoff,
3000,2023-10-12 21:40:12,40.0688975211176,-88.2096620771333,0,,,706.43314596544,0.656168,0,0.037336615368,0.244729010456,25,10,22.145,706.43314596544,0,0,0.043268702172,0,0,0,356.4, 0.8, 0,0,0,1024,1024,1024,1024,0,0,0,0,0,0,0,58,,,,,,,1.705,110.48,706.43314596544,0,10,Assisted_Takeoff,
3100,2023-10-12 21:40:13,40.0688975278235,-88.2096620975843,0,,,706.43314596544,0.656168,0,0.038954725656,0.250941280996,25,10,22.145,706.43314596544,0,0,0.043268702172,0,0,-0.223694,356.4, 0.8, 0,0,0,1024,1024,1067,1024,0,0,7,0,0,0,0,58,,,,,,,1.705,110.48,706.43314596544,0,10,Assisted_Takeoff,
3200,2023-10-12 21:40:13,40.0688975181,-88.2096620906654,0,,,706.43314596544,0.656168,0,0.035601707176,0.254980651204,25,10,22.145,706.43314596544,0,0,0.043268702172,0,0,-0.223694,356.4, 0.8, 0,0,0,1024,1024,1030,1024,0,0,1,0,0,0,0,58,,,,,,,1.705,110.48,706.43314596544,0,10,Assisted_Takeoff,
3300,2023-10-12 21:40:13,40.0688975067902,-88.2096620764051,0,,,706.43314596544,0.656168,0,0.0323086624512,0.260714903356,25,10,22.145,706.43314596544,0,0,0.043268702172,0,0,-0.223694,356.4, 0.8, 0,0,0,1024,1024,1073,1024,0,0,7,0,0,0,0,58,,,,,,,1.705,110.48,706.43314596544,0,10,Assisted_Takeoff,
3400,2023-10-12 21:40:13,40.0688975043038,-88.2096620606595,0,,,706.43314596544,0.656168,0,0.032879922312,0.265203748644,25,10,22.145,706.43314596544,0,0,0.043268702172,0,0,-0.223694,356.4, 0.8, 0,0,0,1024,1024,1684,1024,0,0,100,0,0,0,0,58,,,,,,,1.705,110.48,706.43314596544,0,10,Assisted_Takeoff,
3500,2023-10-12 21:40:13,40.068897508001,-88.209662107269,0,,,706.43314596544,0.656168,0,0.0316451125612,0.278287082396,25,10,22.145,706.43314596544,0,0,0.043268702172,0,0,-0.223694,356.3, 0.8, 0,0,0,1024,1024,1684,1024,0,0,100,0,0,0,0,58,,,,,,,1.705,110.48,706.43314596544,0,10,Assisted_Takeoff,
3600,2023-10-12 21:40:13,40.0688975096837,-88.2096620964701,0,,,706.43314596544,0.656168,0,0.0323777241332,0.281364182232,25,10,22.145,706.43314596544,0,0,0.043268702172,0,0,-0.223694,356.3, 0.8, 0,0,0,1024,1024,1684,1024,0,0,100,0,0,0,0,58,,,,,,,1.705,110.48,706.43314596544,0,10,Assisted_Takeoff,
3700,2023-10-12 21:40:13,40.0688975096564,-88.2096620783983,0,,,706.43314596544,0.656168,0,0.03318405618,0.286410114152,25,10,22.145,706.43314596544,0,0,0.043268702172,0,0,-0.223694,356.4, 0.8, 0,0,0,1024,1024,1684,1027,0,0,100,0,0,0,0,58,,,,,,,1.705,110.48,706.43314596544,0,10,Assisted_Takeoff,
3800,2023-10-12 21:40:13,40.0688975172922,-88.2096621164298,0,,,706.43314596544,0.656168,0,0.035145342332,0.297388132876,25,10,22.145,706.43314596544,0,0,0.043268702172,0,0,-0.223694,356.4, 0.8, 0,0,0,1024,1024,1684,1027,0,0,100,0,0,0,0,58,,,,,,,1.705,110.48,706.43314596544,0,10,Assisted_Takeoff,
3900,2023-10-12 21:40:13,40.0688975077773,-88.2096620826261,0,,,706.43314596544,0.656168,0,0.0322544957828,0.307444563644,25,10,22.145,706.43314596544,0,0,0.043268702172,0,0,-0.223694,356.4, 0.9, 0.1,0,0,1024,1024,1684,1040,0,0,100,2,0,0,0,58,,,,,,,1.705,110.48,706.43314596544,0,10,Assisted_Takeoff,
4000,2023-10-12 21:40:13,40.0688974904551,-88.2096620525646,0,,,706.43314596544,0.656168,0,0.0293826452972,0.317951453744,25,10,22.145,706.43314596544,0,0,0.043268702172,0,0,-0.223694,356.3, 1.1, 0.1,0,0,1024,1024,1684,1048,0,0,100,4,0,0,0,58,,,,,,,1.705,110.48,706.43314596544,0,10,Assisted_Takeoff,
4100,2023-10-12 21:40:14,40.0688974590237,-88.2096620222782,0,,,706.43314596544,0.656168,0,0.0272348433912,0.3322014542,25,10,22.142,706.43314596544,0,0,0.043268702172,0,0,-0.223694,356.2, 1.7, 0,0,0,1024,1024,1684,1024,0,0,100,0,0,0,0,58,,,,,,,0.823,110.48,706.43314596544,0,10,Assisted_Takeoff,
4200,2023-10-12 21:40:14,40.0688974258895,-88.2096620674156,0,,,706.43314596544,0.656168,0,0.0110213914288,0.34966208468,25,10,22.142,706.43314596544,0,0,0.043268702172,0,0,-0.447388,356, 2.7, -0.4,0,0,1024,1024,1684,1024,0,0,100,0,0,0,0,58,,,,,,,0.823,110.48,706.43314596544,0,10,Assisted_Takeoff,
4300,2023-10-12 21:40:14,40.0688973237762,-88.2096620322084,0.328084,,,706.76122996544,0.984252,0.223694,0.041165683732,0.38819555048,25,10,22.142,706.76122996544,0.328084,0.223694,0.043268702172,-0.223694,0,-0.894776,355.7, 3.3, -0.3,0,0,1024,1024,1684,1024,0,0,100,0,0,0,0,58,,,,,,,0.823,110.48,706.76122996544,0.328084,6,P-GPS,
4400,2023-10-12 21:40:14,40.0688971597653,-88.2096620009535,0.328084,,,706.76122996544,0.984252,0.447388,0.09985072498,0.44866799336,25,10,22.142,706.76122996544,0.328084,0.447388,0.09985072498,-0.447388,0,-1.565858,355.4, 1.6, -0.6,0,0,1024,1024,1684,1024,0,0,100,0,0,0,0,58,,,,,,,0.823,110.48,706.76122996544,0.328084,6,P-GPS,
4500,2023-10-12 21:40:14,40.0688969672381,-88.2096620159472,0.656168,,,707.08931396544,1.312336,0.447388,0.167567918748,0.51903544968,25,10,22.142,707.08931396544,0.656168,0.447388,0.167567918748,-0.447388,0,-2.23694,355.3, -0.9, -1.1,0,0,1024,1024,1684,1024,0,0,100,0,0,0,0,58,,,,,,,0.823,110.48,707.08931396544,0.656168,6,P-GPS,
4600,2023-10-12 21:40:14,40.0688967805295,-88.2096620197408,0.984252,,,707.41739796544,1.64042,0.447388,0.2350229734,0.58716209228,25,10,22.142,707.41739796544,0.984252,0.447388,0.2350229734,-0.447388,0,-2.908022,355.4, -2.4, -1.1,0,0,1024,1024,1684,1024,0,0,100,0,0,0,0,58,,,,,,,0.823,110.48,707.41739796544,0.984252,6,P-GPS,
4700,2023-10-12 21:40:14,40.0688966265926,-88.2096620491032,1.64042,,,708.07356596544,1.968504,0.223694,0.290378618216,0.64392390512,25,10,22.142,708.07356596544,1.64042,0.447388,0.290378618216,-0.223694,0,-3.579104,355.4, -3.2, -1.3,0,0,1024,1024,1684,1024,0,0,100,0,0,0,0,58,,,,,,,0.823,110.48,708.07356596544,1.64042,6,P-GPS,
4800,2023-10-12 21:40:14,40.0688965563953,-88.2096621260297,1.968504,,,708.40164996544,2.624672,0,0.315596138708,0.67734910304,25,10,22.142,708.40164996544,1.968504,0.447388,0.315596138708,0,0,-4.250186,355.4, -2.2, -0.7,0,0,1024,1024,1684,1024,0,0,100,0,0,0,0,58,,,,,,,0.823,110.48,708.40164996544,1.968504,6,P-GPS,
4900,2023-10-12 21:40:14,40.0688965470016,-88.2096622995299,2.624672,,,709.05781796544,3.28084,0,0.323500338436,0.72591209672,25,10,22.142,709.05781796544,2.624672,0.447388,0.323500338436,0,0,-5.144962,355.3, -0.9, 0.2,0,0,1024,1024,1684,1024,0,0,100,0,0,0,0,58,,,,,,,0.823,110.48,709.05781796544,2.624672,6,P-GPS,
5000,2023-10-12 21:40:15,40.0688965090566,-88.209662390632,3.608924,,,710.04206996544,3.937008,0,0.34214896108,0.7548720714,25,10,22.142,710.04206996544,3.608924,0.447388,0.34214896108,0,0,-5.816044,355.3, -0.2, 1,0,0,1024,1024,1684,1024,0,0,100,0,0,0,0,58,,,,,,,0.823,110.48,710.04206996544,3.608924,6,P-GPS,
5100,2023-10-12 21:40:15,40.0688964796261,-88.2096624373585,4.265092,,,710.69823796544,4.92126,0,0.35576772792,0.7717683974,25,10,21.872,710.69823796544,4.265092,0.447388,0.35576772792,0,0,-6.71082,355.3, 0, 1,0,0,1024,1024,1684,1024,0,0,100,0,0,0,0,58,,,,,,,9.137,110.48,710.69823796544,4.265092,6,P-GPS,
5200,2023-10-12 21:40:15,40.0688964596138,-88.209662551824,5.249344,,,711.68248996544,5.577428,0,0.37224738724,0.80455055068,25,10,21.872,711.68248996544,5.249344,0.447388,0.37224738724,0,0,-7.381902,355.1, -0.1, 0.1,0,0,1024,1024,1147,1024,0,0,19,0,0,0,0,58,,,,,,,9.137,110.48,711.68248996544,5.249344,6,P-GPS,
5300,2023-10-12 21:40:15,40.0688964792978,-88.209662555547,6.56168,,,712.99482596544,6.889764,0,0.36583990672,0.81180776876,25,10,21.872,712.99482596544,6.56168,0.447388,0.37224738724,0,0,-8.276678,355, 0, -0.4,0,0,1024,1024,1024,1024,0,0,0,0,0,0,0,58,,,,,,,9.137,110.48,712.99482596544,6.56168,6,P-GPS,
5400,2023-10-12 21:40:15,40.0688964995786,-88.2096625716687,7.874016,,,714.30716196544,8.2021,0,0.36049541836,0.82046918636,25,10,21.872,714.30716196544,7.874016,0.447388,0.37224738724,0,0,-8.724066,354.9, 0.2, -0.7,0,0,1024,1024,1024,1024,0,0,0,0,0,0,0,58,,,,,,,9.137,110.48,714.30716196544,7.874016,6,P-GPS,
5500,2023-10-12 21:40:15,40.0688965275974,-88.2096625890156,8.858268,,,715.29141396544,9.186352,0,0.35279856772,0.83178152268,25,10,21.872,715.29141396544,8.858268,0.447388,0.37224738724,0,0,-8.94776,354.7, 0, -0.4,0,0,1024,1024,1024,1024,0,0,0,0,0,0,0,58,,,,,,,9.137,110.48,715.29141396544,8.858268,6,P-GPS,
5600,2023-10-12 21:40:15,40.0688966157156,-88.2096627376779,10.170604,,,716.60374996544,10.498688,0,0.34270342304,0.8842848052,25,10,21.872,716.60374996544,10.170604,0.447388,0.37224738724,0,0,-8.724066,354.5, 0, 0.4,0,0,1024,1024,1024,1024,0,0,0,0,0,0,0,58,,,,,,,9.137,110.48,716.60374996544,10.170604,6,P-GPS,
5700,2023-10-12 21:40:15,40.0688966950634,-88.2096627367823,11.48294,,,717.91608596544,11.48294,0,0.318084655848,0.91323493736,25,10,21.872,717.91608596544,11.48294,0.447388,0.37224738724,0,0,-8.500372,354.4, 0.3, 0.8,0,0,1024,1024,1024,1024,0,0,0,0,0,0,0,58,,,,,,,9.137,110.48,717.91608596544,11.48294,6,P-GPS,
5800,2023-10-12 21:40:15,40.0688967815353,-88.2096627246732,12.795276,,,719.22842196544,12.467192,0.223694,0.290303815064,0.944963941,24,10,21.872,719.22842196544,12.795276,0.447388,0.37224738724,0.223694,0,-8.052984,354.6, 1, 0.4,0,0,1024,1024,1024,1024,0,0,0,0,0,0,0,58,,,,,,,9.137,110.48,719.22842196544,12.795276,6,P-GPS,
5900,2023-10-12 21:40:15,40.0688968899969,-88.2096627406442,13.779528,,,720.21267396544,13.451444,0.223694,0.262542987404,0.98478677692,24,10,21.872,720.21267396544,13.779528,0.447388,0.37224738724,0.223694,0,-7.605596,354.8, 1.4, -0.4,0,0,1024,1024,1024,1024,0,0,0,0,0,0,0,58,,,,,,,9.137,110.48,720.21267396544,13.779528,6,P-GPS,
6000,2023-10-12 21:40:15,40.0688969790591,-88.2096627058686,14.76378,,,721.19692596544,14.107612,0.223694,0.2324721203,1.01870082,24,10,21.872,721.19692596544,14.76378,0.447388,0.37224738724,0.223694,0,-6.934514,354.9, 1.7, -1,0,0,1024,1024,1024,1024,0,0,0,0,0,0,0,58,,,,,,,9.137,110.48,721.19692596544,14.76378,6,P-GPS,
6100,2023-10-12 21:40:16,40.068897069258,-88.2096626761345,15.748032,,,722.18117796544,14.76378,0.223694,0.204443248012,1.0526411098,24,10,21.872,722.18117796544,15.748032,0.447388,0.37224738724,0.223694,0,-6.263432,355, 1.7, -1,0,0,1024,1024,1024,1024,0,0,0,0,0,0,0,58,,,,,,,9.137,110.48,722.18117796544,15.748032,6,P-GPS,
6200,2023-10-12 21:40:16,40.0688971470673,-88.2096626690802,16.732284,,,723.16542996544,15.419948,0.223694,0.186248037456,1.08109911596,24,10,21.872,723.16542996544,16.732284,0.447388,0.37224738724,0.223694,0,-5.368656,355.1, 1.7, -0.6,0,0,1024,1024,1024,1024,0,0,0,0,0,0,0,58,,,,,,,9.137,110.48,723.16542996544,16.732284,6,P-GPS,
6300,2023-10-12 21:40:16,40.0688972267099,-88.2096627555102,17.388452,,,723.82159796544,16.076116,0.223694,0.194636161084,1.11887142688,24,10,21.872,723.82159796544,17.388452,0.447388,0.37224738724,0.223694,0,-4.697574,355.1, 1.9, -0.1,0,0,1024,1024,1024,1024,0,0,0,0,0,0,0,58,,,,,,,9.137,110.48,723.82159796544,17.388452,6,P-GPS,
6400,2023-10-12 21:40:16,40.0688972956116,-88.2096627669223,18.04462,,,724.47776596544,16.4042,0.223694,0.190029861724,1.1442093542,24,10,21.872,724.47776596544,18.04462,0.447388,0.37224738724,0.223694,0,-3.802798,355.1, 2.2, 0.1,0,0,1024,1024,1024,1024,0,0,0,0,0,0,0,58,,,,,,,9.137,110.48,724.47776596544,18.04462,6,P-GPS,
6500,2023-10-12 21:40:16,40.0688973631188,-88.2096627781605,18.700788,,,725.13393396544,16.732284,0.223694,0.188750662208,1.16903875132,24,10,21.872,725.13393396544,18.700788,0.447388,0.37224738724,0.223694,0,-2.908022,355, 2.5, 0.3,0,0,1024,1024,1024,1024,0,0,0,0,0,0,0,58,,,,,,,9.137,110.48,725.13393396544,18.700788,6,P-GPS,
6600,2023-10-12 21:40:16,40.0688974125804,-88.2096628707493,19.028872,,,725.46201796544,17.060368,0.223694,0.213429468772,1.20056762372,24,10,21.872,725.46201796544,19.028872,0.447388,0.37224738724,0,0,-2.013246,355, 2.6, 0.6,0,0,1024,1024,1024,1024,0,0,0,0,0,0,0,58,,,,,,,9.137,110.48,725.46201796544,19.028872,6,P-GPS,
6700,2023-10-12 21:40:16,40.0688974677587,-88.2096628876507,19.028872,,,725.46201796544,17.060368,0,0.218783471568,1.2212434774,24,10,21.872,725.46201796544,19.028872,0.447388,0.37224738724,0,0,-1.342164,355, 2.6, 0.6,0,0,1024,1024,1024,1024,0,0,0,0,0,0,0,58,,,,,,,9.137,110.48,725.46201796544,19.028872,6,P-GPS,
6800,2023-10-12 21:40:16,40.0688975467286,-88.2096628940924,19.356956,,,725.79010196544,17.060368,0,0.224636818212,1.25011158856,24,10,21.872,725.79010196544,19.356956,0.447388,0.37224738724,0,0,-0.671082,354.9, 2.6, 0.4,0,0,1024,1024,1024,1024,0,0,0,0,0,0,0,58,,,,,,,9.137,110.48,725.79010196544,19.356956,6,P-GPS,
6900,2023-10-12 21:40:16,40.0688976198837,-88.2096628879844,19.356956,,,725.79010196544,17.388452,0,0.229935374812,1.27685699624,24,10,21.872,725.79010196544,19.356956,0.447388,0.37224738724,0,0,-0.223694,354.9, 2.4, 0.1,0,0,1024,1024,1024,1024,0,0,0,0,0,0,0,58,,,,,,,9.137,110.48,725.79010196544,19.356956,6,P-GPS,
7000,2023-10-12 21:40:17,40.0688976948444,-88.2096629131904,19.356956,,,725.79010196544,17.388452,0,0.246379929144,1.30509846696,24,10,22.002,725.79010196544,19.356956,0.447388,0.37224738724,0,0,0,354.8, 2.3, 0,0,0,1024,1024,1024,1024,0,0,0,0,0,0,0,58,,,,,,,5.31,110.48,725.79010196544,19.356956,6,P-GPS,
7100,2023-10-12 21:40:17,40.0688977315458,-88.2096629031449,19.356956,,,725.79010196544,17.060368,0,0.249599089352,1.31877956976,24,10,22.002,725.79010196544,19.356956,0.447388,0.37224738724,0,0,0,354.8, 2.2, -0.1,0,0,1024,1024,1024,1024,0,0,0,0,0,0,0,58,,,,,,,5.31,110.48,725.79010196544,19.356956,6,P-GPS,
7200,2023-10-12 21:40:17,40.0688977646167,-88.2096629156396,19.028872,,,725.46201796544,17.060368,0,0.258343840288,1.33133862528,24,10,22.002,725.79010196544,19.356956,0.447388,0.37224738724,0,0,0.223694,354.7, 2.1, -0.1,0,0,1024,1024,1024,1024,0,0,0,0,0,0,0,58,,,,,,,5.31,110.48,725.46201796544,19.028872,6,P-GPS,
7300,2023-10-12 21:40:17,40.0688978042618,-88.2096629797928,19.028872,,,725.46201796544,16.732284,0,0.281050862012,1.35436027956,24,10,22.002,725.79010196544,19.356956,0.447388,0.37224738724,0,0,0.223694,354.6, 1.8, 0,0,0,1024,1024,1024,1024,0,0,0,0,0,0,0,58,,,,,,,5.31,110.48,725.46201796544,19.028872,6,P-GPS,
7400,2023-10-12 21:40:17,40.0688978263186,-88.2096629460151,19.028872,,,725.46201796544,16.732284,0,0.277115166348,1.36675857392,24,10,22.002,725.79010196544,19.356956,0.447388,0.37224738724,0,0,0.223694,354.6, 1.7, -0.3,0,0,1024,1024,1024,1024,0,0,0,0,0,0,0,58,,,,,,,5.31,110.48,725.46201796544,19.028872,6,P-GPS,
7500,2023-10-12 21:40:17,40.0688978419832,-88.2096629017561,19.028872,,,725.46201796544,16.732284,0,0.269951124124,1.38037405992,24,10,22.002,725.79010196544,19.356956,0.447388,0.37224738724,0,0,0.223694,354.6, 1.5, -0.5,0,0,1024,1024,1024,1024,0,0,0,0,0,0,0,58,,,,,,,5.31,110.48,725.46201796544,19.028872,6,P-GPS,
7600,2023-10-12 21:40:17,40.0688978579504,-88.2096628817521,18.700788,,,725.13393396544,16.732284,0,0.268787410176,1.38844492632,24,10,22.002,725.79010196544,19.356956,0.447388,0.37224738724,0,0,0.223694,354.5, 1.4, -0.5,0,0,1024,1024,1024,1024,0,0,0,0,0,0,0,58,,,,,,,5.31,110.48,725.13393396544,18.700788,6,P-GPS,
7700,2023-10-12 21:40:17,40.0688978994479,-88.2096629119573,18.700788,,,725.13393396544,16.732284,0,0.284645022232,1.4057743232,24,10,22.002,725.79010196544,19.356956,0.447388,0.37224738724,0,0,0.223694,354.5, 1.3, -0.3,0,0,1024,1024,1024,1024,0,0,0,0,0,0,0,58,,,,,,,5.31,110.48,725.13393396544,18.700788,6,P-GPS,
7800,2023-10-12 21:40:17,40.0688979202816,-88.2096628788865,18.700788,,,725.13393396544,16.4042,0,0.28224902478,1.41773626584,24,10,22.002,725.79010196544,19.356956,0.447388,0.37224738724,0,0,0,354.5, 1.3, -0.2,0,0,1024,1024,1024,1024,0,0,0,0,0,0,0,58,,,,,,,5.31,110.48,725.13393396544,18.700788,6,P-GPS,
7900,2023-10-12 21:40:17,40.0688979397837,-88.2096628323694,18.700788,,,725.13393396544,16.4042,0,0.277258539056,1.4325459776,24,10,22.002,725.79010196544,19.356956,0.447388,0.37224738724,0,0,0,354.6, 1.6, -0.3,0,0,1024,1024,1024,1024,0,0,0,0,0,0,0,58,,,,,,,5.31,110.48,725.13393396544,18.700788,6,P-GPS,
8000,2023-10-12 21:40:17,40.0688979860921,-88.2096628137094,18.700788,,,725.13393396544,16.4042,0,0.28542159706,1.45022642436,24,10,22.002,725.79010196544,19.356956,0.447388,0.37224738724,0,0,0,354.7, 1.8, -0.7,0,0,1024,1024,1024,1024,0,0,0,0,0,0,0,58,,,,,,,5.31,110.48,725.13393396544,18.700788,6,P-GPS,
8100,2023-10-12 21:40:18,40.0688979924458,-88.2096627558024,18.372704,,,724.80584996544,16.4042,0,0.276228027212,1.46655844588,24,10,22.002,725.79010196544,19.356956,0.447388,0.37224738724,0,0,0,354.8, 1.7, -1,0,0,1024,1024,1024,1024,0,0,0,0,0,0,0,58,,,,,,,5.31,110.48,724.80584996544,18.372704,6,P-GPS,
8200,2023-10-12 21:40:18,40.068898012717,-88.2096627677625,18.372704,,,724.80584996544,16.4042,0,0.28400919544,1.47467524404,24,10,22.002,725.79010196544,19.356956,0.447388,0.37224738724,0,0,0,354.8, 1.6, -0.7,0,0,1024,1024,1024,1024,0,0,0,0,0,0,0,58,,,,,,,5.31,110.48,724.80584996544,18.372704,6,P-GPS,
8300,2023-10-12 21:40:18,40.0688980296714,-88.2096627943556,18.372704,,,724.80584996544,16.076116,0,0.293541019892,1.48433731784,24,10,22.002,725.79010196544,19.356956,0.447388,0.37224738724,0,0,0,354.8, 1.5, 0,0,0,1024,1024,1024,1024,0,0,0,0,0,0,0,58,,,,,,,5.31,110.48,724.80584996544,18.372704,6,P-GPS,
8400,2023-10-12 21:40:18,40.0688980691053,-88.2096628935105,18.372704,,,724.80584996544,16.076116,0,0.322741808228,1.51553810624,24,10,22.002,725.79010196544,19.356956,0.447388,0.37224738724,0,0,0,354.8, 1.7, 0.5,0,0,1024,1024,1024,1024,0,0,0,0,0,0,0,58,,,,,,,5.31,110.48,724.80584996544,18.372704,6,P-GPS,
8500,2023-10-12 21:40:18,40.0688980674364,-88.2096628947097,18.372704,,,724.80584996544,16.076116,0,0.32252461662,1.51623364432,24,10,22.002,725.79010196544,19.356956,0.447388,0.37224738724,0,0,0,354.8, 1.7, 0.7,0,0,1024,1024,1024,1024,0,0,0,0,0,0,0,58,,,,,,,5.31,110.48,724.80584996544,18.372704,6,P-GPS,
8600,2023-10-12 21:40:18,40.0688980699126,-88.2096629117093,18.372704,,,724.80584996544,16.076116,0,0.326436690236,1.52106632164,24,10,22.002,725.79010196544,19.356956,0.447388,0.37224738724,0,0,0,354.8, 1.6, 0.6,0,0,1024,1024,1024,1024,0,0,0,0,0,0,0,58,,,,,,,5.31,110.48,724.80584996544,18.372704,6,P-GPS,
8700,2023-10-12 21:40:18,40.0688980858075,-88.2096629684067,18.372704,,,724.80584996544,16.076116,0,0.34162730752,1.53792327756,24,10,22.002,725.79010196544,19.356956,0.447388,0.37224738724,0,0,0,354.7, 1.4, 0.1,0,0,1024,1024,1024,1024,0,0,0,0,0,0,0,58,,,,,,,5.31,110.48,724.80584996544,18.372704,6,P-GPS,
8800,2023-10-12 21:40:18,40.0688980787236,-88.2096629605879,18.04462,,,724.47776596544,16.076116,0,0.338254604,1.5413058236,24,10,22.002,725.79010196544,19.356956,0.447388,0.37224738724,0,0,0,354.7, 1.4, -0.2,0,0,1024,1024,1024,1024,0,0,0,0,0,0,0,58,,,,,,,5.31,110.48,724.47776596544,18.04462,6,P-GPS,
8900,2023-10-12 21:40:18,40.0688980769138,-88.2096629544744,18.04462,,,724.47776596544,16.076116,0,0.33658465644,1.54313653232,24,10,22.002,725.79010196544,19.356956,0.447388,0.37224738724,0,0,0,354.7, 1.8, -0.3,0,0,1024,1024,1024,1024,0,0,0,0,0,0,0,58,,,,,,,5.31,110.48,724.47776596544,18.04462,6,P-GPS,
9000,2023-10-12 21:40:18,40.0688980822071,-88.2096629476761,18.04462,,,724.47776596544,16.076116,0,0.3366305882,1.54584650616,24,10,21.897,725.79010196544,19.356956,0.447388,0.37224738724,0,0,0,354.7, 2.3, 0,0,0,1024,1024,1024,1024,0,0,0,0,0,0,0,57,,,,,,,9.062,110.48,724.47776596544,18.04462,6,P-GPS,
9100,2023-10-12 21:40:19,40.0688980839568,-88.2096630035022,18.04462,,,724.47776596544,16.076116,0,0.3481299324,1.56144690036,24,10,21.897,725.79010196544,19.356956,0.447388,0.37224738724,0,0,0,354.7, 2.5, 0.2,0,0,1024,1024,1024,1024,0,0,0,0,0,0,0,57,,,,,,,9.062,110.48,724.47776596544,18.04462,6,P-GPS,
9200,2023-10-12 21:40:19,40.0688980888392,-88.2096630206576,18.04462,,,724.47776596544,16.076116,0,0.35281825276,1.56655516824,24,10,21.897,725.79010196544,19.356956,0.447388,0.37224738724,0,0,0,354.7, 2.3, 0.2,0,0,1024,1024,1024,1024,0,0,0,0,0,0,0,57,,,,,,,9.062,110.48,724.47776596544,18.04462,6,P-GPS,
9300,2023-10-12 21:40:19,40.0688980863754,-88.2096630289959,18.04462,,,724.47776596544,16.076116,0,0.35389108744,1.56905188748,24,10,21.897,725.79010196544,19.356956,0.447388,0.37224738724,0,0,0,354.7, 2.2, 0.2,0,0,1024,1024,1024,1024,0,0,0,0,0,0,0,57,,,,,,,9.062,110.48,724.47776596544,18.04462,6,P-GPS,
9400,2023-10-12 21:40:19,40.0688981206525,-88.2096631371678,18.04462,,,724.47776596544,16.076116,0,0.38462599656,1.60174217724,24,10,21.897,725.79010196544,19.356956,0.447388,0.38462599656,0,0,0,354.7, 2, 0.3,0,0,1024,1024,1024,1024,0,0,0,0,0,0,0,57,,,,,,,9.062,110.48,724.47776596544,18.04462,6,P-GPS,
9500,2023-10-12 21:40:19,40.0688981164085,-88.2096631460521,18.04462,,,724.47776596544,16.076116,0,0.38546261076,1.60466540568,24,10,21.897,725.79010196544,19.356956,0.447388,0.38546261076,0,0,0,354.6, 2, 0.5,0,0,1024,1024,1024,1024,0,0,0,0,0,0,0,57,,,,,,,9.062,110.48,724.47776596544,18.04462,6,P-GPS,
9600,2023-10-12 21:40:19,40.068898106908,-88.2096631402079,18.04462,,,724.47776596544,16.076116,0,0.38195867364,1.6084974268,24,10,21.897,725.79010196544,19.356956,0.447388,0.38546261076,0,0,0,354.6, 2, 0.5,0,0,1024,1024,1024,1024,0,0,0,0,0,0,0,57,,,,,,,9.062,110.48,724.47776596544,18.04462,6,P-GPS,
9700,2023-10-12 21:40:19,40.0688980918116,-88.2096631147222,18.04462,,,724.47776596544,16.076116,0,0.37297245288,1.61749349008,24,10,21.897,725.79010196544,19.356956,0.447388,0.38546261076,0,0,0,354.6, 1.7, 0.3,0,0,1024,1024,1024,1024,0,0,0,0,0,0,0,57,,,,,,,9.062,110.48,724.47776596544,18.04462,6,P-GPS,
9800,2023-10-12 21:40:19,40.0688980753422,-88.209663149345,17.716536,,,724.14968196544,16.076116,0,0.37648623252,1.62887800488,24,10,21.897,725.79010196544,19.356956,0.447388,0.38546261076,0,0,0,354.6, 1.4, 0.2,0,0,1024,1024,1024,1024,0,0,0,0,0,0,0,57,,,,,,,9.062,110.48,724.14968196544,17.716536,6,P-GPS,
9900,2023-10-12 21:40:19,40.0688980492833,-88.2096630998675,17.716536,,,724.14968196544,16.076116,0,0.3597769144,1.64564637812,24,10,21.897,725.79010196544,19.356956,0.447388,0.38546261076,0,0,0,354.6, 1.4, 0,0,0,1447,1024,1024,1024,64,0,0,0,0,0,0,58,,,,,,,9.062,110.48,724.14968196544,17.716536,6,P-GPS,
10000,2023-10-12 21:40:19,40.0688980422986,-88.2096630709168,17.716536,,,724.14968196544,16.076116,0,0.3519357068,1.65412078784,24,10,21.878,725.79010196544,19.356956,0.447388,0.38546261076,0,0,0,354.7, 1.1, -0.2,0,0,1684,1024,1024,1024,100,0,0,0,0,0,0,57,,,,,,,9.497,110.48,724.14968196544,17.716536,6,P-GPS,
10100,2023-10-12 21:40:20,40.0688980511407,-88.2096630880886,17.716536,,,724.14968196544,16.076116,0,0.35768373848,1.65990162792,24,10,21.878,725.79010196544,19.356956,0.447388,0.38546261076,0,0,0,354.7, -3, -0.1,0,0,1684,1024,1024,1024,100,0,0,0,0,0,0,57,,,,,,,9.497,110.48,724.14968196544,17.716536,6,P-GPS,
10200,2023-10-12 21:40:20,40.0688980900147,-88.2096630839941,17.716536,,,724.14968196544,16.076116,0,0.36610237392,1.674130631,24,10,21.878,725.79010196544,19.356956,0.447388,0.38546261076,0,0,0,354.6, -13.5, 0,0,0,1684,1024,1024,1024,100,0,0,0,0,0,0,57,,,,,,,9.497,110.48,724.14968196544,17.716536,6,P-GPS,
10300,2023-10-12 21:40:20,40.0688983525603,-88.2096631030898,17.716536,,,724.14968196544,16.076116,0.894776,0.43919292744,1.77006895428,24,10,21.878,725.79010196544,19.356956,0.894776,0.43919292744,0.894776,0,0,354.4, -21, 0,0,0,1684,1024,1024,1024,100,0,0,0,0,0,0,57,,,,,,,9.497,110.48,724.14968196544,17.716536,6,P-GPS,
10400,2023-10-12 21:40:20,40.0688989700721,-88.2096631728468,17.716536,,,724.14968196544,16.076116,0.894776,0.63872705456,1.99620741296,24,10,21.878,725.79010196544,19.356956,0.894776,0.63872705456,1.789552,0,0,354.4, -23.8, 0.2,0,0,1684,1024,1024,1024,100,0,0,0,0,0,0,57,,,,,,,9.497,110.48,724.14968196544,17.716536,6,P-GPS,
10500,2023-10-12 21:40:20,40.0688999990864,-88.2096633716509,17.716536,,,724.14968196544,16.076116,2.684328,1.00467194816,2.37572514164,24,10,21.878,725.79010196544,19.356956,2.684328,1.00467194816,2.684328,0,0,354.5, -24.3, 0.3,0,0,1684,1024,1024,1024,100,0,0,0,0,0,0,57,,,,,,,9.497,110.48,724.14968196544,17.716536,6,P-GPS,
10600,2023-10-12 21:40:20,40.0689013919358,-88.2096635432625,17.716536,,,724.14968196544,16.076116,2.684328,1.50321855204,2.88615822884,24,10,21.878,725.79010196544,19.356956,2.684328,1.50321855204,3.579104,-0.223694,0,354.8, -23.8, 0.1,0,0,1684,1024,1024,1024,100,0,0,0,0,0,0,57,,,,,,,9.497,110.48,724.14968196544,17.716536,6,P-GPS,
10700,2023-10-12 21:40:20,40.0689032285701,-88.2096637597538,17.716536,,,724.14968196544,16.076116,4.47388,2.16849416388,3.5589896152,24,10,21.878,725.79010196544,19.356956,4.47388,2.16849416388,4.47388,-0.223694,0,355.1, -23.4, 0,0,0,1575,1024,1024,1024,83,0,0,0,0,0,0,57,,,,,,,9.497,110.48,724.14968196544,17.716536,6,P-GPS,
10800,2023-10-12 21:40:20,40.0689053365431,-88.2096641161253,17.716536,,,724.14968196544,16.4042,5.6147194,2.94189313876,4.334481766,24,10,21.878,725.79010196544,19.356956,5.6147194,2.94189313876,5.59235,-0.447388,0,355.3, -22.9, 0,0,0,1575,1024,1024,1024,83,0,0,0,0,0,0,57,,,,,,,9.497,110.48,724.14968196544,17.716536,6,P-GPS,
10900,2023-10-12 21:40:20,40.0689079095623,-88.2096644144165,17.716536,,,724.14968196544,16.4042,6.5094954,3.8805119352,5.2769358644,24,10,21.878,725.79010196544,19.356956,6.5094954,3.8805119352,6.487126,-0.447388,0,355.6, -20.8, -0.2,0,0,1024,1024,1024,1024,0,0,0,0,0,0,0,58,,,,,,,9.497,110.48,724.14968196544,17.716536,6,P-GPS,
11000,2023-10-12 21:40:21,40.0689106646716,-88.2096647514315,17.716536,,,724.14968196544,16.4042,7.1805774,4.887959474,6.2865159492,24,10,21.8515,725.79010196544,19.356956,7.1805774,4.887959474,7.158208,-0.447388,-0.223694,355.8, -8.4, -0.3,0,0,1024,1024,1024,1024,0,0,0,0,0,0,0,57,,,,,,,9.706,110.48,724.14968196544,17.716536,6,P-GPS,
11100,2023-10-12 21:40:21,40.0689136615563,-88.2096651233584,17.716536,,,724.14968196544,16.4042,7.1805774,5.9848427112,7.384842756,24,10,21.8515,725.79010196544,19.356956,7.1805774,5.9848427112,7.158208,-0.447388,-0.223694,356.2, 12.3, 0.1,0,0,1024,1024,1024,1024,0,0,0,0,0,0,0,57,,,,,,,9.706,110.48,724.14968196544,17.716536,6,P-GPS,
11200,2023-10-12 21:40:21,40.0689163080524,-88.2096654517607,17.716536,,,724.14968196544,16.4042,6.5094954,6.9538388052,8.3547574852,24,10,21.8515,725.79010196544,19.356956,7.1805774,6.9538388052,6.487126,-0.447388,0,356.8, 23.2, 1.6,0,0,1024,1024,1024,1024,0,0,0,0,0,0,0,57,,,,,,,9.706,110.48,724.14968196544,17.716536,6,P-GPS,
11300,2023-10-12 21:40:21,40.0689187010273,-88.2096656915994,17.716536,,,724.14968196544,16.4042,5.6147194,7.8281826652,9.2304136812,24,10,21.8515,725.79010196544,19.356956,7.1805774,7.8281826652,5.59235,-0.447388,0,356.9, 26.2, 1,0,0,1024,1024,1024,1024,0,0,0,0,0,0,0,57,,,,,,,9.706,110.48,724.14968196544,17.716536,6,P-GPS,
11400,2023-10-12 21:40:21,40.0689204831691,-88.2096658413792,17.716536,,,724.14968196544,14.76378,5.6147194,8.47851077,9.8819556968,24,10,21.8515,725.79010196544,19.356956,7.1805774,8.47851077,4.47388,-0.223694,0,356.7, 25.8, 0.6,0,0,1024,1024,1024,1024,0,0,0,0,0,0,0,57,,,,,,,9.706,110.48,724.14968196544,17.716536,6,P-GPS,
11500,2023-10-12 21:40:21,40.0689220444815,-88.2096659525092,17.716536,,,724.14968196544,14.76378,3.35541,9.0477037016,10.4524609644,24,10,21.8515,725.79010196544,19.356956,7.1805774,9.0477037016,3.35541,-0.223694,0,356.4, 19.3, 0.3,0,0,1024,1024,1024,1024,0,0,0,0,0,0,0,57,,,,,,,9.706,110.48,724.14968196544,17.716536,6,P-GPS,
11600,2023-10-12 21:40:21,40.068923011955,-88.2096659534048,17.716536,,,724.14968196544,14.76378,3.35541,9.3983270724,10.80544654,24,10,21.8515,725.79010196544,19.356956,7.1805774,9.3983270724,2.684328,-0.223694,0,356.1, 12.6, 0.2,0,0,1024,1024,1024,1024,0,0,0,0,0,0,0,57,,,,,,,9.706,110.48,724.14968196544,17.716536,6,P-GPS,
11700,2023-10-12 21:40:21,40.0689238240704,-88.209665933867,17.716536,,,724.14968196544,15.091864,2.23694,9.6921262944,11.1018048172,24,10,21.8515,725.79010196544,19.356956,7.1805774,9.6921262944,2.23694,-0.223694,-0.223694,356, 7.5, 0.1,0,0,1024,1024,1024,1024,0,0,0,0,0,0,0,57,,,,,,,9.706,110.48,724.14968196544,17.716536,6,P-GPS,
11800,2023-10-12 21:40:21,40.0689246491666,-88.2096659320658,17.716536,,,724.14968196544,15.091864,2.0356154,9.9913389024,11.4028218872,24,10,21.8515,725.79010196544,19.356956,7.1805774,9.9913389024,2.013246,-0.223694,-0.223694,355.9, 4.9, 0.1,0,0,1024,1024,1024,1024,0,0,0,0,0,0,0,57,,,,,,,9.706,110.48,724.14968196544,17.716536,6,P-GPS,
11900,2023-10-12 21:40:21,40.068925502443,-88.2096658363561,17.716536,,,724.14968196544,15.091864,1.8119214,10.2981958676,11.7152890888,24,10,21.8515,725.79010196544,19.356956,7.1805774,10.2981958676,1.789552,-0.223694,-0.223694,355.9, 4.3, 0.1,0,0,1024,1024,1024,1024,0,0,0,0,0,0,0,58,,,,,,,9.706,110.48,724.14968196544,17.716536,6,P-GPS,
12000,2023-10-12 21:40:22,40.0689261614941,-88.2096658776932,17.716536,,,724.14968196544,15.091864,1.5882274,10.5385830144,11.9560043196,24,10,21.8575,725.79010196544,19.356956,7.1805774,10.5385830144,1.565858,-0.223694,0,355.8, 4.6, 0,0,0,1024,1024,1024,1024,0,0,0,0,0,0,0,57,,,,,,,11.844,110.66,724.14968196544,17.716536,6,P-GPS,
12100,2023-10-12 21:40:22,40.0689268090207,-88.2096659311545,17.716536,,,724.14968196544,15.091864,1.5882274,10.7751643868,12.192749734,24,10,21.8575,725.79010196544,19.356956,7.1805774,10.7751643868,1.342164,-0.223694,0,355.6, 4.8, 0.1,0,0,1024,1024,1024,1024,0,0,0,0,0,0,0,57,,,,,,,11.844,110.66,724.14968196544,17.716536,6,P-GPS,
12200,2023-10-12 21:40:22,40.0689275668357,-88.20966617847,17.716536,,,724.14968196544,15.419948,1.1408394,11.0571853932,12.4777234964,24,10,21.8575,725.79010196544,19.356956,7.1805774,11.0571853932,1.11847,-0.223694,0,355.4, 5, 0.4,0,0,1024,1024,1024,1024,0,0,0,0,0,0,0,57,,,,,,,11.844,110.66,724.14968196544,17.716536,6,P-GPS,
12300,2023-10-12 21:40:22,40.0689281878461,-88.2096662956537,17.716536,,,724.14968196544,15.091864,1.1408394,11.2859583664,12.7066605116,24,10,21.8575,725.79010196544,19.356956,7.1805774,11.2859583664,1.11847,-0.223694,0,355.3, 4.6, 0.6,0,0,1024,1024,1024,1024,0,0,0,0,0,0,0,57,,,,,,,11.844,110.66,724.14968196544,17.716536,6,P-GPS,
12400,2023-10-12 21:40:22,40.0689287199614,-88.2096663974165,17.388452,,,723.82159796544,15.091864,0.894776,11.4819885564,12.9028547436,24,10,21.8575,725.79010196544,19.356956,7.1805774,11.4819885564,0.894776,0,0,355.2, 4, 0.6,0,0,1024,1024,1024,1024,0,0,0,0,0,0,0,57,,,,,,,11.844,110.66,723.82159796544,17.388452,6,P-GPS,
12500,2023-10-12 21:40:22,40.0689292240378,-88.2096664780564,17.716536,,,724.14968196544,15.091864,0.671082,11.6672575912,13.0881237784,24,10,21.8575,725.79010196544,19.356956,7.1805774,11.6672575912,0.671082,0,0,355.1, 3.3, 0.4,0,0,1024,1024,1024,1024,0,0,0,0,0,0,0,57,,,,,,,11.844,110.66,724.14968196544,17.716536,6,P-GPS,
12600,2023-10-12 21:40:22,40.0689297426776,-88.2096667038371,17.388452,,,723.82159796544,15.091864,0.671082,11.8621066788,13.2875988504,24,10,21.8575,725.79010196544,19.356956,7.1805774,11.8621066788,0.671082,0,0,355.1, 2.9, 0.1,0,0,1024,1024,1024,1024,0,0,0,0,0,0,0,57,,,,,,,11.844,110.66,723.82159796544,17.388452,6,P-GPS,
12700,2023-10-12 21:40:22,40.0689301135495,-88.2096667682007,17.388452,,,723.82159796544,15.091864,0.671082,11.9985568144,13.4240817944,24,10,21.8575,725.79010196544,19.356956,7.1805774,11.9985568144,0.671082,0,0,355, 2.7, 0,0,0,1024,1024,1024,1024,0,0,0,0,0,0,0,57,,,,,,,11.844,110.66,723.82159796544,17.388452,6,P-GPS,
12800,2023-10-12 21:40:22,40.0689304219162,-88.2096668448877,17.388452,,,723.82159796544,15.091864,0.447388,12.1127300464,13.5386159188,24,10,21.8575,725.79010196544,19.356956,7.1805774,12.1127300464,0.447388,0,0,355, 3, 0,0,0,1024,1024,1024,1024,0,0,0,0,0,0,0,57,,,,,,,11.844,110.66,723.82159796544,17.388452,6,P-GPS,
12900,2023-10-12 21:40:22,40.068930708534,-88.209666989207,17.388452,,,723.82159796544,15.419948,0.447388,12.221129,13.6506894132,24,10,21.8575,725.79010196544,19.356956,7.1805774,12.221129,0.447388,0,0,355, 3.5, 0,0,0,1024,1024,1024,1024,0,0,0,0,0,0,0,58,,,,,,,11.844,110.66,723.82159796544,17.388452,6,P-GPS,
13000,2023-10-12 21:40:23,40.0689309164663,-88.2096670530875,17.388452,,,723.82159796544,15.419948,0.223694,12.2984912072,13.7286093632,24,10,21.8445,725.79010196544,19.356956,7.1805774,12.2984912072,0.223694,0,0,355, 3.7, 0.1,0,0,1024,1024,1024,1024,0,0,0,0,0,0,0,57,,,,,,,9.108,110.48,723.82159796544,17.388452,6,P-GPS,
13100,2023-10-12 21:40:23,40.0689310918749,-88.2096671064044,17.388452,,,723.82159796544,15.091864,0.223694,12.3637799232,13.7943245884,24,10,21.8445,725.79010196544,19.356956,7.1805774,12.3637799232,0.223694,0,0,355, 3.4, 0.3,0,0,1024,1024,1024,1024,0,0,0,0,0,0,0,57,,,,,,,9.108,110.48,723.82159796544,17.388452,6,P-GPS,
13200,2023-10-12 21:40:23,40.0689312056414,-88.2096671438273,17.388452,,,723.82159796544,15.091864,0.223694,12.4062011844,13.8371395504,24,10,21.8445,725.79010196544,19.356956,7.1805774,12.4062011844,0.223694,0,0,355, 2.9, 0.1,0,0,1024,1024,1024,1024,0,0,0,0,0,0,0,57,,,,,,,9.108,110.48,723.82159796544,17.388452,6,P-GPS,
13300,2023-10-12 21:40:23,40.0689312561188,-88.2096672614602,17.716536,,,724.14968196544,15.091864,0,12.4282484292,13.8747707852,24,10,21.8445,725.79010196544,19.356956,7.1805774,12.4282484292,0,0,0,355, 2.5, 0,0,0,1024,1024,1024,1024,0,0,0,0,0,0,0,57,,,,,,,9.108,110.48,724.14968196544,17.716536,6,P-GPS,
13400,2023-10-12 21:40:23,40.0689313098581,-88.2096672941457,17.388452,,,723.82159796544,15.091864,0,12.4487864876,13.8963915208,24,10,21.8445,725.79010196544,19.356956,7.1805774,12.4487864876,0,0,0,355, 2.3, 0,0,0,1024,1024,1024,1024,0,0,0,0,0,0,0,57,,,,,,,9.108,110.48,723.82159796544,17.388452,6,P-GPS,
13500,2023-10-12 21:40:23,40.0689313464681,-88.2096673198572,17.716536,,,724.14968196544,15.091864,0,12.4628940996,13.91158181,24,10,21.8445,725.79010196544,19.356956,7.1805774,12.4628940996,0,0,0,355, 1.8, 0,0,0,1024,1024,1024,1024,0,0,0,0,0,0,0,57,,,,,,,9.108,110.48,724.14968196544,17.716536,6,P-GPS,
13600,2023-10-12 21:40:23,40.0689313251712,-88.2096674314521,17.716536,,,724.14968196544,15.091864,0,12.4588586664,13.9436684252,24,10,21.8445,725.79010196544,19.356956,7.1805774,12.4628940996,0,0,0,355, 1, 0,0,0,1258,1024,1024,1024,35,0,0,0,0,0,0,57,,,,,,,9.108,110.48,724.14968196544,17.716536,6,P-GPS,
13700,2023-10-12 21:40:23,40.0689313474961,-88.2096674531035,17.716536,,,724.14968196544,15.091864,0,12.4676513176,13.9538390292,24,10,21.8445,725.79010196544,19.356956,7.1805774,12.4676513176,0,0,0,355.1, 0.6, 0.1,0,0,1258,1024,1024,1024,35,0,0,0,0,0,0,57,,,,,,,9.108,110.48,724.14968196544,17.716536,6,P-GPS,
13800,2023-10-12 21:40:23,40.0689313742394,-88.2096674752299,17.716536,,,724.14968196544,15.091864,0,12.4780843888,13.965387586,24,10,21.8445,725.79010196544,19.356956,7.1805774,12.4780843888,0,0,0,355, -0.6, 0,0,0,1564,1024,1024,1024,82,0,0,0,0,0,0,57,,,,,,,9.108,110.48,724.14968196544,17.716536,6,P-GPS,
13900,2023-10-12 21:40:23,40.0689314293664,-88.2096674873591,17.716536,,,724.14968196544,15.091864,0,12.4984584052,13.9857616024,24,10,21.8445,725.79010196544,19.356956,7.1805774,12.4984584052,0,0,0,354.9, -5.2, 0,0,0,1564,1024,1024,1024,82,0,0,0,0,0,0,58,,,,,,,9.108,110.48,724.14968196544,17.716536,6,P-GPS,
14000,2023-10-12 21:40:23,40.068931548502,-88.2096675978765,17.716536,,,724.14968196544,15.419948,0.447388,12.5453416088,14.0390752524,24,10,21.831,725.79010196544,19.356956,7.1805774,12.5453416088,0.447388,0,0,354.8, -12.2, -0.1,0,0,1558,1024,1024,1024,81,0,0,0,0,0,0,57,,,,,,,8.883,110.48,724.14968196544,17.716536,6,P-GPS,
14100,2023-10-12 21:40:24,40.0689319014178,-88.2096676398282,17.716536,,,724.14968196544,15.419948,0.894776,12.6745738964,14.1683731568,24,10,21.831,725.79010196544,19.356956,7.1805774,12.6745738964,0.894776,0,0,354.7, -17.1, -0.3,0,0,1430,1024,1024,1024,62,0,0,0,0,0,0,57,,,,,,,8.883,110.48,724.14968196544,17.716536,6,P-GPS,
14200,2023-10-12 21:40:24,40.0689325405081,-88.2096677338402,17.716536,,,724.14968196544,15.419948,1.565858,12.9092195732,14.4030188336,24,10,21.831,725.79010196544,19.356956,7.1805774,12.9092195732,1.565858,0,0,354.7, -19.4, -0.5,0,0,1428,1024,1024,1024,61,0,0,0,0,0,0,57,,,,,,,8.883,110.48,724.14968196544,17.716536,6,P-GPS,
14300,2023-10-12 21:40:24,40.068933520583,-88.2096679222007,17.716536,,,724.14968196544,15.419948,2.460634,13.2705384824,14.764436168,24,10,21.831,725.79010196544,19.356956,7.1805774,13.2705384824,2.460634,0,-0.223694,354.8, -18.6, -0.2,0,0,1428,1024,1024,1024,61,0,0,0,0,0,0,57,,,,,,,8.883,110.48,724.14968196544,17.716536,6,P-GPS,
14400,2023-10-12 21:40:24,40.0689347593417,-88.209668116593,17.716536,,,724.14968196544,15.419948,3.131716,13.7257550324,15.219652718,24,10,21.831,725.79010196544,19.356956,7.1805774,13.7257550324,3.131716,-0.223694,-0.223694,355, -15.9, 0,0,0,1459,1024,1024,1024,66,0,0,0,0,0,0,57,,,,,,,8.883,110.48,724.14968196544,17.716536,6,P-GPS,
14500,2023-10-12 21:40:24,40.0689362976563,-88.2096683343927,17.716536,,,724.14968196544,15.748032,3.802798,14.2902235544,15.7841868568,24,10,21.831,725.79010196544,19.356956,7.1805774,14.2902235544,3.802798,-0.223694,0,355.3, -13.8, 0,0,0,1549,1024,1024,1024,80,0,0,0,0,0,0,57,,,,,,,8.883,110.48,724.14968196544,17.716536,6,P-GPS,
14600,2023-10-12 21:40:24,40.0689379566978,-88.2096685385912,17.716536,,,724.14968196544,15.748032,4.250186,14.897966356,16.3921593172,24,10,21.831,725.79010196544,19.356956,7.1805774,14.897966356,4.250186,-0.223694,0,355.4, -13.4, 0,0,0,1684,1024,1024,1024,100,0,0,0,0,0,0,57,,,,,,,8.883,110.48,724.14968196544,17.716536,6,P-GPS,
14700,2023-10-12 21:40:24,40.0689398660085,-88.2096688713687,17.716536,,,724.14968196544,15.748032,4.697574,15.6006894756,17.0949480536,24,10,21.831,725.79010196544,19.356956,7.1805774,15.6006894756,4.697574,-0.223694,0,355.5, -15.3, 0,0,0,1684,1024,1024,1024,100,0,0,0,0,0,0,57,,,,,,,8.883,110.48,724.14968196544,17.716536,6,P-GPS,
14800,2023-10-12 21:40:24,40.0689418968685,-88.2096690988159,17.716536,,,724.14968196544,15.748032,5.368656,16.3439309692,17.8386160564,24,10,21.831,725.79010196544,19.356956,7.1805774,16.3439309692,5.368656,-0.223694,0,355.5, -19.2, -0.1,0,0,1684,1024,1024,1024,100,0,0,0,0,0,0,57,,,,,,,8.883,110.48,724.14968196544,17.716536,6,P-GPS,
14900,2023-10-12 21:40:24,40.0689443160465,-88.2096693580048,17.716536,,,724.14968196544,16.076116,6.0621074,17.2289047508,18.7242131976,24,10,21.831,725.79010196544,19.356956,7.1805774,17.2289047508,6.039738,-0.447388,0,355.6, -21.6, -0.3,0,0,1570,1024,1024,1024,83,0,0,0,0,0,0,58,,,,,,,8.883,110.48,724.14968196544,17.716536,6,P-GPS,
15000,2023-10-12 21:40:24,40.0689469349455,-88.209669651394,17.716536,,,724.14968196544,16.076116,6.9568834,18.1874349652,19.683235538,24,10,21.8075,725.79010196544,19.356956,7.1805774,18.1874349652,6.934514,-0.447388,0,355.7, -22.1, -0.5,0,0,1533,1024,1024,1024,77,0,0,0,0,0,0,57,,,,,,,9.781,110.66,724.14968196544,17.716536,6,P-GPS,
15100,2023-10-12 21:40:25,40.0689500064089,-88.2096699474069,17.716536,,,724.14968196544,16.076116,7.8516594,19.3101712216,20.8068904296,24,10,21.8075,725.79010196544,19.356956,7.8516594,19.3101712216,7.82929,-0.447388,0,355.8, -21, -0.4,0,0,1050,1024,1024,1024,4,0,0,0,0,0,0,57,,,,,,,9.781,110.66,724.14968196544,17.716536,6,P-GPS,
15200,2023-10-12 21:40:25,40.0689532439345,-88.209670271275,17.716536,,,724.14968196544,16.076116,8.5227414,20.4940623356,21.9915689452,24,10,21.8075,725.79010196544,19.356956,8.5227414,20.4940623356,8.500372,-0.671082,-0.223694,355.8, -19, -0.2,0,0,1024,1024,1024,1024,0,0,0,0,0,0,0,57,,,,,,,9.781,110.66,724.14968196544,17.716536,6,P-GPS,
15300,2023-10-12 21:40:25,40.0689569074334,-88.2096706333636,17.716536,,,724.14968196544,16.076116,9.1938234,21.8336949244,23.3319889356,24,10,21.8075,725.79010196544,19.356956,9.1938234,21.8336949244,9.171454,-0.671082,-0.223694,355.6, -13.4, -0.3,0,0,1024,1024,1024,1024,0,0,0,0,0,0,0,57,,,,,,,9.781,110.66,724.14968196544,17.716536,6,P-GPS,
15400,2023-10-12 21:40:25,40.0689606052423,-88.2096710776842,17.716536,,,724.14968196544,15.748032,9.6412114,23.188320952,24.686844622,24,10,21.8075,725.79010196544,19.356956,9.6412114,23.188320952,9.618842,-0.671082,-0.223694,355.4, -0.9, -0.4,0,0,1024,1024,1024,1024,0,0,0,0,0,0,0,57,,,,,,,9.781,110.66,724.14968196544,17.716536,6,P-GPS,
15500,2023-10-12 21:40:25,40.068964439087,-88.2096714911097,17.716536,,,724.14968196544,15.748032,9.1938234,24.5914049864,26.0903551656,24,10,21.8075,725.79010196544,19.356956,9.6412114,24.5914049864,9.171454,-0.671082,-0.223694,355.4, 17.4, -0.3,0,0,1024,1024,1024,1024,0,0,0,0,0,0,0,57,,,,,,,9.781,110.66,724.14968196544,17.716536,6,P-GPS,
15600,2023-10-12 21:40:25,40.0689677883321,-88.2096718275016,17.716536,,,724.14968196544,15.748032,9.1938234,25.8164706424,27.315945756,24,10,21.8075,725.79010196544,19.356956,9.6412114,25.8164706424,8.500372,-0.671082,0,355.4, 22.4, 0,0,0,1024,1024,1024,1024,0,0,0,0,0,0,0,57,,,,,,,9.781,110.66,724.14968196544,17.716536,6,P-GPS,
15700,2023-10-12 21:40:25,40.0689710075125,-88.2096721502783,17.716536,,,724.14968196544,13.12336,7.4042714,26.9939641184,28.4938985496,24,10,21.8075,725.79010196544,19.356956,9.6412114,26.9939641184,7.381902,-0.447388,0,355.2, 25.2, -0.3,0,0,1024,1024,1024,1024,0,0,0,0,0,0,0,57,,,,,,,9.781,110.66,724.14968196544,17.716536,6,P-GPS,
15800,2023-10-12 21:40:25,40.0689735144016,-88.2096723825475,17.716536,,,724.14968196544,13.12336,6.2858014,27.9104011556,29.4108605212,24,10,21.8075,725.79010196544,19.356956,9.6412114,27.9104011556,6.263432,-0.447388,0,355, 26.2, -0.6,0,0,1024,1024,1024,1024,0,0,0,0,0,0,0,57,,,,,,,9.781,110.66,724.14968196544,17.716536,6,P-GPS,
15900,2023-10-12 21:40:25,40.0689756933469,-88.2096725881145,17.716536,,,724.14968196544,13.12336,5.1673314,28.7070875328,30.2079077908,24,10,21.8075,725.79010196544,19.356956,9.6412114,28.7070875328,5.144962,-0.447388,0,354.7, 25.5, -0.5,0,0,1024,1024,1024,1024,0,0,0,0,0,0,0,58,,,,,,,9.781,110.66,724.14968196544,17.716536,6,P-GPS,
16000,2023-10-12 21:40:25,40.0689772859494,-88.2096726863665,17.388452,,,723.82159796544,13.451444,4.026492,29.2879274464,30.7896007228,24,10,21.8075,725.79010196544,19.356956,9.6412114,29.2879274464,4.026492,-0.223694,0,354.5, 20.3, -0.4,0,0,1024,1024,1024,1024,0,0,0,0,0,0,0,58,,,,,,,9.781,110.66,723.82159796544,17.388452,6,P-GPS,
16100,2023-10-12 21:40:25,40.0689787125195,-88.2096727026396,17.716536,,,724.14968196544,13.451444,4.026492,29.806267358,31.3101059888,24,10,21.8075,725.79010196544,19.356956,9.6412114,29.806267358,3.131716,-0.223694,0,354.3, 13.6, -0.4,0,0,1024,1024,1024,1024,0,0,0,0,0,0,0,58,,,,,,,9.781,110.66,724.14968196544,17.716536,6,P-GPS,
16200,2023-10-12 21:40:26,40.0689798491136,-88.20967281442,17.388452,,,723.82159796544,13.779528,2.460634,30.2220154028,31.7259852672,24,10,21.8075,725.79010196544,19.356956,9.6412114,30.2220154028,2.460634,-0.223694,-0.223694,354.2, 8.2, -0.3,0,0,1024,1024,1024,1024,0,0,0,0,0,0,0,58,,,,,,,9.781,110.66,723.82159796544,17.388452,6,P-GPS,
16300,2023-10-12 21:40:26,40.0689809022931,-88.209672918083,17.716536,,,724.14968196544,13.779528,2.23694,30.6072188272,32.1113199252,24,10,21.8075,725.79010196544,19.356956,9.6412114,30.6072188272,2.23694,-0.223694,-0.223694,354.2, 5.2, -0.1,0,0,1024,1024,1024,1024,0,0,0,0,0,0,0,58,,,,,,,9.781,110.66,724.14968196544,17.716536,6,P-GPS,
16400,2023-10-12 21:40:26,40.0689820798961,-88.2096730776872,17.716536,,,724.14968196544,13.779528,2.23694,31.0391742216,32.5432753196,24,10,21.8075,725.79010196544,19.356956,9.6412114,31.0391742216,2.23694,-0.223694,-0.223694,354.2, 4.4, 0.1,0,0,1024,1024,1024,1024,0,0,0,0,0,0,0,58,,,,,,,9.781,110.66,724.14968196544,17.716536,6,P-GPS,
16500,2023-10-12 21:40:26,40.0689830548354,-88.2096731584478,17.716536,,,724.14968196544,13.779528,2.013246,31.3953750204,32.899607352,24,10,21.8075,725.79010196544,19.356956,9.6412114,31.3953750204,2.013246,0,-0.223694,354.4, 4.7, 0.4,0,0,1024,1024,1024,1024,0,0,0,0,0,0,0,58,,,,,,,9.781,110.66,724.14968196544,17.716536,6,P-GPS,
16600,2023-10-12 21:40:26,40.068983937725,-88.2096732967701,17.716536,,,724.14968196544,13.779528,1.789552,31.7197188628,33.224082428,24,10,21.8075,725.79010196544,19.356956,9.6412114,31.7197188628,1.789552,0,-0.223694,354.6, 5.2, 0.6,0,0,1024,1024,1024,1024,0,0,0,0,0,0,0,58,,,,,,,9.781,110.66,724.14968196544,17.716536,6,P-GPS,
16700,2023-10-12 21:40:26,40.068984777481,-88.209673407417,17.716536,,,724.14968196544,13.779528,1.789552,32.0276585052,33.532153304,24,10,21.8075,725.79010196544,19.356956,9.6412114,32.0276585052,1.565858,0,-0.223694,354.9, 5.3, 0.3,0,0,1024,1024,1024,1024,0,0,0,0,0,0,0,58,,,,,,,9.781,110.66,724.14968196544,17.716536,6,P-GPS,
16800,2023-10-12 21:40:26,40.0689857031787,-88.2096737287132,17.716536,,,724.14968196544,13.779528,1.565858,32.3726388312,33.881562764,24,10,21.8075,725.79010196544,19.356956,9.6412114,32.3726388312,1.565858,0,-0.223694,355.2, 5.1, 0,0,0,1024,1024,1024,1024,0,0,0,0,0,0,0,58,,,,,,,9.781,110.66,724.14968196544,17.716536,6,P-GPS,
16900,2023-10-12 21:40:26,40.0689863690553,-88.2096738180082,17.716536,,,724.14968196544,13.779528,1.565858,32.6168645608,34.12565726,24,10,21.8075,725.79010196544,19.356956,9.6412114,32.6168645608,1.342164,0,0,355.4, 4.6, -0.3,0,0,1024,1024,1024,1024,0,0,0,0,0,0,0,58,,,,,,,9.781,110.66,724.14968196544,17.716536,6,P-GPS,
17000,2023-10-12 21:40:26,40.0689868108685,-88.2096738735534,17.716536,,,724.14968196544,13.779528,1.11847,32.7788068232,34.287730756,24,10,21.7635,725.79010196544,19.356956,9.6412114,32.7788068232,1.11847,0,0,355.6, 3.9, -0.7,0,0,1024,1024,1024,1024,0,0,0,0,0,0,0,57,,,,,,,11.873,110.48,724.14968196544,17.716536,6,P-GPS,
17100,2023-10-12 21:40:26,40.0689871008274,-88.2096740554457,17.716536,,,724.14968196544,13.779528,1.11847,32.889108664,34.404856744,24,10,21.7635,725.79010196544,19.356956,9.6412114,32.889108664,0.894776,0,0,355.8, 3.2, -0.8,0,0,1024,1024,1024,1024,0,0,0,0,0,0,0,57,,,,,,,11.873,110.48,724.14968196544,17.716536,6,P-GPS,
17200,2023-10-12 21:40:27,40.0689874632868,-88.2096742235339,17.716536,,,724.14968196544,13.779528,0.671082,33.025591608,34.545276696,24,10,21.7635,725.79010196544,19.356956,9.6412114,33.025591608,0.671082,0,0,355.8, 2.6, -0.5,0,0,1024,1024,1024,1024,0,0,0,0,0,0,0,57,,,,,,,11.873,110.48,724.14968196544,17.716536,6,P-GPS,
17300,2023-10-12 21:40:27,40.0689878287188,-88.2096743769896,17.716536,,,724.14968196544,13.779528,0.4921268,33.162402636,34.685368564,24,10,21.7635,725.79010196544,19.356956,9.6412114,33.162402636,0.447388,-0.223694,0,355.6, 2.5, 0,0,0,1024,1024,1024,1024,0,0,0,0,0,0,0,57,,,,,,,11.873,110.48,724.14968196544,17.716536,6,P-GPS,
17400,2023-10-12 21:40:27,40.0689881053821,-88.2096745381372,17.716536,,,724.14968196544,13.779528,0.4921268,33.2677176,34.795932872,24,10,21.7635,725.79010196544,19.356956,9.6412114,33.2677176,0.447388,-0.223694,0,355.5, 2.4, 0.7,0,0,1024,1024,1024,1024,0,0,0,0,0,0,0,57,,,,,,,11.873,110.48,724.14968196544,17.716536,6,P-GPS,
17500,2023-10-12 21:40:27,40.0689883308419,-88.2096748436157,17.716536,,,724.14968196544,13.451444,0.3131716,33.358268784,34.914371196,24,10,21.7635,725.79010196544,19.356956,9.6412114,33.358268784,0.223694,-0.223694,0,355.4, 2.5, 1.4,0,0,1024,1024,1024,1024,0,0,0,0,0,0,0,57,,,,,,,11.873,110.48,724.14968196544,17.716536,6,P-GPS,
17600,2023-10-12 21:40:27,40.0689885111721,-88.2096749916477,17.716536,,,724.14968196544,13.451444,0.223694,33.428150676,34.992127104,24,10,21.7635,725.79010196544,19.356956,9.6412114,33.428150676,0.223694,0,0,355.3, 2.3, 1.6,0,0,1024,1024,1024,1024,0,0,0,0,0,0,0,57,,,,,,,11.873,110.48,724.14968196544,17.716536,6,P-GPS,
17700,2023-10-12 21:40:27,40.068988672664,-88.2096751114293,17.716536,,,724.14968196544,13.451444,0.223694,33.490486636,35.059712408,24,10,21.7635,725.79010196544,19.356956,9.6412114,33.490486636,0.223694,0,0,355.2, 2.3, 1.2,0,0,1024,1024,1024,1024,0,0,0,0,0,0,0,57,,,,,,,11.873,110.48,724.14968196544,17.716536,6,P-GPS,
17800,2023-10-12 21:40:27,40.0689886622811,-88.2096753689929,17.388452,,,723.82159796544,13.451444,0,33.494423644,35.131890888,24,10,21.7635,725.79010196544,19.356956,9.6412114,33.494423644,0,0,0,355.2, 2, 0.8,0,0,1024,1024,1024,1024,0,0,0,0,0,0,0,57,,,,,,,11.873,110.48,723.82159796544,17.388452,6,P-GPS,
17900,2023-10-12 21:40:27,40.0689887377371,-88.2096754558895,17.716536,,,724.14968196544,13.12336,0,33.524607372,35.168636296,24,10,21.7635,725.79010196544,19.356956,9.6412114,33.524607372,0,0,0,355.1, 1.7, 0.7,0,0,1024,1024,1024,1024,0,0,0,0,0,0,0,58,,,,,,,11.873,110.48,724.14968196544,17.716536,6,P-GPS,
18000,2023-10-12 21:40:28,40.0689887810506,-88.2096755532374,17.388452,,,723.82159796544,13.12336,0,33.54330816,35.20013236,24,10,21.799,725.79010196544,19.356956,9.6412114,33.54330816,0,0,0,355, 1.6, 0.9,0,0,1024,1024,1024,1024,0,0,0,0,0,0,0,57,,,,,,,8.958,110.48,723.82159796544,17.388452,6,P-GPS,
18100,2023-10-12 21:40:28,40.068988811711,-88.2096756388705,17.388452,,,723.82159796544,13.12336,0,33.557087688,35.22637908,24,10,21.799,725.79010196544,19.356956,9.6412114,33.557087688,0,0,0,355, 1.5, 1.2,0,0,1024,1024,1024,1024,0,0,0,0,0,0,0,57,,,,,,,8.958,110.48,723.82159796544,17.388452,6,P-GPS,
18200,2023-10-12 21:40:28,40.0689887067426,-88.2096758587272,17.388452,,,723.82159796544,13.12336,0,33.525919708,35.298885644,24,10,21.799,725.79010196544,19.356956,9.6412114,33.557087688,0,0,0,355, 1.3, 1.4,0,0,1024,1024,1024,1024,0,0,0,0,0,0,0,57,,,,,,,8.958,110.48,723.82159796544,17.388452,6,P-GPS,
18300,2023-10-12 21:40:28,40.0689886876473,-88.2096759151064,17.388452,,,723.82159796544,13.12336,0,33.520998448,35.315946012,24,10,21.799,725.79010196544,19.356956,9.6412114,33.557087688,0,0,0,355, 1, 1.3,0,0,1024,1024,1024,1024,0,0,0,0,0,0,0,57,,,,,,,8.958,110.48,723.82159796544,17.388452,6,P-GPS,
18400,2023-10-12 21:40:28,40.0689886594798,-88.2096759453425,17.388452,,,723.82159796544,13.12336,0,33.511812096,35.329397456,24,10,21.799,725.79010196544,19.356956,9.6412114,33.557087688,0,0,0,355, 0.6, 1.1,0,0,1024,1024,1024,1024,0,0,0,0,0,0,0,57,,,,,,,8.958,110.48,723.82159796544,17.388452,6,P-GPS,
18500,2023-10-12 21:40:28,40.0689885875105,-88.2096760066263,17.388452,,,723.82159796544,13.12336,0,33.48753388,35.360565436,24,10,21.799,725.79010196544,19.356956,9.6412114,33.557087688,0,0,0,355, 0.3, 1.1,0,0,1024,1024,1144,1024,0,0,18,0,0,0,0,57,,,,,,,8.958,110.48,723.82159796544,17.388452,6,P-GPS,
18600,2023-10-12 21:40:28,40.0689885710709,-88.2096760069481,17.060368,,,723.49351396544,13.12336,0,33.481628368,35.366470948,24,10,21.799,725.79010196544,19.356956,9.6412114,33.557087688,0,0,0,355, 0.3, 1,0,0,1024,1024,1588,1024,0,0,85,0,0,0,0,57,,,,,,,8.958,110.48,723.49351396544,17.060368,6,P-GPS,
18700,2023-10-12 21:40:28,40.0689885608936,-88.2096759905455,17.060368,,,723.49351396544,13.12336,0,33.477363276,35.37237646,24,10,21.799,725.79010196544,19.356956,9.6412114,33.557087688,0,0,-0.223694,355, 0.7, 0.8,0,0,1024,1024,1637,1024,0,0,93,0,0,0,0,57,,,,,,,8.958,110.48,723.49351396544,17.060368,6,P-GPS,
